[{"country":"AZ","name":"Khankendi","admin1Code":"AZ.61","latitude":39.8177,"longitude":46.7528,"translations":{"pt":"Khankendi","it":"Khankendi","ru":"Ханкенди","uk":"Ханкенді","de":"Xankəndi","es":"Khankendi","en":"Khankendi","fr":"Khankendi"}},{"country":"AZ","name":"Ahmedbeyli","admin1Code":"AZ.45","latitude":39.88074,"longitude":48.39158,"translations":{"pt":"Ahmedbeyli","it":"Ahmedbeyli","ru":"Tel’mankend","uk":"Ahmedbeyli","de":"Ahmedbeyli","es":"Ahmedbeyli","en":"Ahmedbeyli","fr":"Ahmedbeyli"}},{"country":"AZ","name":"Shusha","admin1Code":"AZ.55","latitude":39.76006,"longitude":46.74989,"translations":{"pt":"Shusha","it":"Shusha","ru":"Шуша","uk":"Shusha","de":"Şuşa","es":"Shusha","en":"Shusha","fr":"Choucha"}},{"country":"AZ","name":"Сальян","admin1Code":"AZ.49","latitude":39.59621,"longitude":48.98479,"translations":{"pt":"Sal'jan","it":"Sal'jan","ru":"Сальян","uk":"Сальян","de":"Sal'jan","es":"Sal'jan","en":"Сальян","fr":"Sal'jan"}},{"country":"AZ","name":"Саатлы","admin1Code":"AZ.45","latitude":39.93214,"longitude":48.36892,"translations":{"pt":"Saatlы","it":"Saatlы","ru":"Саатлы","uk":"Саатлы","de":"Saatlы","es":"Saatlы","en":"Саатлы","fr":"Saatlы"}},{"country":"AZ","name":"Нефтечала","admin1Code":"AZ.36","latitude":39.3768,"longitude":49.247,"translations":{"pt":"Neftechala","it":"Neftechala","ru":"Нефтечала","uk":"Нефтечала","de":"Neftechala","es":"Neftechala","en":"Нефтечала","fr":"Neftechala"}},{"country":"AZ","name":"Nakhchivan","admin1Code":"AZ.35","latitude":39.20889,"longitude":45.41222,"translations":{"pt":"Nakhchivan","it":"Nakhchivan","ru":"Нахичевань","uk":"Нахічевань","de":"Nachitschewan","es":"Nakhchivan","en":"Nakhchivan","fr":"Nakhitchevan"}},{"country":"AZ","name":"Lerik","admin1Code":"AZ.31","latitude":38.77388,"longitude":48.41497,"translations":{"pt":"Lerik","it":"Lerik","ru":"Lerik","uk":"Lerik","de":"Lerik","es":"Lerik","en":"Lerik","fr":"Lerik"}},{"country":"AZ","name":"Lankaran","admin1Code":"AZ.29","latitude":38.75428,"longitude":48.85062,"translations":{"pt":"Lankaran","it":"Lankaran","ru":"Ленкорань","uk":"Lankaran","de":"Lənkəran","es":"Lankaran","en":"Lankaran","fr":"Lankaran"}},{"country":"AZ","name":"Имишли","admin1Code":"AZ.24","latitude":39.87095,"longitude":48.05995,"translations":{"pt":"Ymyshly","it":"Ymyshly","ru":"Имишли","uk":"Имишли","de":"Ymyshly","es":"Ymyshly","en":"Имишли","fr":"Ymyshly"}},{"country":"AZ","name":"Физули","admin1Code":"AZ.18","latitude":39.60094,"longitude":47.14529,"translations":{"pt":"Fyzuly","it":"Fyzuly","ru":"Физули","uk":"Физули","de":"Fyzuly","es":"Fyzuly","en":"Физули","fr":"Fyzuly"}},{"country":"AZ","name":"Джалильабад","admin1Code":"AZ.15","latitude":39.20963,"longitude":48.49186,"translations":{"pt":"Dzhalyl'abad","it":"Dzhalyl'abad","ru":"Джалильабад","uk":"Джалильабад","de":"Dzhalyl'abad","es":"Dzhalyl'abad","en":"Джалильабад","fr":"Dzhalyl'abad"}},{"country":"AZ","name":"Pushkino","admin1Code":"AZ.13","latitude":39.45833,"longitude":48.545,"translations":{"pt":"Pushkino","it":"Pushkino","ru":"Pushkino","uk":"Pushkino","de":"Pushkino","es":"Pushkino","en":"Pushkino","fr":"Pushkino"}},{"country":"AZ","name":"Beylagan","admin1Code":"AZ.12","latitude":39.77556,"longitude":47.61861,"translations":{"pt":"Beylagan","it":"Beylagan","ru":"Beylagan","uk":"Beylagan","de":"Beylagan","es":"Beylagan","en":"Beylagan","fr":"Beylagan"}},{"country":"AZ","name":"Астара","admin1Code":"AZ.08","latitude":38.45598,"longitude":48.87498,"translations":{"pt":"Astara","it":"Astara","ru":"Астара","uk":"Астара","de":"Astara","es":"Astara","en":"Астара","fr":"Astara"}},{"country":"AZ","name":"Али-байрамлы","admin1Code":"AZ.07","latitude":39.93778,"longitude":48.929,"translations":{"pt":"Aly-bajramlы","it":"Aly-bajramlы","ru":"Ширван","uk":"Али-байрамлы","de":"Aly-bajramlы","es":"Aly-bajramlы","en":"Али-байрамлы","fr":"Aly-bajramlы"}},{"country":"AZ","name":"Агдам","admin1Code":"AZ.03","latitude":39.99096,"longitude":46.92736,"translations":{"pt":"Ahdam","it":"Ahdam","ru":"Агдам","uk":"Агдам","de":"Ahdam","es":"Ahdam","en":"Агдам","fr":"Ahdam"}},{"country":"AZ","name":"Zaqatala","admin1Code":"AZ.70","latitude":41.6316,"longitude":46.64479,"translations":{"pt":"Zaqatala","it":"Zaqatala","ru":"Загатала","uk":"Zaqatala","de":"Zaqatala","es":"Zaqatala","en":"Zaqatala","fr":"Zaqatala"}},{"country":"AZ","name":"Zabrat","admin1Code":"AZ.09","latitude":40.47746,"longitude":49.94174,"translations":{"pt":"Zabrat","it":"Zabrat","ru":"Забрат","uk":"Zabrat","de":"Zabrat","es":"Zabrat","en":"Zabrat","fr":"Zabrat"}},{"country":"AZ","name":"Yevlakh","admin1Code":"AZ.68","latitude":40.61832,"longitude":47.15014,"translations":{"pt":"Yevlakh","it":"Yevlakh","ru":"Евлах","uk":"Yevlakh","de":"Yevlakh","es":"Yevlakh","en":"Yevlakh","fr":"Yevlakh"}},{"country":"AZ","name":"Goygol","admin1Code":"AZ.62","latitude":40.58584,"longitude":46.3189,"translations":{"pt":"Goygol","it":"Goygol","ru":"Гёйгёль","uk":"Goygol","de":"Göygöl","es":"Goygol","en":"Goygol","fr":"Goygol"}},{"country":"AZ","name":"Xaçmaz","admin1Code":"AZ.60","latitude":41.46426,"longitude":48.80565,"translations":{"pt":"Xaçmaz","it":"Xaçmaz","ru":"Хачмас","uk":"Xaçmaz","de":"Xaçmaz","es":"Xaçmaz","en":"Xaçmaz","fr":"Xaçmaz"}},{"country":"AZ","name":"Ucar","admin1Code":"AZ.59","latitude":40.51902,"longitude":47.65423,"translations":{"pt":"Ucar","it":"Ucar","ru":"Уджары","uk":"Ucar","de":"Ucar","es":"Ucar","en":"Ucar","fr":"Ucar"}},{"country":"AZ","name":"Tovuz","admin1Code":"AZ.58","latitude":40.99249,"longitude":45.62838,"translations":{"pt":"Tovuz","it":"Tovuz","ru":"Тауз","uk":"Tovuz","de":"Tovuz","es":"Tovuz","en":"Tovuz","fr":"Tovuz"}},{"country":"AZ","name":"Tǝrtǝr","admin1Code":"AZ.57","latitude":40.34201,"longitude":46.93161,"translations":{"pt":"Tǝrtǝr","it":"Tǝrtǝr","ru":"Тертер","uk":"Tǝrtǝr","de":"Tǝrtǝr","es":"Tǝrtǝr","en":"Tǝrtǝr","fr":"Tǝrtǝr"}},{"country":"AZ","name":"Sumqayit","admin1Code":"AZ.54","latitude":40.58972,"longitude":49.66861,"translations":{"pt":"Sumqayit","it":"Sumqayit","ru":"Сумгаит","uk":"Sumqayit","de":"Sumqayıt","es":"Sumqayit","en":"Sumqayit","fr":"Sumqayit"}},{"country":"AZ","name":"Qaraçuxur","admin1Code":"AZ.09","latitude":40.39667,"longitude":49.97361,"translations":{"pt":"Qaraçuxur","it":"Qaraçuxur","ru":"Гарачухур","uk":"Qaraçuxur","de":"Qaraçuxur","es":"Qaraçuxur","en":"Qaraçuxur","fr":"Qaraçuxur"}},{"country":"AZ","name":"Şǝmkir","admin1Code":"AZ.51","latitude":40.82975,"longitude":46.0178,"translations":{"pt":"Şǝmkir","it":"Şǝmkir","ru":"Шамкир","uk":"Şǝmkir","de":"Şǝmkir","es":"Şǝmkir","en":"Şǝmkir","fr":"Şǝmkir"}},{"country":"AZ","name":"Şamaxı","admin1Code":"AZ.50","latitude":40.63141,"longitude":48.64137,"translations":{"pt":"Şamaxı","it":"Şamaxı","ru":"Шемаха","uk":"Şamaxı","de":"Şamaxı","es":"Şamaxı","en":"Şamaxı","fr":"Şamaxı"}},{"country":"AZ","name":"Şǝki","admin1Code":"AZ.48","latitude":41.19194,"longitude":47.17056,"translations":{"pt":"Şǝki","it":"Şǝki","ru":"Шеки","uk":"Şǝki","de":"Şǝki","es":"Şǝki","en":"Şǝki","fr":"Şǝki"}},{"country":"AZ","name":"Sabunçu","admin1Code":"AZ.09","latitude":40.4425,"longitude":49.94806,"translations":{"pt":"Sabunçu","it":"Sabunçu","ru":"Сабунчи","uk":"Sabunçu","de":"Sabunçu","es":"Sabunçu","en":"Sabunçu","fr":"Sabunçu"}},{"country":"AZ","name":"Sabirabad","admin1Code":"AZ.46","latitude":40.00869,"longitude":48.47701,"translations":{"pt":"Sabirabad","it":"Sabirabad","ru":"Сабирабад","uk":"Sabirabad","de":"Sabirabad","es":"Sabirabad","en":"Sabirabad","fr":"Sabirabad"}},{"country":"AZ","name":"Qusar","admin1Code":"AZ.44","latitude":41.4275,"longitude":48.4302,"translations":{"pt":"Qusar","it":"Qusar","ru":"Кусары","uk":"Qusar","de":"Qusar","es":"Qusar","en":"Qusar","fr":"Qusar"}},{"country":"AZ","name":"Quba","admin1Code":"AZ.42","latitude":41.36108,"longitude":48.51341,"translations":{"pt":"Quba","it":"Quba","ru":"Куба","uk":"Ґуба","de":"Quba","es":"Quba","en":"Quba","fr":"Quba"}},{"country":"AZ","name":"Qazımǝmmǝd","admin1Code":"AZ.23","latitude":40.03874,"longitude":48.94286,"translations":{"pt":"Qazımǝmmǝd","it":"Qazımǝmmǝd","ru":"Кази-магомед","uk":"Qazımǝmmǝd","de":"Qazımǝmmǝd","es":"Qazımǝmmǝd","en":"Qazımǝmmǝd","fr":"Qazımǝmmǝd"}},{"country":"AZ","name":"Qazax","admin1Code":"AZ.40","latitude":41.09246,"longitude":45.36561,"translations":{"pt":"Qazax","it":"Qazax","ru":"Казах","uk":"Qazax","de":"Qazax","es":"Qazax","en":"Qazax","fr":"Qazax"}},{"country":"AZ","name":"Hacı zeynalabdin","admin1Code":"AZ.54","latitude":40.62333,"longitude":49.55861,"translations":{"pt":"Hacı zeynalabdin","it":"Hacı zeynalabdin","ru":"Гаджи-зейналабдин","uk":"Hacı zeynalabdin","de":"Hacı zeynalabdin","es":"Hacı zeynalabdin","en":"Hacı zeynalabdin","fr":"Hacı zeynalabdin"}},{"country":"AZ","name":"Mingachevir","admin1Code":"AZ.33","latitude":40.76395,"longitude":47.05953,"translations":{"pt":"Mingachevir","it":"Mingachevir","ru":"Мингечаур","uk":"Mingachevir","de":"Mingäçevir","es":"Mingacevir","en":"Mingachevir","fr":"Mingachevir"}},{"country":"AZ","name":"Maştağa","admin1Code":"AZ.09","latitude":40.52983,"longitude":50.00616,"translations":{"pt":"Maştağa","it":"Maştağa","ru":"Маштага","uk":"Maştağa","de":"Maştağa","es":"Maştağa","en":"Maştağa","fr":"Maştağa"}},{"country":"AZ","name":"Mǝrdǝkan","admin1Code":"AZ.09","latitude":40.49182,"longitude":50.14292,"translations":{"pt":"Mǝrdǝkan","it":"Mǝrdǝkan","ru":"Мардакян","uk":"Mǝrdǝkan","de":"Mǝrdǝkan","es":"Mǝrdǝkan","en":"Mǝrdǝkan","fr":"Mǝrdǝkan"}},{"country":"AZ","name":"Lökbatan","admin1Code":"AZ.09","latitude":40.3256,"longitude":49.73376,"translations":{"pt":"Lökbatan","it":"Lökbatan","ru":"Локбатан","uk":"Lökbatan","de":"Lökbatan","es":"Lökbatan","en":"Lökbatan","fr":"Lökbatan"}},{"country":"AZ","name":"Kürdǝmir","admin1Code":"AZ.27","latitude":40.34257,"longitude":48.15649,"translations":{"pt":"Kürdǝmir","it":"Kürdǝmir","ru":"Кюрдамир","uk":"Kürdǝmir","de":"Kürdǝmir","es":"Kürdǝmir","en":"Kürdǝmir","fr":"Kürdǝmir"}},{"country":"AZ","name":"Xirdalan","admin1Code":"AZ.01","latitude":40.44808,"longitude":49.75502,"translations":{"pt":"Xirdalan","it":"Xirdalan","ru":"Хырдалан","uk":"Xirdalan","de":"Xirdalan","es":"Xirdalan","en":"Xirdalan","fr":"Xirdalan"}},{"country":"AZ","name":"İsmayıllı","admin1Code":"AZ.25","latitude":40.78485,"longitude":48.15141,"translations":{"pt":"İsmayıllı","it":"İsmayıllı","ru":"Исмаиллы","uk":"İsmayıllı","de":"İsmayıllı","es":"İsmayıllı","en":"İsmayıllı","fr":"İsmayıllı"}},{"country":"AZ","name":"Yeni suraxanı","admin1Code":"AZ.09","latitude":40.43026,"longitude":50.03598,"translations":{"pt":"Yeni suraxanı","it":"Yeni suraxanı","ru":"Yeni suraxanı","uk":"Yeni suraxanı","de":"Yeni suraxanı","es":"Yeni suraxanı","en":"Yeni suraxanı","fr":"Yeni suraxanı"}},{"country":"AZ","name":"Göyçay","admin1Code":"AZ.22","latitude":40.65055,"longitude":47.74219,"translations":{"pt":"Göyçay","it":"Göyçay","ru":"Геокчай","uk":"Göyçay","de":"Göyçay","es":"Göyçay","en":"Göyçay","fr":"Göyçay"}},{"country":"AZ","name":"Hövsan","admin1Code":"AZ.09","latitude":40.37444,"longitude":50.08528,"translations":{"pt":"Hövsan","it":"Hövsan","ru":"Говсан","uk":"Hövsan","de":"Howsan","es":"Hövsan","en":"Hövsan","fr":"Hovsan"}},{"country":"AZ","name":"Ganja","admin1Code":"AZ.20","latitude":40.68278,"longitude":46.36056,"translations":{"pt":"Ganja","it":"Gäncä","ru":"Гянджа","uk":"Гянджа","de":"Gäncä","es":"Gandja","en":"Ganja","fr":"Gandja"}},{"country":"AZ","name":"Dǝvǝçi","admin1Code":"AZ.17","latitude":41.20117,"longitude":48.98712,"translations":{"pt":"Dǝvǝçi","it":"Dǝvǝçi","ru":"Дивичи","uk":"Dǝvǝçi","de":"Dǝvǝçi","es":"Dǝvǝçi","en":"Dǝvǝçi","fr":"Dǝvǝçi"}},{"country":"AZ","name":"Buzovna","admin1Code":"AZ.09","latitude":40.51903,"longitude":50.11438,"translations":{"pt":"Buzovna","it":"Buzovna","ru":"Бузовна","uk":"Бузовна","de":"Buzovna","es":"Buzovna","en":"Buzovna","fr":"Buzovna"}},{"country":"AZ","name":"Binǝ","admin1Code":"AZ.09","latitude":40.45076,"longitude":50.08686,"translations":{"pt":"Binǝ","it":"Binǝ","ru":"Бина","uk":"Біна","de":"Binǝ","es":"Binǝ","en":"Binǝ","fr":"Binə"}},{"country":"AZ","name":"Bǝrdǝ","admin1Code":"AZ.11","latitude":40.37577,"longitude":47.12619,"translations":{"pt":"Bǝrdǝ","it":"Bərdə","ru":"Барда","uk":"Барда","de":"Bərdə","es":"Bərdə","en":"Bǝrdǝ","fr":"Bǝrdǝ"}},{"country":"AZ","name":"Baladjary","admin1Code":"AZ.09","latitude":40.4444,"longitude":49.80566,"translations":{"pt":"Baladjary","it":"Baladjary","ru":"Баладжары","uk":"Baladjary","de":"Baladjary","es":"Baladjary","en":"Baladjary","fr":"Baladjary"}},{"country":"AZ","name":"Baku","admin1Code":"AZ.09","latitude":40.37767,"longitude":49.89201,"translations":{"pt":"Baku","it":"Baku","ru":"Баку","uk":"Баку","de":"Baku","es":"Bakú","en":"Baku","fr":"Bakou"}},{"country":"AZ","name":"Amiradzhan","admin1Code":"AZ.09","latitude":40.42639,"longitude":49.98361,"translations":{"pt":"Amiradzhan","it":"Amiradzhan","ru":"Amiradzhan","uk":"Amiradzhan","de":"Amiradzhan","es":"Amiradzhan","en":"Amiradzhan","fr":"Amiradzhan"}},{"country":"AZ","name":"Ağsu","admin1Code":"AZ.06","latitude":40.57028,"longitude":48.40087,"translations":{"pt":"Ağsu","it":"Ağsu","ru":"Ахсу","uk":"Ağsu","de":"Ağsu","es":"Ağsu","en":"Ağsu","fr":"Ağsu"}},{"country":"AZ","name":"Ağdaş","admin1Code":"AZ.04","latitude":40.64699,"longitude":47.4738,"translations":{"pt":"Ağdaş","it":"Ağdaş","ru":"Агдаш","uk":"Агдаш","de":"Ağdaş","es":"Ağdaş","en":"Ağdaş","fr":"Ağdaş"}},{"country":"AZ","name":"Ağcabǝdi","admin1Code":"AZ.02","latitude":40.05015,"longitude":47.45937,"translations":{"pt":"Ağcabǝdi","it":"Ağcabǝdi","ru":"Агджабеди","uk":"Ağcabǝdi","de":"Ağcabǝdi","es":"Ağcabǝdi","en":"Ağcabǝdi","fr":"Ağcabǝdi"}},{"country":"AZ","name":"Bakikhanov","admin1Code":"AZ.09","latitude":40.41894,"longitude":49.96693,"translations":{"pt":"Bakıxanov","it":"Bakikhanov","ru":"Бакиханова","uk":"Bakikhanov","de":"Bakıxanov","es":"Bakikhanov","en":"Bakikhanov","fr":"Bakıxanov"}}]