[{"country":"PH","name":"Zumarraga","admin1Code":"PH.08","latitude":11.6388,"longitude":124.8417,"translations":{"pt":"Zumarraga","it":"Zumarraga","ru":"Zumarraga","uk":"Zumarraga","de":"Zumarraga","es":"Zumarraga","en":"Zumarraga","fr":"Zumarraga"}},{"country":"PH","name":"Zaragoza","admin1Code":"PH.03","latitude":15.44903,"longitude":120.79627,"translations":{"pt":"Zaragoza","it":"Zaragoza","ru":"Zaragoza","uk":"Zaragoza","de":"Zaragoza","es":"Zaragoza","en":"Zaragoza","fr":"Zaragoza"}},{"country":"PH","name":"Zamboanga city","admin1Code":"PH.09","latitude":6.91028,"longitude":122.07389,"translations":{"pt":"Zamboanga city","it":"Zamboanga city","ru":"Замбоанга","uk":"Замбоанга","de":"Zamboanga city","es":"Zamboanga city","en":"Zamboanga city","fr":"Zamboanga city"}},{"country":"PH","name":"Wao","admin1Code":"PH.14","latitude":7.68333,"longitude":124.66667,"translations":{"pt":"Wao","it":"Wao","ru":"Wao","uk":"Wao","de":"Wao","es":"Wao","en":"Wao","fr":"Wao"}},{"country":"PH","name":"Вирак","admin1Code":"PH.05","latitude":13.5848,"longitude":124.2374,"translations":{"pt":"Vyrak","it":"Vyrak","ru":"Вирак","uk":"Вирак","de":"Vyrak","es":"Vyrak","en":"Вирак","fr":"Vyrak"}},{"country":"PH","name":"Vigan city","admin1Code":"PH.01","latitude":17.57472,"longitude":120.38694,"translations":{"pt":"Cidade histórica de vigan","it":"Vigan city","ru":"Виган","uk":"Vigan city","de":"Vigan city","es":"Vigan city","en":"Vigan city","fr":"Vigan city"}},{"country":"PH","name":"Victorias city","admin1Code":"PH.06","latitude":10.90154,"longitude":123.0705,"translations":{"pt":"Victorias city","it":"Victorias city","ru":"Victorias city","uk":"Victorias city","de":"Victorias city","es":"Victorias city","en":"Victorias city","fr":"Victorias city"}},{"country":"PH","name":"Виктория","admin1Code":"PH.40","latitude":14.2277,"longitude":121.3292,"translations":{"pt":"Vyktoryja","it":"Vyktoryja","ru":"Виктория","uk":"Виктория","de":"Vyktoryja","es":"Vyktoryja","en":"Виктория","fr":"Vyktoryja"}},{"country":"PH","name":"Veruela","admin1Code":"PH.13","latitude":8.0731,"longitude":125.9558,"translations":{"pt":"Veruela","it":"Veruela","ru":"Veruela","uk":"Veruela","de":"Veruela","es":"Veruela","en":"Veruela","fr":"Veruela"}},{"country":"PH","name":"Valenzuela","admin1Code":"PH.NCR","latitude":14.7,"longitude":120.9667,"translations":{"pt":"Valenzuela","it":"Valenzuela","ru":"Valenzuela","uk":"Valenzuela","de":"Valenzuela","es":"Valenzuela","en":"Valenzuela","fr":"Valenzuela"}},{"country":"PH","name":"Валенсия","admin1Code":"PH.10","latitude":7.90639,"longitude":125.09417,"translations":{"pt":"Valensyja","it":"Valensyja","ru":"Валенсия","uk":"Валенсия","de":"Valencia city","es":"Valensyja","en":"Валенсия","fr":"Valensyja"}},{"country":"PH","name":"Urdaneta de pangasinán","admin1Code":"PH.01","latitude":15.97611,"longitude":120.57111,"translations":{"pt":"Urdaneta de pangasinán","it":"Urdaneta de pangasinán","ru":"Urdaneta de pangasinán","uk":"Urdaneta de pangasinán","de":"Urdaneta de pangasinán","es":"Urdaneta de pangasinán","en":"Urdaneta de pangasinán","fr":"Urdaneta de pangasinán"}},{"country":"PH","name":"Ualog","admin1Code":"PH.06","latitude":10.57396,"longitude":123.3933,"translations":{"pt":"Ualog","it":"Ualog","ru":"Ualog","uk":"Ualog","de":"Ualog","es":"Ualog","en":"Ualog","fr":"Ualog"}},{"country":"PH","name":"Tupi","admin1Code":"PH.12","latitude":6.33444,"longitude":124.95278,"translations":{"pt":"Tupi","it":"Tupi","ru":"Tupi","uk":"Tupi","de":"Tupi","es":"Tupi","en":"Tupi","fr":"Tupi"}},{"country":"PH","name":"Tunasan","admin1Code":"PH.40","latitude":14.37917,"longitude":121.0525,"translations":{"pt":"Tunasan","it":"Tunasan","ru":"Tunasan","uk":"Tunasan","de":"Tunasan","es":"Tunasan","en":"Tunasan","fr":"Tunasan"}},{"country":"PH","name":"Tuguegarao city","admin1Code":"PH.02","latitude":17.61577,"longitude":121.72285,"translations":{"pt":"Tuguegarao city","it":"Tuguegarao city","ru":"Tuguegarao city","uk":"Tuguegarao city","de":"Tuguegarao","es":"Tuguegarao city","en":"Tuguegarao city","fr":"Tuguegarao city"}},{"country":"PH","name":"Trento","admin1Code":"PH.13","latitude":8.04583,"longitude":126.06361,"translations":{"pt":"Trento","it":"Trento","ru":"Trento","uk":"Trento","de":"Trento","es":"Trento","en":"Trento","fr":"Trento"}},{"country":"PH","name":"Toledo city","admin1Code":"PH.07","latitude":10.3773,"longitude":123.6386,"translations":{"pt":"Toledo city","it":"Toledo city","ru":"Толедо","uk":"Toledo city","de":"Toledo city","es":"Toledo city","en":"Toledo city","fr":"Toledo city"}},{"country":"PH","name":"Tiwi","admin1Code":"PH.05","latitude":13.4585,"longitude":123.6805,"translations":{"pt":"Tiwi","it":"Tiwi","ru":"Tiwi","uk":"Tiwi","de":"Tiwi","es":"Tiwi","en":"Tiwi","fr":"Tiwi"}},{"country":"PH","name":"Tinongan","admin1Code":"PH.06","latitude":10.215,"longitude":123.03528,"translations":{"pt":"Tinongan","it":"Tinongan","ru":"Tinongan","uk":"Tinongan","de":"Tinongan","es":"Tinongan","en":"Tinongan","fr":"Tinongan"}},{"country":"PH","name":"Ternate","admin1Code":"PH.40","latitude":14.2897,"longitude":120.7168,"translations":{"pt":"Ternate","it":"Ternate","ru":"Ternate","uk":"Ternate","de":"Ternate","es":"Ternate","en":"Ternate","fr":"Ternate"}},{"country":"PH","name":"Тереза","admin1Code":"PH.40","latitude":14.5612,"longitude":121.2195,"translations":{"pt":"Tereza","it":"Tereza","ru":"Тереза","uk":"Тереза","de":"Tereza","es":"Tereza","en":"Тереза","fr":"Tereza"}},{"country":"PH","name":"Telabastagan","admin1Code":"PH.03","latitude":15.11854,"longitude":120.60773,"translations":{"pt":"Telabastagan","it":"Telabastagan","ru":"Telabastagan","uk":"Telabastagan","de":"Telabastagan","es":"Telabastagan","en":"Telabastagan","fr":"Telabastagan"}},{"country":"PH","name":"Taytay","admin1Code":"PH.40","latitude":14.55883,"longitude":121.13285,"translations":{"pt":"Taytay","it":"Taytay","ru":"Taytay","uk":"Taytay","de":"Taytay","es":"Taytay","en":"Taytay","fr":"Taytay"}},{"country":"PH","name":"Tayabas","admin1Code":"PH.40","latitude":14.0259,"longitude":121.5929,"translations":{"pt":"Tayabas","it":"Tayabas","ru":"Tayabas","uk":"Tayabas","de":"Tayabas","es":"Tayabas","en":"Tayabas","fr":"Tayabas"}},{"country":"PH","name":"Tarlac city","admin1Code":"PH.03","latitude":15.48017,"longitude":120.59794,"translations":{"pt":"Tarlac city","it":"Tarlac city","ru":"Tarlac city","uk":"Tarlac city","de":"Tarlac city","es":"Tarlac city","en":"Tarlac city","fr":"Tarlac city"}},{"country":"PH","name":"Tanza","admin1Code":"PH.NCR","latitude":14.6753,"longitude":120.9389,"translations":{"pt":"Tanza","it":"Tanza","ru":"Tanza","uk":"Tanza","de":"Tanza","es":"Tanza","en":"Tanza","fr":"Tanza"}},{"country":"PH","name":"Tanjay","admin1Code":"PH.07","latitude":9.5162,"longitude":123.158,"translations":{"pt":"Tanjay","it":"Tanjay","ru":"Tanjay","uk":"Tanjay","de":"Tanjay city","es":"Tanjay","en":"Tanjay","fr":"Tanjay"}},{"country":"PH","name":"Tangub","admin1Code":"PH.10","latitude":8.0618,"longitude":123.7477,"translations":{"pt":"Tangub","it":"Tangub","ru":"Tangub","uk":"Tangub","de":"Tangub","es":"Tangub","en":"Tangub","fr":"Tangub"}},{"country":"PH","name":"Tandag city","admin1Code":"PH.13","latitude":9.07833,"longitude":126.19861,"translations":{"pt":"Tandag city","it":"Tandag city","ru":"Tandag city","uk":"Tandag city","de":"Tandag city","es":"Tandag city","en":"Tandag city","fr":"Tandag city"}},{"country":"PH","name":"Tanay","admin1Code":"PH.40","latitude":14.4968,"longitude":121.2846,"translations":{"pt":"Tanay","it":"Tanay","ru":"Tanay","uk":"Tanay","de":"Tanay","es":"Tanay","en":"Tanay","fr":"Tanay"}},{"country":"PH","name":"Tanauan city","admin1Code":"PH.40","latitude":14.08627,"longitude":121.14975,"translations":{"pt":"Tanauan city","it":"Tanauan city","ru":"Tanauan city","uk":"Tanauan city","de":"Tanauan city","es":"Tanauan city","en":"Tanauan city","fr":"Tanauan city"}},{"country":"PH","name":"Tanauan","admin1Code":"PH.08","latitude":11.10944,"longitude":125.01556,"translations":{"pt":"Tanauan","it":"Tanauan","ru":"Tanauan","uk":"Tanauan","de":"Tanauan","es":"Tanauan","en":"Tanauan","fr":"Tanauan"}},{"country":"PH","name":"Taloc","admin1Code":"PH.06","latitude":10.5746,"longitude":122.8954,"translations":{"pt":"Taloc","it":"Taloc","ru":"Taloc","uk":"Taloc","de":"Taloc","es":"Taloc","en":"Taloc","fr":"Taloc"}},{"country":"PH","name":"Talisay","admin1Code":"PH.40","latitude":14.0925,"longitude":121.02194,"translations":{"pt":"Talisay","it":"Talisay","ru":"Talisay","uk":"Talisay","de":"Talisay","es":"Talisay","en":"Talisay","fr":"Talisay"}},{"country":"PH","name":"Talisay","admin1Code":"PH.06","latitude":10.7375,"longitude":122.9666,"translations":{"pt":"Talisay","it":"Talisay","ru":"Талисей","uk":"Талісей","de":"Talisay","es":"Talísay","en":"Talisay","fr":"Talisay"}},{"country":"PH","name":"Talisay city","admin1Code":"PH.07","latitude":10.24472,"longitude":123.84944,"translations":{"pt":"Talisay city","it":"Talisay city","ru":"Talisay city","uk":"Talisay city","de":"Talisay city","es":"Talisay city","en":"Talisay city","fr":"Talisay city"}},{"country":"PH","name":"Talavera","admin1Code":"PH.03","latitude":15.5883,"longitude":120.9192,"translations":{"pt":"Talavera","it":"Talavera","ru":"Талавера","uk":"Talavera","de":"Talavera","es":"Talavera","en":"Talavera","fr":"Talavera"}},{"country":"PH","name":"Talacogon","admin1Code":"PH.13","latitude":8.45611,"longitude":125.78417,"translations":{"pt":"Talacogon","it":"Talacogon","ru":"Talacogon","uk":"Talacogon","de":"Talacogon","es":"Talacogon","en":"Talacogon","fr":"Talacogon"}},{"country":"PH","name":"Tagum","admin1Code":"PH.11","latitude":7.4475,"longitude":125.8046,"translations":{"pt":"Tagum","it":"Tagum","ru":"Тагум","uk":"Тагум","de":"Tagum city","es":"Tágum","en":"Tagum","fr":"Tagum"}},{"country":"PH","name":"City of taguig","admin1Code":"PH.NCR","latitude":14.5243,"longitude":121.0792,"translations":{"pt":"City of taguig","it":"City of taguig","ru":"Тагиг","uk":"City of taguig","de":"City of taguig","es":"City of taguig","en":"City of taguig","fr":"City of taguig"}},{"country":"PH","name":"Tagudin","admin1Code":"PH.01","latitude":16.9355,"longitude":120.4442,"translations":{"pt":"Tagudin","it":"Tagudin","ru":"Tagudin","uk":"Tagudin","de":"Tagudin","es":"Tagudin","en":"Tagudin","fr":"Tagudin"}},{"country":"PH","name":"Tagoloan","admin1Code":"PH.10","latitude":8.53954,"longitude":124.75411,"translations":{"pt":"Tagoloan","it":"Tagoloan","ru":"Tagoloan","uk":"Tagoloan","de":"Tagoloan","es":"Tagoloan","en":"Tagoloan","fr":"Tagoloan"}},{"country":"PH","name":"Tagbilaran city","admin1Code":"PH.07","latitude":9.65556,"longitude":123.85219,"translations":{"pt":"Tagbilaran city","it":"Tagbilaran city","ru":"Тагбиларан","uk":"Tagbilaran city","de":"Tagbilaran","es":"Tagbilaran city","en":"Tagbilaran city","fr":"Tagbilaran city"}},{"country":"PH","name":"Tagaytay","admin1Code":"PH.40","latitude":14.09532,"longitude":120.93355,"translations":{"pt":"Tagaytay","it":"Tagaytay","ru":"Тагайтай","uk":"Тагайтай","de":"Tagaytay","es":"Tagaytay","en":"Tagaytay","fr":"Tagaïtaï"}},{"country":"PH","name":"Tagas","admin1Code":"PH.05","latitude":13.16667,"longitude":123.71667,"translations":{"pt":"Tagas","it":"Tagas","ru":"Tagas","uk":"Tagas","de":"Tagas","es":"Tagas","en":"Tagas","fr":"Tagas"}},{"country":"PH","name":"Tacurong city","admin1Code":"PH.12","latitude":6.6925,"longitude":124.67639,"translations":{"pt":"Tacurong city","it":"Tacurong city","ru":"Tacurong city","uk":"Tacurong city","de":"Tacurong city","es":"Tacurong city","en":"Tacurong city","fr":"Tacurong city"}},{"country":"PH","name":"Tacloban city","admin1Code":"PH.08","latitude":11.24333,"longitude":125.00472,"translations":{"pt":"Tacloban city","it":"Tacloban city","ru":"Таклобан","uk":"Таклобан","de":"Tacloban city","es":"Tacloban","en":"Tacloban city","fr":"Tacloban"}},{"country":"PH","name":"Tabuk city","admin1Code":"PH.15","latitude":17.47378,"longitude":121.46799,"translations":{"pt":"Tabuk city","it":"Tabuk city","ru":"Tabuk city","uk":"Tabuk city","de":"Tabuk city","es":"Tabuk city","en":"Tabuk city","fr":"Tabuk city"}},{"country":"PH","name":"Tabaco city","admin1Code":"PH.05","latitude":13.35861,"longitude":123.73361,"translations":{"pt":"Tabaco city","it":"Tabaco city","ru":"Tabaco city","uk":"Tabaco city","de":"Tabaco city","es":"Tabaco city","en":"Tabaco city","fr":"Tabaco city"}},{"country":"PH","name":"Таал","admin1Code":"PH.40","latitude":13.87992,"longitude":120.92311,"translations":{"pt":"Taal","it":"Taal","ru":"Таал","uk":"Таал","de":"Taal","es":"Taal","en":"Таал","fr":"Taal"}},{"country":"PH","name":"Surigao city","admin1Code":"PH.13","latitude":9.789,"longitude":125.495,"translations":{"pt":"Surigao city","it":"Surigao city","ru":"Серигао сити","uk":"Surigao city","de":"Surigao city","es":"Surigao city","en":"Surigao city","fr":"Surigao city"}},{"country":"PH","name":"Surallah","admin1Code":"PH.12","latitude":6.37527,"longitude":124.74521,"translations":{"pt":"Surallah","it":"Surallah","ru":"Surallah","uk":"Surallah","de":"Surallah","es":"Surala","en":"Surallah","fr":"Surallah"}},{"country":"PH","name":"Sum-ag","admin1Code":"PH.06","latitude":10.60139,"longitude":122.91924,"translations":{"pt":"Sum-ag","it":"Sum-ag","ru":"Sum-ag","uk":"Sum-ag","de":"Sum-ag","es":"Sum-ag","en":"Sum-ag","fr":"Sum-ag"}},{"country":"PH","name":"Султан-кударат","admin1Code":"PH.14","latitude":7.22889,"longitude":124.25778,"translations":{"pt":"Sultan-kudarat","it":"Sultan-kudarat","ru":"Султан-кударат","uk":"Султан-кударат","de":"Sultan-kudarat","es":"Sultán kudarat","en":"Султан-кударат","fr":"Sultan-kudarat"}},{"country":"PH","name":"Subic","admin1Code":"PH.03","latitude":14.8787,"longitude":120.23194,"translations":{"pt":"Subic","it":"Subic","ru":"Subic","uk":"Subic","de":"Subic","es":"Subic","en":"Subic","fr":"Subic"}},{"country":"PH","name":"Suay","admin1Code":"PH.06","latitude":10.0533,"longitude":122.8423,"translations":{"pt":"Suay","it":"Suay","ru":"Suay","uk":"Suay","de":"Suay","es":"Suay","en":"Suay","fr":"Suay"}},{"country":"PH","name":"Sorsogon","admin1Code":"PH.05","latitude":12.97389,"longitude":123.99333,"translations":{"pt":"Sorsogon","it":"Sorsogon","ru":"Sorsogon","uk":"Sorsogon","de":"Sorsogon","es":"Sorsogon","en":"Sorsogon","fr":"Sorsogon"}},{"country":"PH","name":"Солано","admin1Code":"PH.02","latitude":16.51918,"longitude":121.18124,"translations":{"pt":"Solano","it":"Solano","ru":"Солано","uk":"Солано","de":"Solano","es":"Solano","en":"Солано","fr":"Solano"}},{"country":"PH","name":"Solana","admin1Code":"PH.02","latitude":17.6528,"longitude":121.691,"translations":{"pt":"Solana","it":"Solana","ru":"Solana","uk":"Solana","de":"Solana","es":"Solana","en":"Solana","fr":"Solana"}},{"country":"PH","name":"Venice of the philippines","admin1Code":"PH.14","latitude":4.66115,"longitude":119.39647,"translations":{"pt":"Venice of the philippines","it":"Venice of the philippines","ru":"Venice of the philippines","uk":"Venice of the philippines","de":"Venice of the philippines","es":"Venice of the philippines","en":"Venice of the philippines","fr":"Venice of the philippines"}},{"country":"PH","name":"Sipalay","admin1Code":"PH.06","latitude":9.75194,"longitude":122.40417,"translations":{"pt":"Sipalay","it":"Sipalay","ru":"Sipalay","uk":"Sipalay","de":"Sipalay","es":"Sipalay","en":"Sipalay","fr":"Sipalay"}},{"country":"PH","name":"Silang","admin1Code":"PH.40","latitude":14.21567,"longitude":120.97137,"translations":{"pt":"Silang","it":"Silang","ru":"Silang","uk":"Silang","de":"Silang","es":"Silang","en":"Silang","fr":"Silang"}},{"country":"PH","name":"Sibulan","admin1Code":"PH.07","latitude":9.3584,"longitude":123.285,"translations":{"pt":"Sibulan","it":"Sibulan","ru":"Sibulan","uk":"Sibulan","de":"Sibulan","es":"Sibulan","en":"Sibulan","fr":"Sibulan"}},{"country":"PH","name":"Sexmoan","admin1Code":"PH.03","latitude":14.9438,"longitude":120.6229,"translations":{"pt":"Sexmoan","it":"Sexmoan","ru":"Sexmoan","uk":"Sexmoan","de":"Sexmoan","es":"Sexmoan","en":"Sexmoan","fr":"Sexmoan"}},{"country":"PH","name":"Lake sebu","admin1Code":"PH.12","latitude":6.22482,"longitude":124.71042,"translations":{"pt":"Lake sebu","it":"Lake sebu","ru":"Lake sebu","uk":"Lake sebu","de":"Lake sebu","es":"Lake sebu","en":"Lake sebu","fr":"Lake sebu"}},{"country":"PH","name":"Sariaya","admin1Code":"PH.40","latitude":13.9624,"longitude":121.5265,"translations":{"pt":"Sariaya","it":"Sariaya","ru":"Sariaya","uk":"Sariaya","de":"Sariaya","es":"Sariaya","en":"Sariaya","fr":"Sariaya"}},{"country":"PH","name":"San vicente","admin1Code":"PH.03","latitude":15.2921,"longitude":120.65498,"translations":{"pt":"San vicente","it":"San vicente","ru":"San vicente","uk":"San vicente","de":"San vicente","es":"San vicente","en":"San vicente","fr":"San vicente"}},{"country":"PH","name":"Санто-томас","admin1Code":"PH.40","latitude":14.1079,"longitude":121.14136,"translations":{"pt":"Santo-tomas","it":"Santo-tomas","ru":"Санто-томас","uk":"Санто-томас","de":"Santo tomas","es":"Santo-tomas","en":"Санто-томас","fr":"Santo-tomas"}},{"country":"PH","name":"Santol","admin1Code":"PH.03","latitude":15.16222,"longitude":120.5675,"translations":{"pt":"Santol","it":"Santol","ru":"Santol","uk":"Santol","de":"Santol","es":"Santol","en":"Santol","fr":"Santol"}},{"country":"PH","name":"Santiago","admin1Code":"PH.02","latitude":16.68808,"longitude":121.5487,"translations":{"pt":"Santiago","it":"Santiago","ru":"Santiago","uk":"Santiago","de":"Santiago","es":"Santiago","en":"Santiago","fr":"Santiago"}},{"country":"PH","name":"Santa rosa city","admin1Code":"PH.40","latitude":14.31222,"longitude":121.11139,"translations":{"pt":"Santa rosa city","it":"Santa rosa city","ru":"Санта-роса","uk":"Santa rosa city","de":"Santa rosa city","es":"Santa rosa city","en":"Santa rosa city","fr":"Santa rosa city"}},{"country":"PH","name":"Santa maria","admin1Code":"PH.01","latitude":16.9518,"longitude":120.4445,"translations":{"pt":"Santa maria","it":"Santa maria","ru":"Santa maria","uk":"Santa maria","de":"Santa maria","es":"Santa maria","en":"Santa maria","fr":"Santa maria"}},{"country":"PH","name":"Santa maria","admin1Code":"PH.11","latitude":6.55361,"longitude":125.47083,"translations":{"pt":"Santa maria","it":"Santa maria","ru":"Santa maria","uk":"Santa maria","de":"Santa maria","es":"Santa maria","en":"Santa maria","fr":"Santa maria"}},{"country":"PH","name":"Santa cruz","admin1Code":"PH.NCR","latitude":14.6,"longitude":120.98333,"translations":{"pt":"Santa cruz","it":"Santa cruz","ru":"Santa cruz","uk":"Santa cruz","de":"Santa cruz","es":"Santa cruz","en":"Santa cruz","fr":"Santa cruz"}},{"country":"PH","name":"Санта-крус","admin1Code":"PH.03","latitude":15.7654,"longitude":119.9092,"translations":{"pt":"Santa-krus","it":"Santa-krus","ru":"Санта-крус","uk":"Санта-крус","de":"Santa-krus","es":"Santa-krus","en":"Санта-крус","fr":"Santa-krus"}},{"country":"PH","name":"Santa cruz","admin1Code":"PH.03","latitude":14.9127,"longitude":120.56659,"translations":{"pt":"Santa cruz","it":"Santa cruz","ru":"Santa cruz","uk":"Santa cruz","de":"Santa cruz","es":"Santa cruz","en":"Santa cruz","fr":"Santa cruz"}},{"country":"PH","name":"Santa cruz","admin1Code":"PH.40","latitude":14.2814,"longitude":121.4161,"translations":{"pt":"Santa cruz","it":"Santa cruz","ru":"Santa cruz","uk":"Santa cruz","de":"Santa cruz","es":"Santa cruz","en":"Santa cruz","fr":"Santa cruz"}},{"country":"PH","name":"Santa catalina","admin1Code":"PH.07","latitude":9.3337,"longitude":122.8637,"translations":{"pt":"Santa catalina","it":"Santa catalina","ru":"Santa catalina","uk":"Santa catalina","de":"Santa catalina","es":"Santa catalina","en":"Santa catalina","fr":"Santa catalina"}},{"country":"PH","name":"Santa barbara","admin1Code":"PH.01","latitude":16.0009,"longitude":120.4023,"translations":{"pt":"Santa barbara","it":"Santa barbara","ru":"Santa barbara","uk":"Santa barbara","de":"Santa barbara","es":"Santa barbara","en":"Santa barbara","fr":"Santa barbara"}},{"country":"PH","name":"Санта-ана","admin1Code":"PH.03","latitude":15.0955,"longitude":120.767,"translations":{"pt":"Santa-ana","it":"Santa-ana","ru":"Санта-ана","uk":"Санта-ана","de":"Santa-ana","es":"Santa-ana","en":"Санта-ана","fr":"Santa-ana"}},{"country":"PH","name":"San simon","admin1Code":"PH.03","latitude":14.9996,"longitude":120.7808,"translations":{"pt":"San simon","it":"San simon","ru":"San simon","uk":"San simon","de":"San simon","es":"San simon","en":"San simon","fr":"San simon"}},{"country":"PH","name":"San pedro","admin1Code":"PH.40","latitude":14.3595,"longitude":121.0473,"translations":{"pt":"San pedro","it":"San pedro","ru":"San pedro","uk":"San pedro","de":"San pedro","es":"San pedro","en":"San pedro","fr":"San pedro"}},{"country":"PH","name":"San pascual","admin1Code":"PH.40","latitude":13.81045,"longitude":121.022,"translations":{"pt":"San pascual","it":"San pascual","ru":"San pascual","uk":"San pascual","de":"San pascual","es":"San pascual","en":"San pascual","fr":"San pascual"}},{"country":"PH","name":"San pablo","admin1Code":"PH.40","latitude":14.0683,"longitude":121.3256,"translations":{"pt":"San pablo","it":"San pablo","ru":"Сан-пабло","uk":"Сан-пабло","de":"San pablo","es":"San pablo","en":"San pablo","fr":"San pablo"}},{"country":"PH","name":"San nicolás de ilocos","admin1Code":"PH.01","latitude":18.1725,"longitude":120.5953,"translations":{"pt":"San nicolás de ilocos","it":"San nicolás de ilocos","ru":"San nicolás de ilocos","uk":"San nicolás de ilocos","de":"San nicolás de ilocos","es":"San nicolás de ilocos","en":"San nicolás de ilocos","fr":"San nicolás de ilocos"}},{"country":"PH","name":"San narciso","admin1Code":"PH.03","latitude":15.0143,"longitude":120.0803,"translations":{"pt":"San narciso","it":"San narciso","ru":"San narciso","uk":"San narciso","de":"San narciso","es":"San narciso","en":"San narciso","fr":"San narciso"}},{"country":"PH","name":"San miguel","admin1Code":"PH.03","latitude":15.44397,"longitude":120.59923,"translations":{"pt":"San miguel","it":"San miguel","ru":"San miguel","uk":"San miguel","de":"San miguel","es":"San miguel","en":"San miguel","fr":"San miguel"}},{"country":"PH","name":"San miguel","admin1Code":"PH.03","latitude":15.1423,"longitude":120.97568,"translations":{"pt":"San miguel","it":"San miguel","ru":"San miguel","uk":"San miguel","de":"San miguel","es":"San miguel","en":"San miguel","fr":"San miguel"}},{"country":"PH","name":"San mateo","admin1Code":"PH.02","latitude":16.88206,"longitude":121.58694,"translations":{"pt":"San mateo","it":"San mateo","ru":"San mateo","uk":"San mateo","de":"San mateo","es":"San mateo","en":"San mateo","fr":"San mateo"}},{"country":"PH","name":"San mateo","admin1Code":"PH.40","latitude":14.6982,"longitude":121.1236,"translations":{"pt":"San mateo","it":"San mateo","ru":"San mateo","uk":"San mateo","de":"San mateo","es":"San mateo","en":"San mateo","fr":"San mateo"}},{"country":"PH","name":"San mariano","admin1Code":"PH.11","latitude":7.5,"longitude":126.0,"translations":{"pt":"San mariano","it":"San mariano","ru":"San mariano","uk":"San mariano","de":"San mariano","es":"San mariano","en":"San mariano","fr":"San mariano"}},{"country":"PH","name":"San marcelino","admin1Code":"PH.03","latitude":14.97418,"longitude":120.15733,"translations":{"pt":"San marcelino","it":"San marcelino","ru":"San marcelino","uk":"San marcelino","de":"San marcelino","es":"San marcelino","en":"San marcelino","fr":"San marcelino"}},{"country":"PH","name":"San luis","admin1Code":"PH.03","latitude":15.0401,"longitude":120.7883,"translations":{"pt":"San luis","it":"San luis","ru":"San luis","uk":"San luis","de":"San luis","es":"San luis","en":"San luis","fr":"San luis"}},{"country":"PH","name":"San leonardo","admin1Code":"PH.03","latitude":15.363,"longitude":120.9639,"translations":{"pt":"San leonardo","it":"San leonardo","ru":"San leonardo","uk":"San leonardo","de":"San leonardo","es":"San leonardo","en":"San leonardo","fr":"San leonardo"}},{"country":"PH","name":"San juan city","admin1Code":"PH.NCR","latitude":14.6,"longitude":121.0333,"translations":{"pt":"San juan city","it":"San juan city","ru":"San juan city","uk":"San juan city","de":"San juan city","es":"San juan city","en":"San juan city","fr":"San juan city"}},{"country":"PH","name":"San jose del monte city","admin1Code":"PH.03","latitude":14.81389,"longitude":121.04528,"translations":{"pt":"San jose del monte city","it":"San jose del monte city","ru":"Сан-хосе-дель-монте","uk":"San jose del monte city","de":"San jose del monte city","es":"San josé del monte","en":"San jose del monte city","fr":"San jose del monte city"}},{"country":"PH","name":"San jose","admin1Code":"PH.05","latitude":13.35,"longitude":123.55,"translations":{"pt":"San jose","it":"San jose","ru":"San jose","uk":"San jose","de":"San jose","es":"San jose","en":"San jose","fr":"San jose"}},{"country":"PH","name":"San jose","admin1Code":"PH.41","latitude":12.35275,"longitude":121.06761,"translations":{"pt":"San jose","it":"San jose","ru":"San jose","uk":"San jose","de":"San jose","es":"San jose","en":"San jose","fr":"San jose"}},{"country":"PH","name":"San ildefonso","admin1Code":"PH.03","latitude":15.0809,"longitude":120.941,"translations":{"pt":"San ildefonso","it":"San ildefonso","ru":"San ildefonso","uk":"San ildefonso","de":"San ildefonso","es":"San ildefonso","en":"San ildefonso","fr":"San ildefonso"}},{"country":"PH","name":"San francisco","admin1Code":"PH.03","latitude":15.35566,"longitude":120.84001,"translations":{"pt":"San francisco","it":"San francisco","ru":"San francisco","uk":"San francisco","de":"San francisco","es":"San francisco","en":"San francisco","fr":"San francisco"}},{"country":"PH","name":"Aurora","admin1Code":"PH.40","latitude":13.3476,"longitude":122.5195,"translations":{"pt":"Aurora","it":"Aurora","ru":"Aurora","uk":"Aurora","de":"Aurora","es":"Aurora","en":"Aurora","fr":"Aurora"}},{"country":"PH","name":"San francisco","admin1Code":"PH.13","latitude":8.53556,"longitude":125.95,"translations":{"pt":"San francisco","it":"San francisco","ru":"San francisco","uk":"San francisco","de":"San francisco","es":"San francisco","en":"San francisco","fr":"San francisco"}},{"country":"PH","name":"Сан-фернандо","admin1Code":"PH.01","latitude":16.61591,"longitude":120.31663,"translations":{"pt":"San-fernando","it":"San-fernando","ru":"Сан-фернандо","uk":"Сан-фернандо","de":"San-fernando","es":"San-fernando","en":"Сан-фернандо","fr":"San-fernando"}},{"country":"PH","name":"San fernando city","admin1Code":"PH.03","latitude":15.03425,"longitude":120.68445,"translations":{"pt":"San fernando city","it":"San fernando city","ru":"Сан-фернандо","uk":"San fernando city","de":"San fernando city","es":"San fernando city","en":"San fernando city","fr":"San fernando city"}},{"country":"PH","name":"San fernando","admin1Code":"PH.07","latitude":10.1624,"longitude":123.7076,"translations":{"pt":"San fernando","it":"San fernando","ru":"San fernando","uk":"San fernando","de":"San fernando","es":"San fernando","en":"San fernando","fr":"San fernando"}},{"country":"PH","name":"Sanchez-mira","admin1Code":"PH.02","latitude":18.56163,"longitude":121.23189,"translations":{"pt":"Sanchez-mira","it":"Sanchez-mira","ru":"Sanchez-mira","uk":"Sanchez-mira","de":"Sanchez-mira","es":"Sanchez-mira","en":"Sanchez-mira","fr":"Sanchez-mira"}},{"country":"PH","name":"San antonio","admin1Code":"PH.03","latitude":15.3062,"longitude":120.856,"translations":{"pt":"San antonio","it":"San antonio","ru":"San antonio","uk":"San antonio","de":"San antonio","es":"San antonio","en":"San antonio","fr":"San antonio"}},{"country":"PH","name":"San antonio","admin1Code":"PH.03","latitude":14.94659,"longitude":120.08673,"translations":{"pt":"San antonio","it":"San antonio","ru":"San antonio","uk":"San antonio","de":"San antonio","es":"San antonio","en":"San antonio","fr":"San antonio"}},{"country":"PH","name":"Sampaloc","admin1Code":"PH.40","latitude":14.5402,"longitude":121.3602,"translations":{"pt":"Sampaloc","it":"Sampaloc","ru":"Sampaloc","uk":"Sampaloc","de":"Sampaloc","es":"Sampaloc","en":"Sampaloc","fr":"Sampaloc"}},{"country":"PH","name":"Самал","admin1Code":"PH.03","latitude":14.76778,"longitude":120.54306,"translations":{"pt":"Samal","it":"Samal","ru":"Самал","uk":"Самал","de":"Samal","es":"Samal","en":"Самал","fr":"Samal"}},{"country":"PH","name":"Самал","admin1Code":"PH.11","latitude":7.07444,"longitude":125.70833,"translations":{"pt":"Samal","it":"Samal","ru":"Самал","uk":"Самал","de":"Island garden city of samal","es":"Sámal","en":"Самал","fr":"Samal"}},{"country":"PH","name":"Sagay city","admin1Code":"PH.06","latitude":10.94472,"longitude":123.42417,"translations":{"pt":"Sagay city","it":"Sagay city","ru":"Sagay city","uk":"Sagay city","de":"Sagay city","es":"Sagay city","en":"Sagay city","fr":"Sagay city"}},{"country":"PH","name":"Sablayan","admin1Code":"PH.41","latitude":12.8346,"longitude":120.769,"translations":{"pt":"Sablayan","it":"Sablayan","ru":"Sablayan","uk":"Sablayan","de":"Sablayan","es":"Sablayan","en":"Sablayan","fr":"Sablayan"}},{"country":"PH","name":"Roxas","admin1Code":"PH.02","latitude":17.11894,"longitude":121.62014,"translations":{"pt":"Roxas","it":"Roxas","ru":"Roxas","uk":"Roxas","de":"Roxas","es":"Roxas","en":"Roxas","fr":"Roxas"}},{"country":"PH","name":"Roxas city","admin1Code":"PH.06","latitude":11.58528,"longitude":122.75111,"translations":{"pt":"Roxas city","it":"Roxas city","ru":"Рохас","uk":"Roxas city","de":"Roxas city","es":"Roxas city","en":"Roxas city","fr":"Roxas city"}},{"country":"PH","name":"Roxas","admin1Code":"PH.41","latitude":10.3215,"longitude":119.3451,"translations":{"pt":"Roxas","it":"Roxas","ru":"Roxas","uk":"Roxas","de":"Roxas","es":"Roxas","en":"Roxas","fr":"Roxas"}},{"country":"PH","name":"Rosario","admin1Code":"PH.40","latitude":13.6323,"longitude":121.2207,"translations":{"pt":"Rosario","it":"Rosario","ru":"Rosario","uk":"Rosario","de":"Rosario","es":"Rosario","en":"Rosario","fr":"Rosario"}},{"country":"PH","name":"Ромблон","admin1Code":"PH.41","latitude":12.57513,"longitude":122.27081,"translations":{"pt":"Romblon","it":"Romblon","ru":"Ромблон","uk":"Ромблон","de":"Romblon","es":"Romblón","en":"Ромблон","fr":"Romblon"}},{"country":"PH","name":"Ризал","admin1Code":"PH.03","latitude":15.7118,"longitude":121.1061,"translations":{"pt":"Ryzal","it":"Ryzal","ru":"Ризал","uk":"Ризал","de":"Ryzal","es":"Ryzal","en":"Ризал","fr":"Ryzal"}},{"country":"PH","name":"Recodo","admin1Code":"PH.09","latitude":6.95194,"longitude":121.96361,"translations":{"pt":"Recodo","it":"Recodo","ru":"Recodo","uk":"Recodo","de":"Recodo","es":"Recodo","en":"Recodo","fr":"Recodo"}},{"country":"PH","name":"Ramos","admin1Code":"PH.03","latitude":15.6653,"longitude":120.6406,"translations":{"pt":"Ramos","it":"Ramos","ru":"Ramos","uk":"Ramos","de":"Ramos","es":"Ramos","en":"Ramos","fr":"Ramos"}},{"country":"PH","name":"Рамон","admin1Code":"PH.02","latitude":16.78416,"longitude":121.53504,"translations":{"pt":"Ramon","it":"Ramon","ru":"Рамон","uk":"Рамон","de":"Ramon","es":"Ramon","en":"Рамон","fr":"Ramon"}},{"country":"PH","name":"Quiapo district","admin1Code":"PH.NCR","latitude":14.6,"longitude":120.9833,"translations":{"pt":"Quiapo district","it":"Quiapo district","ru":"Quiapo district","uk":"Quiapo district","de":"Quiapo district","es":"Quiapo district","en":"Quiapo district","fr":"Quiapo district"}},{"country":"PH","name":"Quezon city","admin1Code":"PH.NCR","latitude":14.6488,"longitude":121.0509,"translations":{"pt":"Quezon city","it":"Quezon city","ru":"Кесон-сити","uk":"Кесон-сіті","de":"Quezon city","es":"Ciudad quezon","en":"Quezon city","fr":"Quezon city"}},{"country":"PH","name":"Кесон-сити","admin1Code":"PH.03","latitude":15.5512,"longitude":120.8147,"translations":{"pt":"Keson-syty","it":"Keson-syty","ru":"Кесон-сити","uk":"Кесон-сити","de":"Keson-syty","es":"Keson-syty","en":"Кесон-сити","fr":"Keson-syty"}},{"country":"PH","name":"Кесон","admin1Code":"PH.10","latitude":7.73028,"longitude":125.09889,"translations":{"pt":"Keson","it":"Keson","ru":"Кесон","uk":"Кесон","de":"Keson","es":"Keson","en":"Кесон","fr":"Keson"}},{"country":"PH","name":"Pulupandan","admin1Code":"PH.06","latitude":10.51784,"longitude":122.80259,"translations":{"pt":"Pulupandan","it":"Pulupandan","ru":"Pulupandan","uk":"Pulupandan","de":"Pulupandan","es":"Pulupandan","en":"Pulupandan","fr":"Pulupandan"}},{"country":"PH","name":"Pulong santa cruz","admin1Code":"PH.40","latitude":14.27324,"longitude":121.07643,"translations":{"pt":"Pulong santa cruz","it":"Pulong santa cruz","ru":"Pulong santa cruz","uk":"Pulong santa cruz","de":"Pulong santa cruz","es":"Pulong santa cruz","en":"Pulong santa cruz","fr":"Pulong santa cruz"}},{"country":"PH","name":"Pulilan","admin1Code":"PH.03","latitude":14.90167,"longitude":120.84917,"translations":{"pt":"Pulilan","it":"Pulilan","ru":"Pulilan","uk":"Pulilan","de":"Pulilan","es":"Pulilan","en":"Pulilan","fr":"Pulilan"}},{"country":"PH","name":"Puerto princesa city","admin1Code":"PH.41","latitude":9.73917,"longitude":118.73528,"translations":{"pt":"Puerto princesa city","it":"Puerto princesa city","ru":"Пуэрто-принсеса","uk":"Puerto princesa city","de":"Puerto princesa","es":"Puerto princesa","en":"Puerto princesa city","fr":"Puerto princesa city"}},{"country":"PH","name":"Port area","admin1Code":"PH.NCR","latitude":14.58945,"longitude":120.96698,"translations":{"pt":"Port area","it":"Port area","ru":"Port area","uk":"Port area","de":"Port area","es":"Port area","en":"Port area","fr":"Port area"}},{"country":"PH","name":"Порач","admin1Code":"PH.03","latitude":15.0711,"longitude":120.5423,"translations":{"pt":"Porach","it":"Porach","ru":"Порач","uk":"Порач","de":"Porach","es":"Porach","en":"Порач","fr":"Porach"}},{"country":"PH","name":"Polomolok","admin1Code":"PH.12","latitude":6.22167,"longitude":125.06398,"translations":{"pt":"Polomolok","it":"Polomolok","ru":"Polomolok","uk":"Polomolok","de":"Polomolok","es":"Polomolok","en":"Polomolok","fr":"Polomolok"}},{"country":"PH","name":"Polangui","admin1Code":"PH.05","latitude":13.2923,"longitude":123.4855,"translations":{"pt":"Polangui","it":"Polangui","ru":"Polangui","uk":"Polangui","de":"Polangui","es":"Polangui","en":"Polangui","fr":"Polangui"}},{"country":"PH","name":"Plaridel","admin1Code":"PH.03","latitude":14.88722,"longitude":120.85722,"translations":{"pt":"Plaridel","it":"Plaridel","ru":"Plaridel","uk":"Plaridel","de":"Plaridel","es":"Plaridel","en":"Plaridel","fr":"Plaridel"}},{"country":"PH","name":"Pio","admin1Code":"PH.03","latitude":15.04741,"longitude":120.51891,"translations":{"pt":"Pio","it":"Pio","ru":"Pio","uk":"Pio","de":"Pio","es":"Pio","en":"Pio","fr":"Pio"}},{"country":"PH","name":"Pinamungahan","admin1Code":"PH.07","latitude":10.2708,"longitude":123.5839,"translations":{"pt":"Pinamungahan","it":"Pinamungahan","ru":"Pinamungahan","uk":"Pinamungahan","de":"Pinamungahan","es":"Pinamungahan","en":"Pinamungahan","fr":"Pinamungahan"}},{"country":"PH","name":"Pinamalayán","admin1Code":"PH.41","latitude":13.04603,"longitude":121.46205,"translations":{"pt":"Pinamalayán","it":"Pinamalayán","ru":"Pinamalayán","uk":"Pinamalayán","de":"Pinamalayán","es":"Pinamalayán","en":"Pinamalayán","fr":"Pinamalayán"}},{"country":"PH","name":"Pililla","admin1Code":"PH.40","latitude":14.4854,"longitude":121.3062,"translations":{"pt":"Pililla","it":"Pililla","ru":"Pililla","uk":"Pililla","de":"Pililla","es":"Pililla","en":"Pililla","fr":"Pililla"}},{"country":"PH","name":"Pilar","admin1Code":"PH.03","latitude":14.66,"longitude":120.56528,"translations":{"pt":"Pilar","it":"Pilar","ru":"Pilar","uk":"Pilar","de":"Pilar","es":"Pilar","en":"Pilar","fr":"Pilar"}},{"country":"PH","name":"Пилы","admin1Code":"PH.40","latitude":14.2325,"longitude":121.3648,"translations":{"pt":"Pylы","it":"Pylы","ru":"Пилы","uk":"Пилы","de":"Pylы","es":"Pylы","en":"Пилы","fr":"Pylы"}},{"country":"PH","name":"Пеньяранда","admin1Code":"PH.03","latitude":15.35116,"longitude":121.00393,"translations":{"pt":"Pen'jaranda","it":"Pen'jaranda","ru":"Пеньяранда","uk":"Пеньяранда","de":"Pen'jaranda","es":"Pen'jaranda","en":"Пеньяранда","fr":"Pen'jaranda"}},{"country":"PH","name":"Patuto","admin1Code":"PH.40","latitude":14.11667,"longitude":120.96667,"translations":{"pt":"Patuto","it":"Patuto","ru":"Patuto","uk":"Patuto","de":"Patuto","es":"Patuto","en":"Patuto","fr":"Patuto"}},{"country":"PH","name":"Pateros","admin1Code":"PH.NCR","latitude":14.5391,"longitude":121.0726,"translations":{"pt":"Pateros","it":"Pateros","ru":"Pateros","uk":"Pateros","de":"Pateros","es":"Pateros","en":"Pateros","fr":"Pateros"}},{"country":"PH","name":"Passi","admin1Code":"PH.06","latitude":11.10778,"longitude":122.64194,"translations":{"pt":"Passi","it":"Passi","ru":"Passi","uk":"Passi","de":"Passi","es":"Passi","en":"Passi","fr":"Passi"}},{"country":"PH","name":"Pasay","admin1Code":"PH.NCR","latitude":14.53748,"longitude":121.00144,"translations":{"pt":"Pasay","it":"Pasay","ru":"Pasay","uk":"Pasay","de":"Pasay","es":"Pasay","en":"Pasay","fr":"Pasay"}},{"country":"PH","name":"Parang","admin1Code":"PH.14","latitude":7.37035,"longitude":124.26973,"translations":{"pt":"Parang","it":"Parang","ru":"Parang","uk":"Parang","de":"Parang","es":"Parang","en":"Parang","fr":"Parang"}},{"country":"PH","name":"Paranaque city","admin1Code":"PH.NCR","latitude":14.48156,"longitude":121.01749,"translations":{"pt":"Paranaque city","it":"Paranaque city","ru":"Paranaque city","uk":"Paranaque city","de":"Paranaque city","es":"Paranaque city","en":"Paranaque city","fr":"Paranaque city"}},{"country":"PH","name":"Paraiso","admin1Code":"PH.06","latitude":10.8849,"longitude":123.3627,"translations":{"pt":"Paraiso","it":"Paraiso","ru":"Paraiso","uk":"Paraiso","de":"Paraiso","es":"Paraiso","en":"Paraiso","fr":"Paraiso"}},{"country":"PH","name":"Papaya","admin1Code":"PH.03","latitude":15.32016,"longitude":120.83574,"translations":{"pt":"Papaya","it":"Papaya","ru":"Papaya","uk":"Papaya","de":"Papaya","es":"Papaya","en":"Papaya","fr":"Papaya"}},{"country":"PH","name":"Paombong","admin1Code":"PH.03","latitude":14.83111,"longitude":120.78917,"translations":{"pt":"Paombong","it":"Paombong","ru":"Paombong","uk":"Paombong","de":"Paombong","es":"Paombong","en":"Paombong","fr":"Paombong"}},{"country":"PH","name":"Pantubig","admin1Code":"PH.03","latitude":14.96806,"longitude":120.95472,"translations":{"pt":"Pantubig","it":"Pantubig","ru":"Pantubig","uk":"Pantubig","de":"Pantubig","es":"Pantubig","en":"Pantubig","fr":"Pantubig"}},{"country":"PH","name":"Паники","admin1Code":"PH.03","latitude":15.6689,"longitude":120.5806,"translations":{"pt":"Panyky","it":"Panyky","ru":"Паники","uk":"Паники","de":"Panyky","es":"Panyky","en":"Паники","fr":"Panyky"}},{"country":"PH","name":"Pangil","admin1Code":"PH.40","latitude":14.4033,"longitude":121.46506,"translations":{"pt":"Pangil","it":"Pangil","ru":"Pangil","uk":"Pangil","de":"Pangil","es":"Pangil","en":"Pangil","fr":"Pangil"}},{"country":"PH","name":"Панда","admin1Code":"PH.03","latitude":14.865,"longitude":120.95722,"translations":{"pt":"Panda","it":"Panda","ru":"Панда","uk":"Панда","de":"Panda","es":"Panda","en":"Панда","fr":"Panda"}},{"country":"PH","name":"Pandacaqui","admin1Code":"PH.03","latitude":15.1719,"longitude":120.65457,"translations":{"pt":"Pandacaqui","it":"Pandacaqui","ru":"Pandacaqui","uk":"Pandacaqui","de":"Pandacaqui","es":"Pandacaqui","en":"Pandacaqui","fr":"Pandacaqui"}},{"country":"PH","name":"Panalanoy","admin1Code":"PH.08","latitude":11.25111,"longitude":125.00639,"translations":{"pt":"Panalanoy","it":"Panalanoy","ru":"Panalanoy","uk":"Panalanoy","de":"Panalanoy","es":"Panalanoy","en":"Panalanoy","fr":"Panalanoy"}},{"country":"PH","name":"Panabo","admin1Code":"PH.11","latitude":7.30806,"longitude":125.68417,"translations":{"pt":"Panabo","it":"Panabo","ru":"Панабо","uk":"Панабо","de":"Panabo city","es":"Panabo","en":"Panabo","fr":"Panabo"}},{"country":"PH","name":"Palo","admin1Code":"PH.08","latitude":11.1575,"longitude":124.99083,"translations":{"pt":"Palo","it":"Palo","ru":"Palo","uk":"Palo","de":"Palo","es":"Palo","en":"Palo","fr":"Palo"}},{"country":"PH","name":"Palayan","admin1Code":"PH.03","latitude":15.5415,"longitude":121.0848,"translations":{"pt":"Palayan","it":"Palayan","ru":"Палаян","uk":"Палаян","de":"Palayan","es":"Palayan","en":"Palayan","fr":"Palayan"}},{"country":"PH","name":"Pagbilao","admin1Code":"PH.40","latitude":13.96689,"longitude":121.69835,"translations":{"pt":"Pagbilao","it":"Pagbilao","ru":"Pagbilao","uk":"Pagbilao","de":"Pagbilao","es":"Pagbilao","en":"Pagbilao","fr":"Pagbilao"}},{"country":"PH","name":"Pagaluñgan","admin1Code":"PH.14","latitude":7.14167,"longitude":124.38056,"translations":{"pt":"Pagaluñgan","it":"Pagaluñgan","ru":"Pagaluñgan","uk":"Pagaluñgan","de":"Pagaluñgan","es":"Pagaluñgan","en":"Pagaluñgan","fr":"Pagaluñgan"}},{"country":"PH","name":"Pagadian","admin1Code":"PH.09","latitude":7.8257,"longitude":123.437,"translations":{"pt":"Pagadian","it":"Pagadian","ru":"Pagadian","uk":"Pagadian","de":"Pagadian","es":"Pagadian","en":"Pagadian","fr":"Pagadian"}},{"country":"PH","name":"Paete","admin1Code":"PH.40","latitude":14.3647,"longitude":121.4829,"translations":{"pt":"Paete","it":"Paete","ru":"Paete","uk":"Paete","de":"Paete","es":"Paete","en":"Paete","fr":"Paete"}},{"country":"PH","name":"Pacol","admin1Code":"PH.06","latitude":10.45,"longitude":122.81667,"translations":{"pt":"Pacol","it":"Pacol","ru":"Pacol","uk":"Pacol","de":"Pacol","es":"Pacol","en":"Pacol","fr":"Pacol"}},{"country":"PH","name":"Paco","admin1Code":"PH.NCR","latitude":14.588,"longitude":120.993,"translations":{"pt":"Paco","it":"Paco","ru":"Paco","uk":"Paco","de":"Paco","es":"Paco","en":"Paco","fr":"Paco"}},{"country":"PH","name":"Ozamiz","admin1Code":"PH.10","latitude":8.1481,"longitude":123.8405,"translations":{"pt":"Ozamiz","it":"Ozamiz","ru":"Озамис","uk":"Ozamiz","de":"Ozamiz","es":"Ozamiz","en":"Ozamiz","fr":"Ozamiz"}},{"country":"PH","name":"Oroquieta","admin1Code":"PH.10","latitude":8.4859,"longitude":123.8048,"translations":{"pt":"Oroquieta","it":"Oroquieta","ru":"Oroquieta","uk":"Oroquieta","de":"Oroquieta","es":"Oroquieta","en":"Oroquieta","fr":"Oroquieta"}},{"country":"PH","name":"Ormoc city","admin1Code":"PH.08","latitude":11.00639,"longitude":124.6075,"translations":{"pt":"Ormoc city","it":"Ormoc city","ru":"Ормок","uk":"Ormoc city","de":"Ormoc city","es":"Ormoc city","en":"Ormoc city","fr":"Ormoc city"}},{"country":"PH","name":"Орион","admin1Code":"PH.03","latitude":14.62056,"longitude":120.58167,"translations":{"pt":"Oryon","it":"Oryon","ru":"Орион","uk":"Орион","de":"Oryon","es":"Oryon","en":"Орион","fr":"Oryon"}},{"country":"PH","name":"Orani","admin1Code":"PH.03","latitude":14.8006,"longitude":120.5371,"translations":{"pt":"Orani","it":"Orani","ru":"Orani","uk":"Orani","de":"Orani","es":"Orani","en":"Orani","fr":"Orani"}},{"country":"PH","name":"Olongapo city","admin1Code":"PH.03","latitude":14.82917,"longitude":120.28278,"translations":{"pt":"Olongapo city","it":"Olongapo city","ru":"Olongapo city","uk":"Olongapo city","de":"Olongapo city","es":"Olóngapo","en":"Olongapo city","fr":"Olongapo city"}},{"country":"PH","name":"Obando","admin1Code":"PH.03","latitude":14.7098,"longitude":120.9362,"translations":{"pt":"Obando","it":"Obando","ru":"Obando","uk":"Obando","de":"Obando","es":"Obando","en":"Obando","fr":"Obando"}},{"country":"PH","name":"Oas","admin1Code":"PH.05","latitude":13.2593,"longitude":123.4963,"translations":{"pt":"Oas","it":"Oas","ru":"Oas","uk":"Oas","de":"Oas","es":"Oas","en":"Oas","fr":"Oas"}},{"country":"PH","name":"Nunungan","admin1Code":"PH.10","latitude":7.8236,"longitude":123.965,"translations":{"pt":"Nunungan","it":"Nunungan","ru":"Nunungan","uk":"Nunungan","de":"Nunungan","es":"Nunungan","en":"Nunungan","fr":"Nunungan"}},{"country":"PH","name":"Noveleta","admin1Code":"PH.40","latitude":14.42922,"longitude":120.87989,"translations":{"pt":"Noveleta","it":"Noveleta","ru":"Noveleta","uk":"Noveleta","de":"Noveleta","es":"Noveleta","en":"Noveleta","fr":"Noveleta"}},{"country":"PH","name":"Norzagaray","admin1Code":"PH.03","latitude":14.9109,"longitude":121.0493,"translations":{"pt":"Norzagaray","it":"Norzagaray","ru":"Norzagaray","uk":"Norzagaray","de":"Norzagaray","es":"Norzagaray","en":"Norzagaray","fr":"Norzagaray"}},{"country":"PH","name":"New corella","admin1Code":"PH.11","latitude":7.5866,"longitude":125.8237,"translations":{"pt":"New corella","it":"New corella","ru":"New corella","uk":"New corella","de":"New corella","es":"New corella","en":"New corella","fr":"New corella"}},{"country":"PH","name":"Navotas","admin1Code":"PH.NCR","latitude":14.66667,"longitude":120.95,"translations":{"pt":"Navotas","it":"Navotas","ru":"Navotas","uk":"Navotas","de":"Navotas","es":"Navotas","en":"Navotas","fr":"Navotas"}},{"country":"PH","name":"Nasugbu","admin1Code":"PH.40","latitude":14.06694,"longitude":120.63181,"translations":{"pt":"Nasugbu","it":"Nasugbu","ru":"Nasugbu","uk":"Nasugbu","de":"Nasugbu","es":"Nasugbu","en":"Nasugbu","fr":"Nasugbu"}},{"country":"PH","name":"Narra","admin1Code":"PH.41","latitude":9.26877,"longitude":118.4043,"translations":{"pt":"Narra","it":"Narra","ru":"Narra","uk":"Narra","de":"Narra","es":"Narra","en":"Narra","fr":"Narra"}},{"country":"PH","name":"Naic","admin1Code":"PH.40","latitude":14.31812,"longitude":120.76609,"translations":{"pt":"Naic","it":"Naic","ru":"Naic","uk":"Naic","de":"Naic","es":"Naic","en":"Naic","fr":"Naic"}},{"country":"PH","name":"Nagcarlan","admin1Code":"PH.40","latitude":14.1364,"longitude":121.4165,"translations":{"pt":"Nagcarlan","it":"Nagcarlan","ru":"Nagcarlan","uk":"Nagcarlan","de":"Nagcarlan","es":"Nagcarlan","en":"Nagcarlan","fr":"Nagcarlan"}},{"country":"PH","name":"Наги","admin1Code":"PH.05","latitude":13.61917,"longitude":123.18139,"translations":{"pt":"Nahy","it":"Nahy","ru":"Наги","uk":"Наги","de":"Nahy","es":"Nahy","en":"Наги","fr":"Nahy"}},{"country":"PH","name":"Naga city","admin1Code":"PH.07","latitude":10.20898,"longitude":123.758,"translations":{"pt":"Naga city","it":"Naga city","ru":"Naga city","uk":"Naga city","de":"Naga city","es":"Naga city","en":"Naga city","fr":"Naga city"}},{"country":"PH","name":"Nabunturan","admin1Code":"PH.11","latitude":7.60778,"longitude":125.96639,"translations":{"pt":"Nabunturan","it":"Nabunturan","ru":"Nabunturan","uk":"Nabunturan","de":"Nabunturan","es":"Nabunturan","en":"Nabunturan","fr":"Nabunturan"}},{"country":"PH","name":"Nabua","admin1Code":"PH.05","latitude":13.4075,"longitude":123.3724,"translations":{"pt":"Nabua","it":"Nabua","ru":"Nabua","uk":"Nabua","de":"Nabua","es":"Nabua","en":"Nabua","fr":"Nabua"}},{"country":"PH","name":"Muricay","admin1Code":"PH.09","latitude":7.8275,"longitude":123.4782,"translations":{"pt":"Muricay","it":"Muricay","ru":"Muricay","uk":"Muricay","de":"Muricay","es":"Muricay","en":"Muricay","fr":"Muricay"}},{"country":"PH","name":"Murcia","admin1Code":"PH.06","latitude":10.60516,"longitude":123.0417,"translations":{"pt":"Murcia","it":"Murcia","ru":"Murcia","uk":"Murcia","de":"Murcia","es":"Murcia","en":"Murcia","fr":"Murcia"}},{"country":"PH","name":"Muñoz","admin1Code":"PH.03","latitude":15.71611,"longitude":120.90306,"translations":{"pt":"Muñoz","it":"Muñoz","ru":"Muñoz","uk":"Muñoz","de":"Muñoz","es":"Muñoz","en":"Muñoz","fr":"Muñoz"}},{"country":"PH","name":"Моронг","admin1Code":"PH.03","latitude":14.67889,"longitude":120.26611,"translations":{"pt":"Moronh","it":"Moronh","ru":"Моронг","uk":"Моронг","de":"Moronh","es":"Moronh","en":"Моронг","fr":"Moronh"}},{"country":"PH","name":"Моронг","admin1Code":"PH.40","latitude":14.51849,"longitude":121.23778,"translations":{"pt":"Moronh","it":"Moronh","ru":"Моронг","uk":"Моронг","de":"Moronh","es":"Moronh","en":"Моронг","fr":"Moronh"}},{"country":"PH","name":"Родригес","admin1Code":"PH.40","latitude":14.76011,"longitude":121.19993,"translations":{"pt":"Rodryhes","it":"Rodryhes","ru":"Родригес","uk":"Родригес","de":"Rodryhes","es":"Rodríguez","en":"Родригес","fr":"Rodryhes"}},{"country":"PH","name":"Monkayo","admin1Code":"PH.11","latitude":7.81528,"longitude":126.05444,"translations":{"pt":"Monkayo","it":"Monkayo","ru":"Monkayo","uk":"Monkayo","de":"Monkayo","es":"Monkayo","en":"Monkayo","fr":"Monkayo"}},{"country":"PH","name":"Molave","admin1Code":"PH.09","latitude":8.0844,"longitude":123.491,"translations":{"pt":"Molave","it":"Molave","ru":"Molave","uk":"Molave","de":"Molave","es":"Molave","en":"Molave","fr":"Molave"}},{"country":"PH","name":"Minglanilla","admin1Code":"PH.07","latitude":10.24498,"longitude":123.7964,"translations":{"pt":"Minglanilla","it":"Minglanilla","ru":"Minglanilla","uk":"Minglanilla","de":"Minglanilla","es":"Minglanilla","en":"Minglanilla","fr":"Minglanilla"}},{"country":"PH","name":"Midsayap","admin1Code":"PH.12","latitude":7.19083,"longitude":124.53028,"translations":{"pt":"Midsayap","it":"Midsayap","ru":"Midsayap","uk":"Midsayap","de":"Midsayap","es":"Midsayap","en":"Midsayap","fr":"Midsayap"}},{"country":"PH","name":"Meycauayan city","admin1Code":"PH.03","latitude":14.73694,"longitude":120.96083,"translations":{"pt":"Meycauayan city","it":"Meycauayan city","ru":"Meycauayan city","uk":"Meycauayan city","de":"Meycauayan city","es":"Meycauayan city","en":"Meycauayan city","fr":"Meycauayan city"}},{"country":"PH","name":"México","admin1Code":"PH.03","latitude":15.0646,"longitude":120.7198,"translations":{"pt":"México","it":"México","ru":"México","uk":"México","de":"México","es":"México","en":"México","fr":"México"}},{"country":"PH","name":"Mercedes","admin1Code":"PH.05","latitude":14.1093,"longitude":123.0109,"translations":{"pt":"Mercedes","it":"Mercedes","ru":"Mercedes","uk":"Mercedes","de":"Mercedes","es":"Mercedes","en":"Mercedes","fr":"Mercedes"}},{"country":"PH","name":"Mendez-nuñez","admin1Code":"PH.40","latitude":14.12861,"longitude":120.90583,"translations":{"pt":"Mendez-nuñez","it":"Mendez-nuñez","ru":"Mendez-nuñez","uk":"Mendez-nuñez","de":"Mendez-nuñez","es":"Mendez-nuñez","en":"Mendez-nuñez","fr":"Mendez-nuñez"}},{"country":"PH","name":"Mauban","admin1Code":"PH.40","latitude":14.191,"longitude":121.7309,"translations":{"pt":"Mauban","it":"Mauban","ru":"Mauban","uk":"Mauban","de":"Mauban","es":"Mauban","en":"Mauban","fr":"Mauban"}},{"country":"PH","name":"Mati","admin1Code":"PH.11","latitude":6.95508,"longitude":126.21655,"translations":{"pt":"Mati","it":"Mati","ru":"Мати","uk":"Mati","de":"Mati city","es":"Mati","en":"Mati","fr":"Mati"}},{"country":"PH","name":"Masinloc","admin1Code":"PH.03","latitude":15.5363,"longitude":119.9502,"translations":{"pt":"Masinloc","it":"Masinloc","ru":"Masinloc","uk":"Masinloc","de":"Masinloc","es":"Masinloc","en":"Masinloc","fr":"Masinloc"}},{"country":"PH","name":"Масбате","admin1Code":"PH.05","latitude":12.37169,"longitude":123.62494,"translations":{"pt":"Masbate","it":"Masbate","ru":"Масбате","uk":"Масбате","de":"Masbate","es":"Masbate","en":"Масбате","fr":"Masbate"}},{"country":"PH","name":"Masantol","admin1Code":"PH.03","latitude":14.896,"longitude":120.7092,"translations":{"pt":"Masantol","it":"Masantol","ru":"Masantol","uk":"Masantol","de":"Masantol","es":"Masantol","en":"Masantol","fr":"Masantol"}},{"country":"PH","name":"Mariveles","admin1Code":"PH.03","latitude":14.43385,"longitude":120.48569,"translations":{"pt":"Mariveles","it":"Mariveles","ru":"Mariveles","uk":"Mariveles","de":"Mariveles","es":"Mariveles","en":"Mariveles","fr":"Mariveles"}},{"country":"PH","name":"Марилао","admin1Code":"PH.03","latitude":14.75778,"longitude":120.94833,"translations":{"pt":"Marylao","it":"Marylao","ru":"Марилао","uk":"Марилао","de":"Marylao","es":"Marylao","en":"Марилао","fr":"Marylao"}},{"country":"PH","name":"Marikina city","admin1Code":"PH.NCR","latitude":14.6481,"longitude":121.1133,"translations":{"pt":"Marikina city","it":"Marikina city","ru":"Marikina city","uk":"Marikina city","de":"Marikina city","es":"Marikina city","en":"Marikina city","fr":"Marikina city"}},{"country":"PH","name":"Mariano","admin1Code":"PH.10","latitude":8.83333,"longitude":125.11667,"translations":{"pt":"Mariano","it":"Mariano","ru":"Mariano","uk":"Mariano","de":"Mariano","es":"Mariano","en":"Mariano","fr":"Mariano"}},{"country":"PH","name":"Marawi city","admin1Code":"PH.14","latitude":8.0034,"longitude":124.28395,"translations":{"pt":"Marawi city","it":"Marawi city","ru":"Marawi city","uk":"Marawi city","de":"Marawi city","es":"Marawi city","en":"Marawi city","fr":"Marawi city"}},{"country":"PH","name":"Maramag","admin1Code":"PH.10","latitude":7.76333,"longitude":125.00528,"translations":{"pt":"Maramag","it":"Maramag","ru":"Maramag","uk":"Maramag","de":"Maramag","es":"Maramag","en":"Maramag","fr":"Maramag"}},{"country":"PH","name":"Maragondon","admin1Code":"PH.40","latitude":14.2733,"longitude":120.7377,"translations":{"pt":"Maragondon","it":"Maragondon","ru":"Maragondon","uk":"Maragondon","de":"Maragondon","es":"Maragondon","en":"Maragondon","fr":"Maragondon"}},{"country":"PH","name":"Mantampay","admin1Code":"PH.10","latitude":8.16667,"longitude":124.21667,"translations":{"pt":"Mantampay","it":"Mantampay","ru":"Mantampay","uk":"Mantampay","de":"Mantampay","es":"Mantampay","en":"Mantampay","fr":"Mantampay"}},{"country":"PH","name":"Mansilingan","admin1Code":"PH.06","latitude":10.63111,"longitude":122.97889,"translations":{"pt":"Mansilingan","it":"Mansilingan","ru":"Mansilingan","uk":"Mansilingan","de":"Mansilingan","es":"Mansilingan","en":"Mansilingan","fr":"Mansilingan"}},{"country":"PH","name":"Mansalay","admin1Code":"PH.41","latitude":12.52044,"longitude":121.43851,"translations":{"pt":"Mansalay","it":"Mansalay","ru":"Mansalay","uk":"Mansalay","de":"Mansalay","es":"Mansalay","en":"Mansalay","fr":"Mansalay"}},{"country":"PH","name":"Maluko","admin1Code":"PH.10","latitude":8.36972,"longitude":124.86444,"translations":{"pt":"Maluko","it":"Maluko","ru":"Maluko","uk":"Maluko","de":"Maluko","es":"Maluko","en":"Maluko","fr":"Maluko"}},{"country":"PH","name":"Manila","admin1Code":"PH.NCR","latitude":14.6042,"longitude":120.9822,"translations":{"pt":"Manila","it":"Manila","ru":"Манила","uk":"Маніла","de":"Manila","es":"Manila","en":"Manila","fr":"Manille"}},{"country":"PH","name":"Manibaug pasig","admin1Code":"PH.03","latitude":15.09621,"longitude":120.56445,"translations":{"pt":"Manibaug pasig","it":"Manibaug pasig","ru":"Manibaug pasig","uk":"Manibaug pasig","de":"Manibaug pasig","es":"Manibaug pasig","en":"Manibaug pasig","fr":"Manibaug pasig"}},{"country":"PH","name":"Mangaldan","admin1Code":"PH.01","latitude":16.07,"longitude":120.4025,"translations":{"pt":"Mangaldan","it":"Mangaldan","ru":"Mangaldan","uk":"Mangaldan","de":"Mangaldan","es":"Mangaldan","en":"Mangaldan","fr":"Mangaldan"}},{"country":"PH","name":"Mandaue city","admin1Code":"PH.07","latitude":10.32361,"longitude":123.92222,"translations":{"pt":"Mandaue city","it":"Mandaue city","ru":"Mandaue city","uk":"Mandaue city","de":"Mandaue city","es":"Mandaue city","en":"Mandaue city","fr":"Mandaue city"}},{"country":"PH","name":"Mandaluyong","admin1Code":"PH.NCR","latitude":14.5832,"longitude":121.0409,"translations":{"pt":"Mandaluyong","it":"Mandaluyong","ru":"Мандалуионг","uk":"Мандалуйонг","de":"Mandaluyong","es":"Mandalúyong","en":"Mandaluyong","fr":"Mandaluyong"}},{"country":"PH","name":"Mankayan","admin1Code":"PH.15","latitude":16.8632,"longitude":120.7829,"translations":{"pt":"Mankayan","it":"Mankayan","ru":"Mankayan","uk":"Mankayan","de":"Mankayan","es":"Mankayan","en":"Mankayan","fr":"Mankayan"}},{"country":"PH","name":"Manay","admin1Code":"PH.11","latitude":7.215,"longitude":126.53972,"translations":{"pt":"Manay","it":"Manay","ru":"Manay","uk":"Manay","de":"Manay","es":"Manay","en":"Manay","fr":"Manay"}},{"country":"PH","name":"Manapla","admin1Code":"PH.06","latitude":10.95803,"longitude":123.123,"translations":{"pt":"Manapla","it":"Manapla","ru":"Manapla","uk":"Manapla","de":"Manapla","es":"Manapla","en":"Manapla","fr":"Manapla"}},{"country":"PH","name":"Manaoag","admin1Code":"PH.01","latitude":16.0438,"longitude":120.4861,"translations":{"pt":"Manaoag","it":"Manaoag","ru":"Manaoag","uk":"Manaoag","de":"Manaoag","es":"Manaoag","en":"Manaoag","fr":"Manaoag"}},{"country":"PH","name":"Mamburao","admin1Code":"PH.41","latitude":13.2233,"longitude":120.596,"translations":{"pt":"Mamburao","it":"Mamburao","ru":"Mamburao","uk":"Mamburao","de":"Mamburao","es":"Mamburao","en":"Mamburao","fr":"Mamburao"}},{"country":"PH","name":"Mamatid","admin1Code":"PH.40","latitude":14.2349,"longitude":121.15902,"translations":{"pt":"Mamatid","it":"Mamatid","ru":"Mamatid","uk":"Mamatid","de":"Mamatid","es":"Mamatid","en":"Mamatid","fr":"Mamatid"}},{"country":"PH","name":"Malvar","admin1Code":"PH.40","latitude":14.04472,"longitude":121.15861,"translations":{"pt":"Malvar","it":"Malvar","ru":"Malvar","uk":"Malvar","de":"Malvar","es":"Malvar","en":"Malvar","fr":"Malvar"}},{"country":"PH","name":"Maluso","admin1Code":"PH.14","latitude":6.543,"longitude":121.8753,"translations":{"pt":"Maluso","it":"Maluso","ru":"Maluso","uk":"Maluso","de":"Maluso","es":"Maluso","en":"Maluso","fr":"Maluso"}},{"country":"PH","name":"Maluñgun","admin1Code":"PH.12","latitude":6.27917,"longitude":125.28167,"translations":{"pt":"Maluñgun","it":"Maluñgun","ru":"Maluñgun","uk":"Maluñgun","de":"Maluñgun","es":"Maluñgun","en":"Maluñgun","fr":"Maluñgun"}},{"country":"PH","name":"Malolos city","admin1Code":"PH.03","latitude":14.8443,"longitude":120.81039,"translations":{"pt":"Malolos city","it":"Malolos city","ru":"Малолос","uk":"Malolos city","de":"Malolos city","es":"Malolos city","en":"Malolos city","fr":"Malolos city"}},{"country":"PH","name":"Malita","admin1Code":"PH.11","latitude":6.415,"longitude":125.61167,"translations":{"pt":"Malita","it":"Malita","ru":"Malita","uk":"Malita","de":"Malita","es":"Malita","en":"Malita","fr":"Malita"}},{"country":"PH","name":"Malilipot","admin1Code":"PH.05","latitude":13.3188,"longitude":123.7385,"translations":{"pt":"Malilipot","it":"Malilipot","ru":"Malilipot","uk":"Malilipot","de":"Malilipot","es":"Malilipot","en":"Malilipot","fr":"Malilipot"}},{"country":"PH","name":"Malaybalay city","admin1Code":"PH.10","latitude":8.1575,"longitude":125.12778,"translations":{"pt":"Malaybalay city","it":"Malaybalay city","ru":"Малайбалай","uk":"Malaybalay city","de":"Malaybalay city","es":"Malaybalay city","en":"Malaybalay city","fr":"Malaybalay city"}},{"country":"PH","name":"Malapatan","admin1Code":"PH.12","latitude":5.96917,"longitude":125.28944,"translations":{"pt":"Malapatan","it":"Malapatan","ru":"Malapatan","uk":"Malapatan","de":"Malapatan","es":"Malapatan","en":"Malapatan","fr":"Malapatan"}},{"country":"PH","name":"Malanday","admin1Code":"PH.03","latitude":14.71694,"longitude":120.95806,"translations":{"pt":"Malanday","it":"Malanday","ru":"Malanday","uk":"Malanday","de":"Malanday","es":"Malanday","en":"Malanday","fr":"Malanday"}},{"country":"PH","name":"Malanday","admin1Code":"PH.40","latitude":14.7069,"longitude":121.1306,"translations":{"pt":"Malanday","it":"Malanday","ru":"Malanday","uk":"Malanday","de":"Malanday","es":"Malanday","en":"Malanday","fr":"Malanday"}},{"country":"PH","name":"Malabon","admin1Code":"PH.NCR","latitude":14.67333,"longitude":120.93972,"translations":{"pt":"Malabon","it":"Malabon","ru":"Malabon","uk":"Malabon","de":"Malabon","es":"Malabon","en":"Malabon","fr":"Malabon"}},{"country":"PH","name":"Malabanban norte","admin1Code":"PH.40","latitude":13.94521,"longitude":121.43065,"translations":{"pt":"Malabanban norte","it":"Malabanban norte","ru":"Malabanban norte","uk":"Malabanban norte","de":"Malabanban norte","es":"Malabanban norte","en":"Malabanban norte","fr":"Malabanban norte"}},{"country":"PH","name":"Makati city","admin1Code":"PH.NCR","latitude":14.55027,"longitude":121.03269,"translations":{"pt":"Makati city","it":"Makati city","ru":"Makati city","uk":"Makati city","de":"Makati city","es":"Makati city","en":"Makati city","fr":"Makati city"}},{"country":"PH","name":"Mahayag","admin1Code":"PH.09","latitude":8.1183,"longitude":123.4455,"translations":{"pt":"Mahayag","it":"Mahayag","ru":"Mahayag","uk":"Mahayag","de":"Mahayag","es":"Mahayag","en":"Mahayag","fr":"Mahayag"}},{"country":"PH","name":"Magsaysay","admin1Code":"PH.11","latitude":6.76667,"longitude":125.18333,"translations":{"pt":"Magsaysay","it":"Magsaysay","ru":"Magsaysay","uk":"Magsaysay","de":"Magsaysay","es":"Magsaysay","en":"Magsaysay","fr":"Magsaysay"}},{"country":"PH","name":"Magarao","admin1Code":"PH.05","latitude":13.6604,"longitude":123.1869,"translations":{"pt":"Magarao","it":"Magarao","ru":"Magarao","uk":"Magarao","de":"Magarao","es":"Magarao","en":"Magarao","fr":"Magarao"}},{"country":"PH","name":"Maganoy","admin1Code":"PH.14","latitude":6.86472,"longitude":124.44167,"translations":{"pt":"Maganoy","it":"Maganoy","ru":"Maganoy","uk":"Maganoy","de":"Maganoy","es":"Maganoy","en":"Maganoy","fr":"Maganoy"}},{"country":"PH","name":"Magalang","admin1Code":"PH.03","latitude":15.2151,"longitude":120.6596,"translations":{"pt":"Magalang","it":"Magalang","ru":"Magalang","uk":"Magalang","de":"Magalang","es":"Magalang","en":"Magalang","fr":"Magalang"}},{"country":"PH","name":"Mabalacat","admin1Code":"PH.03","latitude":15.22303,"longitude":120.57117,"translations":{"pt":"Mabalacat","it":"Mabalacat","ru":"Mabalacat","uk":"Mabalacat","de":"Mabalacat","es":"Mabalacat","en":"Mabalacat","fr":"Mabalacat"}},{"country":"PH","name":"Maasin","admin1Code":"PH.08","latitude":10.13272,"longitude":124.84082,"translations":{"pt":"Maasin","it":"Maasin","ru":"Maasin","uk":"Maasin","de":"Maasin","es":"Maasin","en":"Maasin","fr":"Maasin"}},{"country":"PH","name":"Maao","admin1Code":"PH.06","latitude":10.4896,"longitude":122.9907,"translations":{"pt":"Maao","it":"Maao","ru":"Maao","uk":"Maao","de":"Maao","es":"Maao","en":"Maao","fr":"Maao"}},{"country":"PH","name":"Lupon","admin1Code":"PH.11","latitude":6.89814,"longitude":126.00961,"translations":{"pt":"Lupon","it":"Lupon","ru":"Lupon","uk":"Lupon","de":"Lupon","es":"Lupon","en":"Lupon","fr":"Lupon"}},{"country":"PH","name":"Lumbang","admin1Code":"PH.40","latitude":14.2973,"longitude":121.4598,"translations":{"pt":"Lumbang","it":"Lumbang","ru":"Lumbang","uk":"Lumbang","de":"Lumbang","es":"Lumbang","en":"Lumbang","fr":"Lumbang"}},{"country":"PH","name":"Lucena city","admin1Code":"PH.40","latitude":13.93139,"longitude":121.61722,"translations":{"pt":"Lucena city","it":"Lucena city","ru":"Лусена","uk":"Lucena city","de":"Lucena city","es":"Lucena city","en":"Lucena city","fr":"Lucena city"}},{"country":"PH","name":"Lucban","admin1Code":"PH.40","latitude":14.11356,"longitude":121.55574,"translations":{"pt":"Lucban","it":"Lucban","ru":"Lucban","uk":"Lucban","de":"Lucban","es":"Lucban","en":"Lucban","fr":"Lucban"}},{"country":"PH","name":"Lubao","admin1Code":"PH.03","latitude":14.9405,"longitude":120.6011,"translations":{"pt":"Lubao","it":"Lubao","ru":"Lubao","uk":"Lubao","de":"Lubao","es":"Lubao","en":"Lubao","fr":"Lubao"}},{"country":"PH","name":"Лос-баньос","admin1Code":"PH.40","latitude":14.17025,"longitude":121.24181,"translations":{"pt":"Los-ban'os","it":"Los-ban'os","ru":"Лос-баньос","uk":"Лос-баньос","de":"Los-ban'os","es":"Los-ban'os","en":"Лос-баньос","fr":"Los-ban'os"}},{"country":"PH","name":"Lopez","admin1Code":"PH.40","latitude":13.884,"longitude":122.2604,"translations":{"pt":"Lopez","it":"Lopez","ru":"Lopez","uk":"Lopez","de":"Lopez","es":"Lopez","en":"Lopez","fr":"Lopez"}},{"country":"PH","name":"Loma de gato","admin1Code":"PH.03","latitude":14.78869,"longitude":120.99889,"translations":{"pt":"Loma de gato","it":"Loma de gato","ru":"Loma de gato","uk":"Loma de gato","de":"Loma de gato","es":"Loma de gato","en":"Loma de gato","fr":"Loma de gato"}},{"country":"PH","name":"Loboc","admin1Code":"PH.07","latitude":9.63833,"longitude":124.03482,"translations":{"pt":"Loboc","it":"Loboc","ru":"Loboc","uk":"Loboc","de":"Loboc","es":"Loboc","en":"Loboc","fr":"Loboc"}},{"country":"PH","name":"Lipa city","admin1Code":"PH.40","latitude":13.9411,"longitude":121.1631,"translations":{"pt":"Lipa city","it":"Lipa city","ru":"Липа","uk":"Lipa city","de":"Lipa city","es":"Lipa city","en":"Lipa city","fr":"Lipa city"}},{"country":"PH","name":"Lingayen","admin1Code":"PH.01","latitude":16.02182,"longitude":120.23194,"translations":{"pt":"Lingayen","it":"Lingayen","ru":"Lingayen","uk":"Lingayen","de":"Lingayen","es":"Lingayen","en":"Lingayen","fr":"Lingayen"}},{"country":"PH","name":"Limay","admin1Code":"PH.03","latitude":14.56194,"longitude":120.59833,"translations":{"pt":"Limay","it":"Limay","ru":"Limay","uk":"Limay","de":"Limay","es":"Limay","en":"Limay","fr":"Limay"}},{"country":"PH","name":"Liloan","admin1Code":"PH.07","latitude":10.3991,"longitude":123.9992,"translations":{"pt":"Liloan","it":"Liloan","ru":"Liloan","uk":"Liloan","de":"Liloan","es":"Liloan","en":"Liloan","fr":"Liloan"}},{"country":"PH","name":"Lilio","admin1Code":"PH.40","latitude":14.1313,"longitude":121.4362,"translations":{"pt":"Lilio","it":"Lilio","ru":"Lilio","uk":"Lilio","de":"Lilio","es":"Lilio","en":"Lilio","fr":"Lilio"}},{"country":"PH","name":"Libon","admin1Code":"PH.05","latitude":13.2997,"longitude":123.4386,"translations":{"pt":"Libon","it":"Libon","ru":"Libon","uk":"Libon","de":"Libon","es":"Libon","en":"Libon","fr":"Libon"}},{"country":"PH","name":"Libertad","admin1Code":"PH.13","latitude":8.94417,"longitude":125.50194,"translations":{"pt":"Libertad","it":"Libertad","ru":"Libertad","uk":"Libertad","de":"Libertad","es":"Libertad","en":"Libertad","fr":"Libertad"}},{"country":"PH","name":"Legaspi city","admin1Code":"PH.05","latitude":13.14125,"longitude":123.74073,"translations":{"pt":"Legaspi city","it":"Legaspi city","ru":"Legaspi city","uk":"Legaspi city","de":"Legaspi city","es":"Legaspi city","en":"Legaspi city","fr":"Legaspi city"}},{"country":"PH","name":"Laur","admin1Code":"PH.03","latitude":15.5865,"longitude":121.1834,"translations":{"pt":"Laur","it":"Laur","ru":"Laur","uk":"Laur","de":"Laur","es":"Laur","en":"Laur","fr":"Laur"}},{"country":"PH","name":"Ла-тринидад","admin1Code":"PH.15","latitude":16.455,"longitude":120.5875,"translations":{"pt":"La-trynydad","it":"La-trynydad","ru":"Ла-тринидад","uk":"Ла-тринидад","de":"La-trynydad","es":"La-trynydad","en":"Ла-тринидад","fr":"La-trynydad"}},{"country":"PH","name":"Las piñas","admin1Code":"PH.NCR","latitude":14.45056,"longitude":120.98278,"translations":{"pt":"Las piñas","it":"Las piñas","ru":"Las piñas","uk":"Las piñas","de":"Las piñas","es":"Las piñas","en":"Las piñas","fr":"Las piñas"}},{"country":"PH","name":"Lapu-lapu city","admin1Code":"PH.07","latitude":10.31028,"longitude":123.94944,"translations":{"pt":"Lapu-lapu city","it":"Lapu-lapu city","ru":"Lapu-lapu city","uk":"Lapu-lapu city","de":"Lapu-lapu city","es":"Lapu-lapu city","en":"Lapu-lapu city","fr":"Lapu-lapu city"}},{"country":"PH","name":"Ла-пас","admin1Code":"PH.03","latitude":15.44125,"longitude":120.72863,"translations":{"pt":"La-pas","it":"La-pas","ru":"Ла-пас","uk":"Ла-пас","de":"La-pas","es":"La-pas","en":"Ла-пас","fr":"La-pas"}},{"country":"PH","name":"Laoang","admin1Code":"PH.08","latitude":12.5698,"longitude":125.0141,"translations":{"pt":"Laoang","it":"Laoang","ru":"Laoang","uk":"Laoang","de":"Laoang","es":"Laoang","en":"Laoang","fr":"Laoang"}},{"country":"PH","name":"Laoag","admin1Code":"PH.01","latitude":18.1978,"longitude":120.5957,"translations":{"pt":"Laoag","it":"Laoag","ru":"Лаоаг","uk":"Laoag","de":"Laoag","es":"Laoag","en":"Laoag","fr":"Laoag"}},{"country":"PH","name":"Laguilayan","admin1Code":"PH.12","latitude":6.67213,"longitude":124.52491,"translations":{"pt":"Laguilayan","it":"Laguilayan","ru":"Laguilayan","uk":"Laguilayan","de":"Laguilayan","es":"Laguilayan","en":"Laguilayan","fr":"Laguilayan"}},{"country":"PH","name":"La castellana","admin1Code":"PH.06","latitude":10.3239,"longitude":123.0215,"translations":{"pt":"La castellana","it":"La castellana","ru":"La castellana","uk":"La castellana","de":"La castellana","es":"La castellana","en":"La castellana","fr":"La castellana"}},{"country":"PH","name":"La carlota","admin1Code":"PH.06","latitude":10.4242,"longitude":122.9212,"translations":{"pt":"La carlota","it":"La carlota","ru":"Ла-карлота","uk":"Ла-карлота","de":"La carlota","es":"La carlota","en":"La carlota","fr":"La carlota"}},{"country":"PH","name":"Labo","admin1Code":"PH.05","latitude":14.1532,"longitude":122.8303,"translations":{"pt":"Labo","it":"Labo","ru":"Labo","uk":"Labo","de":"Labo","es":"Labo","en":"Labo","fr":"Labo"}},{"country":"PH","name":"Koronadal city","admin1Code":"PH.12","latitude":6.50306,"longitude":124.84694,"translations":{"pt":"Koronadal city","it":"Koronadal city","ru":"Koronadal city","uk":"Koronadal city","de":"Koronadal city","es":"Koronadal city","en":"Koronadal city","fr":"Koronadal city"}},{"country":"PH","name":"Кидапаван","admin1Code":"PH.12","latitude":7.00833,"longitude":125.08944,"translations":{"pt":"Kydapavan","it":"Kydapavan","ru":"Кидапаван","uk":"Кидапаван","de":"Kydapavan","es":"Kydapavan","en":"Кидапаван","fr":"Kydapavan"}},{"country":"PH","name":"Kawit","admin1Code":"PH.40","latitude":14.44426,"longitude":120.90164,"translations":{"pt":"Kawit","it":"Kawit","ru":"Kawit","uk":"Kawit","de":"Kawit","es":"Kawit","en":"Kawit","fr":"Kawit"}},{"country":"PH","name":"Kalibo town","admin1Code":"PH.06","latitude":11.70611,"longitude":122.36444,"translations":{"pt":"Kalibo town","it":"Kalibo town","ru":"Калибо","uk":"Kalibo town","de":"Kalibo town","es":"Pueblo de calivo","en":"Kalibo town","fr":"Kalibo town"}},{"country":"PH","name":"Kabankalan","admin1Code":"PH.06","latitude":9.9839,"longitude":122.81423,"translations":{"pt":"Kabankalan","it":"Kabankalan","ru":"Kabankalan","uk":"Kabankalan","de":"Kabankalan","es":"Kabankalan","en":"Kabankalan","fr":"Kabankalan"}},{"country":"PH","name":"Kabacan","admin1Code":"PH.12","latitude":7.10667,"longitude":124.82917,"translations":{"pt":"Kabacan","it":"Kabacan","ru":"Kabacan","uk":"Kabacan","de":"Kabacan","es":"Kabacan","en":"Kabacan","fr":"Kabacan"}},{"country":"PH","name":"Jose pañganiban","admin1Code":"PH.05","latitude":14.2906,"longitude":122.6917,"translations":{"pt":"Jose pañganiban","it":"Jose pañganiban","ru":"Jose pañganiban","uk":"Jose pañganiban","de":"Jose pañganiban","es":"Jose pañganiban","en":"Jose pañganiban","fr":"Jose pañganiban"}},{"country":"PH","name":"Джоли","admin1Code":"PH.14","latitude":6.05222,"longitude":121.00222,"translations":{"pt":"Dzholy","it":"Dzholy","ru":"Джоли","uk":"Джоли","de":"Dzholy","es":"Joló","en":"Джоли","fr":"Dzholy"}},{"country":"PH","name":"Jamán","admin1Code":"PH.10","latitude":8.65417,"longitude":124.75556,"translations":{"pt":"Jamán","it":"Jamán","ru":"Jamán","uk":"Jamán","de":"Jamán","es":"Jamán","en":"Jamán","fr":"Jamán"}},{"country":"PH","name":"Jalajala","admin1Code":"PH.40","latitude":14.353,"longitude":121.3225,"translations":{"pt":"Jalajala","it":"Jalajala","ru":"Jalajala","uk":"Jalajala","de":"Jalajala","es":"Jalajala","en":"Jalajala","fr":"Jalajala"}},{"country":"PH","name":"Jagna","admin1Code":"PH.07","latitude":9.6531,"longitude":124.3697,"translations":{"pt":"Jagna","it":"Jagna","ru":"Jagna","uk":"Jagna","de":"Jagna","es":"Jagna","en":"Jagna","fr":"Jagna"}},{"country":"PH","name":"Хаэн","admin1Code":"PH.03","latitude":15.3275,"longitude":120.9192,"translations":{"pt":"Khaэn","it":"Khaэn","ru":"Хаэн","uk":"Хаэн","de":"Khaэn","es":"Khaэn","en":"Хаэн","fr":"Khaэn"}},{"country":"PH","name":"Itogon","admin1Code":"PH.15","latitude":16.36389,"longitude":120.67694,"translations":{"pt":"Itogon","it":"Itogon","ru":"Itogon","uk":"Itogon","de":"Itogon","es":"Itogon","en":"Itogon","fr":"Itogon"}},{"country":"PH","name":"Isulan","admin1Code":"PH.12","latitude":6.62944,"longitude":124.605,"translations":{"pt":"Isulan","it":"Isulan","ru":"Isulan","uk":"Isulan","de":"Isulan","es":"Isulan","en":"Isulan","fr":"Isulan"}},{"country":"PH","name":"Изабела","admin1Code":"PH.06","latitude":10.2048,"longitude":122.9888,"translations":{"pt":"Yzabela","it":"Yzabela","ru":"Изабела","uk":"Изабела","de":"Yzabela","es":"Yzabela","en":"Изабела","fr":"Yzabela"}},{"country":"PH","name":"Isabela","admin1Code":"PH.14","latitude":6.70407,"longitude":121.97117,"translations":{"pt":"Isabela","it":"Isabela","ru":"Изабела","uk":"Isabela","de":"Isabela","es":"Isabela","en":"Isabela","fr":"Isabela"}},{"country":"PH","name":"Irosin","admin1Code":"PH.05","latitude":12.70013,"longitude":124.03221,"translations":{"pt":"Irosin","it":"Irosin","ru":"Irosin","uk":"Irosin","de":"Irosin","es":"Irosin","en":"Irosin","fr":"Irosin"}},{"country":"PH","name":"Iriga city","admin1Code":"PH.05","latitude":13.4324,"longitude":123.4115,"translations":{"pt":"Iriga city","it":"Iriga city","ru":"Iriga city","uk":"Iriga city","de":"Iriga city","es":"Iriga city","en":"Iriga city","fr":"Iriga city"}},{"country":"PH","name":"Ipil","admin1Code":"PH.09","latitude":7.78444,"longitude":122.58611,"translations":{"pt":"Ipil","it":"Ipil","ru":"Ipil","uk":"Ipil","de":"Ipil","es":"Ipil","en":"Ipil","fr":"Ipil"}},{"country":"PH","name":"Inopacan","admin1Code":"PH.08","latitude":10.4997,"longitude":124.7405,"translations":{"pt":"Inopacan","it":"Inopacan","ru":"Inopacan","uk":"Inopacan","de":"Inopacan","es":"Inopacan","en":"Inopacan","fr":"Inopacan"}},{"country":"PH","name":"Indang","admin1Code":"PH.40","latitude":14.19528,"longitude":120.87694,"translations":{"pt":"Indang","it":"Indang","ru":"Indang","uk":"Indang","de":"Indang","es":"Indang","en":"Indang","fr":"Indang"}},{"country":"PH","name":"Inabanga","admin1Code":"PH.07","latitude":10.0307,"longitude":124.0671,"translations":{"pt":"Inabanga","it":"Inabanga","ru":"Inabanga","uk":"Inabanga","de":"Inabanga","es":"Inabanga","en":"Inabanga","fr":"Inabanga"}},{"country":"PH","name":"Имус","admin1Code":"PH.40","latitude":14.42972,"longitude":120.93667,"translations":{"pt":"Ymus","it":"Ymus","ru":"Имус","uk":"Имус","de":"Ymus","es":"Ymus","en":"Имус","fr":"Ymus"}},{"country":"PH","name":"Impasugong","admin1Code":"PH.10","latitude":8.30972,"longitude":125.00194,"translations":{"pt":"Impasugong","it":"Impasugong","ru":"Impasugong","uk":"Impasugong","de":"Impasugong","es":"Impasugong","en":"Impasugong","fr":"Impasugong"}},{"country":"PH","name":"Iloilo city","admin1Code":"PH.06","latitude":10.69694,"longitude":122.56444,"translations":{"pt":"Iloilo city","it":"Iloilo city","ru":"Илоило","uk":"Iloilo city","de":"Iloilo city","es":"Iloilo city","en":"Iloilo city","fr":"Iloilo"}},{"country":"PH","name":"Iligan city","admin1Code":"PH.12","latitude":8.25,"longitude":124.4,"translations":{"pt":"Iligan city","it":"Iligan city","ru":"Iligan city","uk":"Iligan city","de":"Iligan city","es":"Iligan city","en":"Iligan city","fr":"Iligan city"}},{"country":"PH","name":"Iligan","admin1Code":"PH.10","latitude":8.2289,"longitude":124.24344,"translations":{"pt":"Iligan","it":"Iligan","ru":"Iligan","uk":"Iligan","de":"Iligan","es":"Iligan","en":"Iligan","fr":"Iligan"}},{"country":"PH","name":"Илаган","admin1Code":"PH.02","latitude":17.14854,"longitude":121.88924,"translations":{"pt":"Ylahan","it":"Ylahan","ru":"Илаган","uk":"Илаган","de":"Ylahan","es":"Ylahan","en":"Илаган","fr":"Ylahan"}},{"country":"PH","name":"Ибра","admin1Code":"PH.03","latitude":15.3276,"longitude":119.978,"translations":{"pt":"Ybra","it":"Ybra","ru":"Ибра","uk":"Ибра","de":"Ybra","es":"Ybra","en":"Ибра","fr":"Ybra"}},{"country":"PH","name":"Hinigaran","admin1Code":"PH.06","latitude":10.2706,"longitude":122.8507,"translations":{"pt":"Hinigaran","it":"Hinigaran","ru":"Hinigaran","uk":"Hinigaran","de":"Hinigaran","es":"Hinigaran","en":"Hinigaran","fr":"Hinigaran"}},{"country":"PH","name":"Himamaylan","admin1Code":"PH.06","latitude":10.09889,"longitude":122.87056,"translations":{"pt":"Himamaylan","it":"Himamaylan","ru":"Himamaylan","uk":"Himamaylan","de":"Himamaylan","es":"Himamaylan","en":"Himamaylan","fr":"Himamaylan"}},{"country":"PH","name":"Эрмоса","admin1Code":"PH.03","latitude":14.8314,"longitude":120.5081,"translations":{"pt":"Эrmosa","it":"Эrmosa","ru":"Эрмоса","uk":"Эрмоса","de":"Эrmosa","es":"Эrmosa","en":"Эрмоса","fr":"Эrmosa"}},{"country":"PH","name":"Hagonoy","admin1Code":"PH.03","latitude":14.83413,"longitude":120.73271,"translations":{"pt":"Hagonoy","it":"Hagonoy","ru":"Hagonoy","uk":"Hagonoy","de":"Hagonoy","es":"Hagonoy","en":"Hagonoy","fr":"Hagonoy"}},{"country":"PH","name":"Guyong","admin1Code":"PH.03","latitude":14.8361,"longitude":120.97844,"translations":{"pt":"Guyong","it":"Guyong","ru":"Guyong","uk":"Guyong","de":"Guyong","es":"Guyong","en":"Guyong","fr":"Guyong"}},{"country":"PH","name":"Gumaca","admin1Code":"PH.40","latitude":13.921,"longitude":122.1002,"translations":{"pt":"Gumaca","it":"Gumaca","ru":"Gumaca","uk":"Gumaca","de":"Gumaca","es":"Gumaca","en":"Gumaca","fr":"Gumaca"}},{"country":"PH","name":"Guiset east","admin1Code":"PH.01","latitude":16.06667,"longitude":120.68333,"translations":{"pt":"Guiset east","it":"Guiset east","ru":"Guiset east","uk":"Guiset east","de":"Guiset east","es":"Guiset east","en":"Guiset east","fr":"Guiset east"}},{"country":"PH","name":"Guimba","admin1Code":"PH.03","latitude":15.6605,"longitude":120.7683,"translations":{"pt":"Guimba","it":"Guimba","ru":"Guimba","uk":"Guimba","de":"Guimba","es":"Guimba","en":"Guimba","fr":"Guimba"}},{"country":"PH","name":"Guihulñgan","admin1Code":"PH.07","latitude":10.11947,"longitude":123.27287,"translations":{"pt":"Guihulñgan","it":"Guihulñgan","ru":"Guihulñgan","uk":"Guihulñgan","de":"Guihulñgan","es":"Guihulñgan","en":"Guihulñgan","fr":"Guihulñgan"}},{"country":"PH","name":"Guiguinto","admin1Code":"PH.03","latitude":14.83333,"longitude":120.88333,"translations":{"pt":"Guiguinto","it":"Guiguinto","ru":"Guiguinto","uk":"Guiguinto","de":"Guiguinto","es":"Guiguinto","en":"Guiguinto","fr":"Guiguinto"}},{"country":"PH","name":"Гоа","admin1Code":"PH.05","latitude":13.6978,"longitude":123.4892,"translations":{"pt":"Hoa","it":"Hoa","ru":"Гоа","uk":"Гоа","de":"Hoa","es":"Hoa","en":"Гоа","fr":"Hoa"}},{"country":"PH","name":"Глан","admin1Code":"PH.12","latitude":5.82417,"longitude":125.20333,"translations":{"pt":"Hlan","it":"Hlan","ru":"Глан","uk":"Глан","de":"Hlan","es":"Hlan","en":"Глан","fr":"Hlan"}},{"country":"PH","name":"Gingoog","admin1Code":"PH.10","latitude":8.82778,"longitude":125.09972,"translations":{"pt":"Gingoog","it":"Gingoog","ru":"Gingoog","uk":"Gingoog","de":"Gingoog","es":"Gingoog","en":"Gingoog","fr":"Gingoog"}},{"country":"PH","name":"Жерона","admin1Code":"PH.03","latitude":15.6065,"longitude":120.5978,"translations":{"pt":"Zherona","it":"Zherona","ru":"Жерона","uk":"Жерона","de":"Zherona","es":"Zherona","en":"Жерона","fr":"Zherona"}},{"country":"PH","name":"General trias","admin1Code":"PH.40","latitude":14.38694,"longitude":120.88167,"translations":{"pt":"General trias","it":"General trias","ru":"General trias","uk":"General trias","de":"General trias","es":"General trias","en":"General trias","fr":"General trias"}},{"country":"PH","name":"General tinio","admin1Code":"PH.03","latitude":15.35075,"longitude":121.04773,"translations":{"pt":"General tinio","it":"General tinio","ru":"General tinio","uk":"General tinio","de":"General tinio","es":"General tinio","en":"General tinio","fr":"General tinio"}},{"country":"PH","name":"Генерал-сантос","admin1Code":"PH.12","latitude":6.11278,"longitude":125.17167,"translations":{"pt":"Heneral-santos","it":"Heneral-santos","ru":"Генерал-сантос","uk":"Генерал-сантос","de":"Heneral-santos","es":"Heneral-santos","en":"Генерал-сантос","fr":"Heneral-santos"}},{"country":"PH","name":"General mamerto natividad","admin1Code":"PH.03","latitude":15.6025,"longitude":121.0515,"translations":{"pt":"General mamerto natividad","it":"General mamerto natividad","ru":"General mamerto natividad","uk":"General mamerto natividad","de":"General mamerto natividad","es":"General mamerto natividad","en":"General mamerto natividad","fr":"General mamerto natividad"}},{"country":"PH","name":"Gapan","admin1Code":"PH.03","latitude":15.3072,"longitude":120.9464,"translations":{"pt":"Gapan","it":"Gapan","ru":"Gapan","uk":"Gapan","de":"Gapan","es":"Gapan","en":"Gapan","fr":"Gapan"}},{"country":"PH","name":"Esperanza","admin1Code":"PH.05","latitude":11.7365,"longitude":124.042,"translations":{"pt":"Esperanza","it":"Esperanza","ru":"Esperanza","uk":"Esperanza","de":"Esperanza","es":"Esperanza","en":"Esperanza","fr":"Esperanza"}},{"country":"PH","name":"Escalante city","admin1Code":"PH.06","latitude":10.84028,"longitude":123.49917,"translations":{"pt":"Escalante city","it":"Escalante city","ru":"Escalante city","uk":"Escalante city","de":"Escalante city","es":"Escalante city","en":"Escalante city","fr":"Escalante city"}},{"country":"PH","name":"Enrique b. magalona","admin1Code":"PH.06","latitude":10.87879,"longitude":122.97707,"translations":{"pt":"Enrique b. magalona","it":"Enrique b. magalona","ru":"Enrique b. magalona","uk":"Enrique b. magalona","de":"Enrique b. magalona","es":"Enrique b. magalona","en":"Enrique b. magalona","fr":"Enrique b. magalona"}},{"country":"PH","name":"Dupax del sur","admin1Code":"PH.02","latitude":16.2838,"longitude":121.0896,"translations":{"pt":"Dupax del sur","it":"Dupax del sur","ru":"Dupax del sur","uk":"Dupax del sur","de":"Dupax del sur","es":"Dupax del sur","en":"Dupax del sur","fr":"Dupax del sur"}},{"country":"PH","name":"Dupax del norte","admin1Code":"PH.02","latitude":16.3079,"longitude":121.1062,"translations":{"pt":"Dupax del norte","it":"Dupax del norte","ru":"Dupax del norte","uk":"Dupax del norte","de":"Dupax del norte","es":"Dupax del norte","en":"Dupax del norte","fr":"Dupax del norte"}},{"country":"PH","name":"Dumaguete","admin1Code":"PH.07","latitude":9.30646,"longitude":123.30769,"translations":{"pt":"Dumaguete","it":"Dumaguete","ru":"Думагете","uk":"Думагете","de":"Dumaguete city","es":"Dumaguete","en":"Dumaguete","fr":"Dumaguete"}},{"country":"PH","name":"Don carlos de maramag","admin1Code":"PH.10","latitude":7.68,"longitude":125.005,"translations":{"pt":"Don carlos de maramag","it":"Don carlos de maramag","ru":"Don carlos de maramag","uk":"Don carlos de maramag","de":"Don carlos de maramag","es":"Don carlos de maramag","en":"Don carlos de maramag","fr":"Don carlos de maramag"}},{"country":"PH","name":"Domalanoan","admin1Code":"PH.01","latitude":16.00292,"longitude":120.21154,"translations":{"pt":"Domalanoan","it":"Domalanoan","ru":"Domalanoan","uk":"Domalanoan","de":"Domalanoan","es":"Domalanoan","en":"Domalanoan","fr":"Domalanoan"}},{"country":"PH","name":"Dologon","admin1Code":"PH.10","latitude":7.84083,"longitude":125.04444,"translations":{"pt":"Dologon","it":"Dologon","ru":"Dologon","uk":"Dologon","de":"Dologon","es":"Dologon","en":"Dologon","fr":"Dologon"}},{"country":"PH","name":"Dipolog city","admin1Code":"PH.09","latitude":8.56697,"longitude":123.33471,"translations":{"pt":"Dipolog city","it":"Dipolog city","ru":"Диполог","uk":"Dipolog city","de":"Dipolog city","es":"Dipólog","en":"Dipolog city","fr":"Dipolog city"}},{"country":"PH","name":"Dinalupihan","admin1Code":"PH.03","latitude":14.87827,"longitude":120.45221,"translations":{"pt":"Dinalupihan","it":"Dinalupihan","ru":"Dinalupihan","uk":"Dinalupihan","de":"Dinalupihan","es":"Dinalupihan","en":"Dinalupihan","fr":"Dinalupihan"}},{"country":"PH","name":"Digos city","admin1Code":"PH.11","latitude":6.74972,"longitude":125.35722,"translations":{"pt":"Digos city","it":"Digos city","ru":"Digos city","uk":"Digos city","de":"Digos city","es":"Digos city","en":"Digos city","fr":"Digos city"}},{"country":"PH","name":"Diadi","admin1Code":"PH.02","latitude":16.7262,"longitude":121.3589,"translations":{"pt":"Diadi","it":"Diadi","ru":"Diadi","uk":"Diadi","de":"Diadi","es":"Diadi","en":"Diadi","fr":"Diadi"}},{"country":"PH","name":"Del pilar","admin1Code":"PH.03","latitude":15.03601,"longitude":120.69935,"translations":{"pt":"Del pilar","it":"Del pilar","ru":"Del pilar","uk":"Del pilar","de":"Del pilar","es":"Del pilar","en":"Del pilar","fr":"Del pilar"}},{"country":"PH","name":"Davao city","admin1Code":"PH.11","latitude":7.07306,"longitude":125.61278,"translations":{"pt":"Davao city","it":"Davao city","ru":"Давао","uk":"Давао","de":"Davao","es":"Davao city","en":"Davao city","fr":"Davao"}},{"country":"PH","name":"Дасмариньяс","admin1Code":"PH.40","latitude":14.32944,"longitude":120.93667,"translations":{"pt":"Dasmaryn'jas","it":"Dasmaryn'jas","ru":"Дасмариньяс","uk":"Дасмариньяс","de":"Dasmaryn'jas","es":"Dasmaryn'jas","en":"Дасмариньяс","fr":"Dasmaryn'jas"}},{"country":"PH","name":"Dapitan","admin1Code":"PH.09","latitude":8.6561,"longitude":123.4227,"translations":{"pt":"Dapitan","it":"Dapitan","ru":"Дапитан","uk":"Дапітан","de":"Dapitan","es":"Dapitan","en":"Dapitan","fr":"Dapitan"}},{"country":"PH","name":"Danao","admin1Code":"PH.07","latitude":10.52083,"longitude":124.02722,"translations":{"pt":"Danao","it":"Danao","ru":"Danao","uk":"Danao","de":"Danao","es":"Danao","en":"Danao","fr":"Danao"}},{"country":"PH","name":"Danao","admin1Code":"PH.07","latitude":9.55421,"longitude":123.75648,"translations":{"pt":"Danao","it":"Danao","ru":"Danao","uk":"Danao","de":"Danao","es":"Danao","en":"Danao","fr":"Danao"}},{"country":"PH","name":"Dagupán","admin1Code":"PH.01","latitude":16.04313,"longitude":120.33325,"translations":{"pt":"Dagupán","it":"Dagupán","ru":"Dagupán","uk":"Dagupán","de":"Dagupán","es":"Dagupán","en":"Dagupán","fr":"Dagupán"}},{"country":"PH","name":"Daet","admin1Code":"PH.05","latitude":14.1122,"longitude":122.9553,"translations":{"pt":"Daet","it":"Daet","ru":"Дает","uk":"Daet","de":"Daet","es":"Daet","en":"Daet","fr":"Daet"}},{"country":"PH","name":"Куэнка","admin1Code":"PH.40","latitude":13.902,"longitude":121.0521,"translations":{"pt":"Kuэnka","it":"Kuэnka","ru":"Куэнка","uk":"Куэнка","de":"Kuэnka","es":"Kuэnka","en":"Куэнка","fr":"Kuэnka"}},{"country":"PH","name":"Cotabato city","admin1Code":"PH.14","latitude":7.22361,"longitude":124.24639,"translations":{"pt":"Cotabato city","it":"Cotabato city","ru":"Котабато","uk":"Cotabato city","de":"Cotabato","es":"Cotabato city","en":"Cotabato city","fr":"Cotabato city"}},{"country":"PH","name":"Кордоба","admin1Code":"PH.07","latitude":10.24394,"longitude":123.94222,"translations":{"pt":"Córdova","it":"Kordoba","ru":"Кордоба","uk":"Кордоба","de":"Kordoba","es":"Córdova","en":"Кордоба","fr":"Kordoba"}},{"country":"PH","name":"Consolacion","admin1Code":"PH.07","latitude":10.3766,"longitude":123.9573,"translations":{"pt":"Consolacion","it":"Consolacion","ru":"Consolacion","uk":"Consolacion","de":"Consolacion","es":"Consolacion","en":"Consolacion","fr":"Consolacion"}},{"country":"PH","name":"Консепсьон","admin1Code":"PH.03","latitude":15.32546,"longitude":120.65723,"translations":{"pt":"Konseps'on","it":"Konseps'on","ru":"Консепсьон","uk":"Консепсьон","de":"Konseps'on","es":"Konseps'on","en":"Консепсьон","fr":"Konseps'on"}},{"country":"PH","name":"Concepcion ibaba","admin1Code":"PH.40","latitude":13.92309,"longitude":121.46099,"translations":{"pt":"Concepcion ibaba","it":"Concepcion ibaba","ru":"Concepcion ibaba","uk":"Concepcion ibaba","de":"Concepcion ibaba","es":"Concepcion ibaba","en":"Concepcion ibaba","fr":"Concepcion ibaba"}},{"country":"PH","name":"Compostela","admin1Code":"PH.07","latitude":10.455,"longitude":124.0106,"translations":{"pt":"Compostela","it":"Compostela","ru":"Compostela","uk":"Compostela","de":"Compostela","es":"Compostela","en":"Compostela","fr":"Compostela"}},{"country":"PH","name":"Compostela","admin1Code":"PH.11","latitude":7.67306,"longitude":126.08889,"translations":{"pt":"Compostela","it":"Compostela","ru":"Compostela","uk":"Compostela","de":"Compostela","es":"Compostela","en":"Compostela","fr":"Compostela"}},{"country":"PH","name":"Cebu city","admin1Code":"PH.07","latitude":10.31672,"longitude":123.89071,"translations":{"pt":"Cebu city","it":"Cebu city","ru":"Себу","uk":"Cebu city","de":"Cebu city","es":"Ciudad de cebú","en":"Cebu city","fr":"Cebu"}},{"country":"PH","name":"Кавите","admin1Code":"PH.40","latitude":14.48369,"longitude":120.89878,"translations":{"pt":"Kavyte","it":"Kavyte","ru":"Кавите","uk":"Кавите","de":"Kavyte","es":"Kavyte","en":"Кавите","fr":"Kavyte"}},{"country":"PH","name":"Catbalogan","admin1Code":"PH.08","latitude":11.77528,"longitude":124.88611,"translations":{"pt":"Catbalogan","it":"Catbalogan","ru":"Catbalogan","uk":"Catbalogan","de":"Catbalogan city","es":"Catbalogan","en":"Catbalogan","fr":"Catbalogan"}},{"country":"PH","name":"Catarmán","admin1Code":"PH.08","latitude":12.4989,"longitude":124.6377,"translations":{"pt":"Catarmán","it":"Catarmán","ru":"Катарман","uk":"Catarmán","de":"Catarmán","es":"Catarmán","en":"Catarmán","fr":"Catarmán"}},{"country":"PH","name":"Catanauan","admin1Code":"PH.40","latitude":13.5926,"longitude":122.3215,"translations":{"pt":"Catanauan","it":"Catanauan","ru":"Catanauan","uk":"Catanauan","de":"Catanauan","es":"Catanauan","en":"Catanauan","fr":"Catanauan"}},{"country":"PH","name":"Кастильехосу","admin1Code":"PH.03","latitude":14.93363,"longitude":120.19785,"translations":{"pt":"Kastyl'ekhosu","it":"Kastyl'ekhosu","ru":"Кастильехосу","uk":"Кастильехосу","de":"Kastyl'ekhosu","es":"Kastyl'ekhosu","en":"Кастильехосу","fr":"Kastyl'ekhosu"}},{"country":"PH","name":"Carmona","admin1Code":"PH.40","latitude":14.3132,"longitude":121.0576,"translations":{"pt":"Carmona","it":"Carmona","ru":"Carmona","uk":"Carmona","de":"Carmona","es":"Carmona","en":"Carmona","fr":"Carmona"}},{"country":"PH","name":"Кармен","admin1Code":"PH.07","latitude":10.59306,"longitude":124.01778,"translations":{"pt":"Karmen","it":"Karmen","ru":"Кармен","uk":"Кармен","de":"Karmen","es":"Karmen","en":"Кармен","fr":"Karmen"}},{"country":"PH","name":"Carigara","admin1Code":"PH.08","latitude":11.29811,"longitude":124.67895,"translations":{"pt":"Carigara","it":"Carigara","ru":"Carigara","uk":"Carigara","de":"Carigara","es":"Carigara","en":"Carigara","fr":"Carigara"}},{"country":"PH","name":"Cardona","admin1Code":"PH.40","latitude":14.48646,"longitude":121.22752,"translations":{"pt":"Cardona","it":"Cardona","ru":"Кардона","uk":"Cardona","de":"Cardona","es":"Cardona","en":"Cardona","fr":"Cardona"}},{"country":"PH","name":"Carcar","admin1Code":"PH.07","latitude":10.1061,"longitude":123.6402,"translations":{"pt":"Carcar","it":"Carcar","ru":"Carcar","uk":"Carcar","de":"Carcar","es":"Carcar","en":"Carcar","fr":"Carcar"}},{"country":"PH","name":"Capas","admin1Code":"PH.03","latitude":15.33117,"longitude":120.5898,"translations":{"pt":"Capas","it":"Capas","ru":"Капас","uk":"Capas","de":"Capas","es":"Capas","en":"Capas","fr":"Capas"}},{"country":"PH","name":"Canlaon","admin1Code":"PH.07","latitude":10.38697,"longitude":123.2227,"translations":{"pt":"Canlaon","it":"Canlaon","ru":"Canlaon","uk":"Canlaon","de":"Canlaon","es":"Canlaon","en":"Canlaon","fr":"Canlaon"}},{"country":"PH","name":"Candelaria","admin1Code":"PH.40","latitude":13.93111,"longitude":121.42333,"translations":{"pt":"Candelaria","it":"Candelaria","ru":"Candelaria","uk":"Candelaria","de":"Candelaria","es":"Candelaria","en":"Candelaria","fr":"Candelaria"}},{"country":"PH","name":"Candaba","admin1Code":"PH.03","latitude":15.0956,"longitude":120.8267,"translations":{"pt":"Candaba","it":"Candaba","ru":"Candaba","uk":"Candaba","de":"Candaba","es":"Candaba","en":"Candaba","fr":"Candaba"}},{"country":"PH","name":"Camiling","admin1Code":"PH.03","latitude":15.6866,"longitude":120.4128,"translations":{"pt":"Camiling","it":"Camiling","ru":"Camiling","uk":"Camiling","de":"Camiling","es":"Camiling","en":"Camiling","fr":"Camiling"}},{"country":"PH","name":"Calumpit","admin1Code":"PH.03","latitude":14.91639,"longitude":120.76583,"translations":{"pt":"Calumpit","it":"Calumpit","ru":"Calumpit","uk":"Calumpit","de":"Calumpit","es":"Calumpit","en":"Calumpit","fr":"Calumpit"}},{"country":"PH","name":"Calumpang","admin1Code":"PH.NCR","latitude":14.6228,"longitude":121.0897,"translations":{"pt":"Calumpang","it":"Calumpang","ru":"Calumpang","uk":"Calumpang","de":"Calumpang","es":"Calumpang","en":"Calumpang","fr":"Calumpang"}},{"country":"PH","name":"Caloocan city","admin1Code":"PH.NCR","latitude":14.64953,"longitude":120.96788,"translations":{"pt":"Caloocan city","it":"Caloocan city","ru":"Caloocan city","uk":"Caloocan city","de":"Caloocan city","es":"Caloocan city","en":"Caloocan city","fr":"Caloocan city"}},{"country":"PH","name":"Calbayog city","admin1Code":"PH.08","latitude":12.0668,"longitude":124.5962,"translations":{"pt":"Calbayog city","it":"Calbayog city","ru":"Калбейог сити","uk":"Calbayog city","de":"Calbayog city","es":"Calbayog city","en":"Calbayog city","fr":"Calbayog city"}},{"country":"PH","name":"Calauan","admin1Code":"PH.40","latitude":14.14989,"longitude":121.3152,"translations":{"pt":"Calauan","it":"Calauan","ru":"Calauan","uk":"Calauan","de":"Calauan","es":"Calauan","en":"Calauan","fr":"Calauan"}},{"country":"PH","name":"Calauag","admin1Code":"PH.40","latitude":13.9575,"longitude":122.288,"translations":{"pt":"Calauag","it":"Calauag","ru":"Calauag","uk":"Calauag","de":"Calauag","es":"Calauag","en":"Calauag","fr":"Calauag"}},{"country":"PH","name":"Calatagan","admin1Code":"PH.40","latitude":13.83224,"longitude":120.63219,"translations":{"pt":"Calatagan","it":"Calatagan","ru":"Calatagan","uk":"Calatagan","de":"Calatagan","es":"Calatagan","en":"Calatagan","fr":"Calatagan"}},{"country":"PH","name":"Calasiao","admin1Code":"PH.01","latitude":16.0111,"longitude":120.36,"translations":{"pt":"Calasiao","it":"Calasiao","ru":"Calasiao","uk":"Calasiao","de":"Calasiao","es":"Calasiao","en":"Calasiao","fr":"Calasiao"}},{"country":"PH","name":"Calapan city","admin1Code":"PH.41","latitude":13.4117,"longitude":121.1803,"translations":{"pt":"Calapan city","it":"Calapan city","ru":"Calapan city","uk":"Calapan city","de":"Calapan city","es":"Calapán","en":"Calapan city","fr":"Calapan city"}},{"country":"PH","name":"Calamba city","admin1Code":"PH.40","latitude":14.21167,"longitude":121.16528,"translations":{"pt":"Calamba city","it":"Calamba city","ru":"Каламба","uk":"Calamba city","de":"Calamba city","es":"Calambá","en":"Calamba city","fr":"Calamba city"}},{"country":"PH","name":"Calaca","admin1Code":"PH.40","latitude":13.93244,"longitude":120.81327,"translations":{"pt":"Calaca","it":"Calaca","ru":"Calaca","uk":"Calaca","de":"Calaca","es":"Calaca","en":"Calaca","fr":"Calaca"}},{"country":"PH","name":"Calabanga","admin1Code":"PH.05","latitude":13.7068,"longitude":123.2087,"translations":{"pt":"Calabanga","it":"Calabanga","ru":"Calabanga","uk":"Calabanga","de":"Calabanga","es":"Calabanga","en":"Calabanga","fr":"Calabanga"}},{"country":"PH","name":"Cainta","admin1Code":"PH.40","latitude":14.5786,"longitude":121.1222,"translations":{"pt":"Cainta","it":"Cainta","ru":"Cainta","uk":"Cainta","de":"Cainta","es":"Cainta","en":"Cainta","fr":"Cainta"}},{"country":"PH","name":"Cagayán de oro","admin1Code":"PH.10","latitude":8.48222,"longitude":124.64722,"translations":{"pt":"Cagayán de oro","it":"Cagayán de oro","ru":"Кагаян-де-оро","uk":"Cagayán de oro","de":"Cagayán de oro","es":"Cagayán de oro","en":"Cagayán de oro","fr":"Cagayán de oro"}},{"country":"PH","name":"Cadiz","admin1Code":"PH.06","latitude":10.9465,"longitude":123.288,"translations":{"pt":"Cadiz","it":"Cadiz","ru":"Cadiz","uk":"Cadiz","de":"Cadiz","es":"Cadiz","en":"Cadiz","fr":"Cadiz"}},{"country":"PH","name":"Cabuyao city","admin1Code":"PH.40","latitude":14.2726,"longitude":121.1262,"translations":{"pt":"Cabuyao city","it":"Cabuyao city","ru":"Cabuyao city","uk":"Cabuyao city","de":"Cabuyao city","es":"Cabúyao","en":"Cabuyao city","fr":"Cabuyao city"}},{"country":"PH","name":"Cabiao","admin1Code":"PH.03","latitude":15.2488,"longitude":120.8548,"translations":{"pt":"Cabiao","it":"Cabiao","ru":"Cabiao","uk":"Cabiao","de":"Cabiao","es":"Cabiao","en":"Cabiao","fr":"Cabiao"}},{"country":"PH","name":"Cabayangan","admin1Code":"PH.11","latitude":7.40722,"longitude":125.73306,"translations":{"pt":"Cabayangan","it":"Cabayangan","ru":"Cabayangan","uk":"Cabayangan","de":"Cabayangan","es":"Cabayangan","en":"Cabayangan","fr":"Cabayangan"}},{"country":"PH","name":"Cabanatuan city","admin1Code":"PH.03","latitude":15.48586,"longitude":120.96648,"translations":{"pt":"Cabanatuan city","it":"Cabanatuan city","ru":"Cabanatuan city","uk":"Cabanatuan city","de":"Cabanatuan city","es":"Cabanatúan","en":"Cabanatuan city","fr":"Cabanatuan city"}},{"country":"PH","name":"Cabagán","admin1Code":"PH.02","latitude":17.42782,"longitude":121.76955,"translations":{"pt":"Cabagán","it":"Cabagán","ru":"Cabagán","uk":"Cabagán","de":"Cabagán","es":"Cabagán","en":"Cabagán","fr":"Cabagán"}},{"country":"PH","name":"Cabadbaran","admin1Code":"PH.13","latitude":9.12261,"longitude":125.53549,"translations":{"pt":"Cabadbaran","it":"Cabadbaran","ru":"Кабадбаран","uk":"Cabadbaran","de":"Cabadbaran city","es":"Cabadbarán","en":"Cabadbaran","fr":"Cabadbaran"}},{"country":"PH","name":"Butuan","admin1Code":"PH.13","latitude":8.94917,"longitude":125.54361,"translations":{"pt":"Butuan","it":"Butuan","ru":"Butuan","uk":"Butuan","de":"Butuan city","es":"Butuan","en":"Butuan","fr":"Butuan"}},{"country":"PH","name":"Бустос","admin1Code":"PH.03","latitude":14.95806,"longitude":120.91778,"translations":{"pt":"Bustos","it":"Bustos","ru":"Бустос","uk":"Бустос","de":"Bustos","es":"Bustos","en":"Бустос","fr":"Bustos"}},{"country":"PH","name":"Boroon","admin1Code":"PH.10","latitude":8.18278,"longitude":124.17701,"translations":{"pt":"Boroon","it":"Boroon","ru":"Boroon","uk":"Boroon","de":"Boroon","es":"Boroon","en":"Boroon","fr":"Boroon"}},{"country":"PH","name":"Burgos","admin1Code":"PH.03","latitude":15.72892,"longitude":120.57224,"translations":{"pt":"Burgos","it":"Burgos","ru":"Burgos","uk":"Burgos","de":"Burgos","es":"Burgos","en":"Burgos","fr":"Burgos"}},{"country":"PH","name":"Bunawan","admin1Code":"PH.13","latitude":8.16722,"longitude":125.99083,"translations":{"pt":"Bunawan","it":"Bunawan","ru":"Bunawan","uk":"Bunawan","de":"Bunawan","es":"Bunawan","en":"Bunawan","fr":"Bunawan"}},{"country":"PH","name":"Buluan","admin1Code":"PH.14","latitude":6.72028,"longitude":124.80194,"translations":{"pt":"Buluan","it":"Buluan","ru":"Buluan","uk":"Buluan","de":"Buluan","es":"Buluan","en":"Buluan","fr":"Buluan"}},{"country":"PH","name":"Bulaon","admin1Code":"PH.03","latitude":15.08262,"longitude":120.66288,"translations":{"pt":"Bulaon","it":"Bulaon","ru":"Bulaon","uk":"Bulaon","de":"Bulaon","es":"Bulaon","en":"Bulaon","fr":"Bulaon"}},{"country":"PH","name":"Булан","admin1Code":"PH.05","latitude":12.67139,"longitude":123.875,"translations":{"pt":"Bulan","it":"Bulan","ru":"Булан","uk":"Булан","de":"Bulan","es":"Bulan","en":"Булан","fr":"Bulan"}},{"country":"PH","name":"Bulacan","admin1Code":"PH.03","latitude":14.79278,"longitude":120.87889,"translations":{"pt":"Bulacan","it":"Bulacan","ru":"Bulacan","uk":"Bulacan","de":"Bulacan","es":"Bulacan","en":"Bulacan","fr":"Bulacan"}},{"country":"PH","name":"Buhi","admin1Code":"PH.05","latitude":13.4322,"longitude":123.517,"translations":{"pt":"Buhi","it":"Buhi","ru":"Buhi","uk":"Buhi","de":"Buhi","es":"Buhi","en":"Buhi","fr":"Buhi"}},{"country":"PH","name":"Bugo","admin1Code":"PH.10","latitude":8.50833,"longitude":124.75944,"translations":{"pt":"Bugo","it":"Bugo","ru":"Bugo","uk":"Bugo","de":"Bugo","es":"Bugo","en":"Bugo","fr":"Bugo"}},{"country":"PH","name":"Buenavista","admin1Code":"PH.13","latitude":8.97694,"longitude":125.40889,"translations":{"pt":"Buenavista","it":"Buenavista","ru":"Buenavista","uk":"Buenavista","de":"Buenavista","es":"Buenavista","en":"Buenavista","fr":"Buenavista"}},{"country":"PH","name":"Budta","admin1Code":"PH.14","latitude":7.20417,"longitude":124.43972,"translations":{"pt":"Budta","it":"Budta","ru":"Budta","uk":"Budta","de":"Budta","es":"Budta","en":"Budta","fr":"Budta"}},