[{"country":"NA","name":"Katima mulilo","admin1Code":"NA.28","latitude":-17.50467,"longitude":24.27574,"translations":{"pt":"Katima mulilo","it":"Katima mulilo","ru":"Катима-мулило","uk":"Катіма-муліло","de":"Katima mulilo","es":"Katima mulilo","en":"Katima mulilo","fr":"Katima mulilo"}},{"country":"NA","name":"Windhoek","admin1Code":"NA.21","latitude":-22.55941,"longitude":17.08323,"translations":{"pt":"Windhoek","it":"Windhoek","ru":"Виндхук","uk":"Віндгук","de":"Windhoek","es":"Windhoek","en":"Windhoek","fr":"Windhoek"}},{"country":"NA","name":"Цумеб","admin1Code":"NA.38","latitude":-19.24842,"longitude":17.71345,"translations":{"pt":"Tsumeb","it":"Tsumeb","ru":"Цумеб","uk":"Цумеб","de":"Tsumeb","es":"Tsumeb","en":"Цумеб","fr":"Tsumeb"}},{"country":"NA","name":"Swakopmund","admin1Code":"NA.29","latitude":-22.67842,"longitude":14.52663,"translations":{"pt":"Swakopmund","it":"Swakopmund","ru":"Свакопмунд","uk":"Свакопмунд","de":"Swakopmund","es":"Swakopmund","en":"Swakopmund","fr":"Swakopmund"}},{"country":"NA","name":"Рунду","admin1Code":"NA.40","latitude":-17.91796,"longitude":19.77314,"translations":{"pt":"Rundu","it":"Rundu","ru":"Рунду","uk":"Рунду","de":"Rundu","es":"Rundu","en":"Рунду","fr":"Rundu"}},{"country":"NA","name":"Rehoboth","admin1Code":"NA.30","latitude":-23.317,"longitude":17.09,"translations":{"pt":"Rehoboth","it":"Rehoboth","ru":"Рехобот","uk":"Рехобот","de":"Rehoboth","es":"Rehoboth","en":"Rehoboth","fr":"Rehoboth"}},{"country":"NA","name":"Отьиваронго","admin1Code":"NA.39","latitude":-20.46369,"longitude":16.64772,"translations":{"pt":"Ot'yvaronho","it":"Ot'yvaronho","ru":"Отьиваронго","uk":"Очиваронго","de":"Ot'yvaronho","es":"Ot'yvaronho","en":"Отьиваронго","fr":"Ot'yvaronho"}},{"country":"NA","name":"Oshakati","admin1Code":"NA.37","latitude":-17.78833,"longitude":15.70436,"translations":{"pt":"Oshakati","it":"Oshakati","ru":"Ошакати","uk":"Ошакаті","de":"Oshakati","es":"Oshakati","en":"Oshakati","fr":"Oshakati"}},{"country":"NA","name":"Ongwediva","admin1Code":"NA.37","latitude":-17.77198,"longitude":15.76564,"translations":{"pt":"Ongwediva","it":"Ongwediva","ru":"Онгуэдива","uk":"Онгуедіва","de":"Ongwediva","es":"Ongwediva","en":"Ongwediva","fr":"Ongwediva"}},{"country":"NA","name":"Ондангва","admin1Code":"NA.37","latitude":-17.90824,"longitude":15.98037,"translations":{"pt":"Ondanhva","it":"Ondanhva","ru":"Ондангва","uk":"Ондангва","de":"Ondanhva","es":"Ondanhva","en":"Ондангва","fr":"Ondanhva"}},{"country":"NA","name":"Okahandja","admin1Code":"NA.39","latitude":-21.98141,"longitude":16.9029,"translations":{"pt":"Okahandja","it":"Okahandja","ru":"Окаханджа","uk":"Окаханджа","de":"Okahandja","es":"Okahandja","en":"Okahandja","fr":"Okahandja"}},{"country":"NA","name":"Lüderitz","admin1Code":"NA.31","latitude":-26.64807,"longitude":15.15383,"translations":{"pt":"Lüderitz","it":"Lüderitz","ru":"Людериц","uk":"Людериц","de":"Lüderitz","es":"Lüderitz","en":"Lüderitz","fr":"Lüderitz"}},{"country":"NA","name":"Keetmanshoop","admin1Code":"NA.31","latitude":-26.57654,"longitude":18.13359,"translations":{"pt":"Keetmanshoop","it":"Keetmanshoop","ru":"Китмансхуп","uk":"Кітмансхуп","de":"Keetmanshoop","es":"Keetmanshoop","en":"Keetmanshoop","fr":"Keetmanshoop"}},{"country":"NA","name":"Katutura","admin1Code":"NA.21","latitude":-22.52306,"longitude":17.06028,"translations":{"pt":"Katutura","it":"Katutura","ru":"Katutura","uk":"Katutura","de":"Katutura","es":"Katutura","en":"Katutura","fr":"Katutura"}},{"country":"NA","name":"Grootfontein","admin1Code":"NA.39","latitude":-19.57328,"longitude":18.1003,"translations":{"pt":"Grootfontein","it":"Grootfontein","ru":"Хрутфонтейн","uk":"Грутфонтейн","de":"Grootfontein","es":"Grootfontein","en":"Grootfontein","fr":"Grootfontein"}},{"country":"NA","name":"Гобабіс","admin1Code":"NA.35","latitude":-22.45338,"longitude":18.97159,"translations":{"pt":"Hobabis","it":"Hobabis","ru":"Гобабис","uk":"Гобабіс","de":"Hobabis","es":"Hobabis","en":"Гобабіс","fr":"Hobabis"}},{"country":"NA","name":"Walvis bay","admin1Code":"NA.29","latitude":-22.9575,"longitude":14.50528,"translations":{"pt":"Walvis bay","it":"Walvis bay","ru":"Уолфиш-бей","uk":"Волфіш-бей","de":"Walvis bay","es":"Walvis bay","en":"Walvis bay","fr":"Walvis bay"}},{"country":"NA","name":"Helao nafidi","admin1Code":"NA.33","latitude":-17.39321,"longitude":15.89107,"translations":{"pt":"Helao nafidi","it":"Helao nafidi","ru":"Helao nafidi","uk":"Helao nafidi","de":"Helao nafidi","es":"Helao nafidi","en":"Helao nafidi","fr":"Helao nafidi"}}]