[{"country":"CM","name":"Yokadouma","admin1Code":"CM.04","latitude":3.51667,"longitude":15.05,"translations":{"pt":"Yokadouma","it":"Yokadouma","ru":"Yokadouma","uk":"Yokadouma","de":"Yokadouma","es":"Yokadouma","en":"Yokadouma","fr":"Yokadouma"}},{"country":"CM","name":"Yaoundé","admin1Code":"CM.11","latitude":3.86667,"longitude":11.51667,"translations":{"pt":"Yaoundé","it":"Yaoundé","ru":"Яунде","uk":"Яунде","de":"Yaoundé","es":"Yaundé","en":"Yaoundé","fr":"Yaoundé"}},{"country":"CM","name":"Yagoua","admin1Code":"CM.12","latitude":10.34107,"longitude":15.23288,"translations":{"pt":"Yagoua","it":"Yagoua","ru":"Yagoua","uk":"Yagoua","de":"Yagoua","es":"Yagoua","en":"Yagoua","fr":"Yagoua"}},{"country":"CM","name":"Wum","admin1Code":"CM.07","latitude":6.38333,"longitude":10.06667,"translations":{"pt":"Wum","it":"Wum","ru":"Wum","uk":"Wum","de":"Wum","es":"Wum","en":"Wum","fr":"Wum"}},{"country":"CM","name":"Touboro","admin1Code":"CM.13","latitude":7.7708,"longitude":15.3568,"translations":{"pt":"Touboro","it":"Touboro","ru":"Touboro","uk":"Touboro","de":"Touboro","es":"Touboro","en":"Touboro","fr":"Touboro"}},{"country":"CM","name":"Tonga","admin1Code":"CM.08","latitude":4.96667,"longitude":10.7,"translations":{"pt":"Tonga","it":"Tonga","ru":"Tonga","uk":"Tonga","de":"Tonga","es":"Tonga","en":"Tonga","fr":"Tonga"}},{"country":"CM","name":"Tombel","admin1Code":"CM.09","latitude":4.7466,"longitude":9.6705,"translations":{"pt":"Tombel","it":"Tombel","ru":"Tombel","uk":"Tombel","de":"Tombel","es":"Tombel","en":"Tombel","fr":"Tombel"}},{"country":"CM","name":"Tiko","admin1Code":"CM.09","latitude":4.075,"longitude":9.36005,"translations":{"pt":"Tiko","it":"Tiko","ru":"Tiko","uk":"Tiko","de":"Tiko","es":"Tiko","en":"Tiko","fr":"Tiko"}},{"country":"CM","name":"Tibati","admin1Code":"CM.10","latitude":6.46504,"longitude":12.62843,"translations":{"pt":"Tibati","it":"Tibati","ru":"Tibati","uk":"Tibati","de":"Tibati","es":"Tibati","en":"Tibati","fr":"Tibati"}},{"country":"CM","name":"Tcholliré","admin1Code":"CM.13","latitude":8.4022,"longitude":14.1698,"translations":{"pt":"Tcholliré","it":"Tcholliré","ru":"Tcholliré","uk":"Tcholliré","de":"Tcholliré","es":"Tcholliré","en":"Tcholliré","fr":"Tcholliré"}},{"country":"CM","name":"Tchéboa","admin1Code":"CM.13","latitude":9.02871,"longitude":13.1848,"translations":{"pt":"Tchéboa","it":"Tchéboa","ru":"Tchéboa","uk":"Tchéboa","de":"Tchéboa","es":"Tchéboa","en":"Tchéboa","fr":"Tchéboa"}},{"country":"CM","name":"Souza gare","admin1Code":"CM.05","latitude":4.2344,"longitude":9.6164,"translations":{"pt":"Souza gare","it":"Souza gare","ru":"Souza gare","uk":"Souza gare","de":"Souza gare","es":"Souza gare","en":"Souza gare","fr":"Souza gare"}},{"country":"CM","name":"Сангмелима","admin1Code":"CM.14","latitude":2.93333,"longitude":11.98333,"translations":{"pt":"Sanhmelyma","it":"Sanhmelyma","ru":"Сангмелима","uk":"Сангмелима","de":"Sanhmelyma","es":"Sanhmelyma","en":"Сангмелима","fr":"Sanhmelyma"}},{"country":"CM","name":"Pitoa","admin1Code":"CM.13","latitude":9.3839,"longitude":13.50231,"translations":{"pt":"Pitoa","it":"Pitoa","ru":"Pitoa","uk":"Pitoa","de":"Pitoa","es":"Pitoa","en":"Pitoa","fr":"Pitoa"}},{"country":"CM","name":"Penja","admin1Code":"CM.05","latitude":4.63911,"longitude":9.67987,"translations":{"pt":"Penja","it":"Penja","ru":"Penja","uk":"Penja","de":"Penja","es":"Penja","en":"Penja","fr":"Penja"}},{"country":"CM","name":"Oku","admin1Code":"CM.07","latitude":6.25,"longitude":10.43333,"translations":{"pt":"Oku","it":"Oku","ru":"Oku","uk":"Oku","de":"Oku","es":"Oku","en":"Oku","fr":"Oku"}},{"country":"CM","name":"Okoa","admin1Code":"CM.11","latitude":3.98333,"longitude":11.6,"translations":{"pt":"Okoa","it":"Okoa","ru":"Okoa","uk":"Okoa","de":"Okoa","es":"Okoa","en":"Okoa","fr":"Okoa"}},{"country":"CM","name":"Obala","admin1Code":"CM.11","latitude":4.16667,"longitude":11.53333,"translations":{"pt":"Obala","it":"Obala","ru":"Obala","uk":"Obala","de":"Obala","es":"Obala","en":"Obala","fr":"Obala"}},{"country":"CM","name":"Nkoteng","admin1Code":"CM.11","latitude":4.51667,"longitude":12.03333,"translations":{"pt":"Nkoteng","it":"Nkoteng","ru":"Nkoteng","uk":"Nkoteng","de":"Nkoteng","es":"Nkoteng","en":"Nkoteng","fr":"Nkoteng"}},{"country":"CM","name":"Nkongsamba","admin1Code":"CM.05","latitude":4.9547,"longitude":9.9404,"translations":{"pt":"Nkongsamba","it":"Nkongsamba","ru":"Нконгсамба","uk":"Nkongsamba","de":"Nkongsamba","es":"Nkongsamba","en":"Nkongsamba","fr":"Nkongsamba"}},{"country":"CM","name":"Nkambe","admin1Code":"CM.07","latitude":6.63333,"longitude":10.66667,"translations":{"pt":"Nkambe","it":"Nkambe","ru":"Nkambe","uk":"Nkambe","de":"Nkambe","es":"Nkambe","en":"Nkambe","fr":"Nkambe"}},{"country":"CM","name":"Njombé","admin1Code":"CM.05","latitude":4.58056,"longitude":9.66472,"translations":{"pt":"Njombé","it":"Njombé","ru":"Njombé","uk":"Njombé","de":"Njombé","es":"Njombé","en":"Njombé","fr":"Njombé"}},{"country":"CM","name":"Ngaoundéré","admin1Code":"CM.10","latitude":7.32765,"longitude":13.58472,"translations":{"pt":"Ngaoundéré","it":"Ngaoundéré","ru":"Нгаундере","uk":"Ngaoundéré","de":"Ngaoundéré","es":"Ngaoundéré","en":"Ngaoundéré","fr":"Ngaoundéré"}},{"country":"CM","name":"Nanga eboko","admin1Code":"CM.11","latitude":4.68333,"longitude":12.36667,"translations":{"pt":"Nanga eboko","it":"Nanga eboko","ru":"Nanga eboko","uk":"Nanga eboko","de":"Nanga eboko","es":"Nanga eboko","en":"Nanga eboko","fr":"Nanga eboko"}},{"country":"CM","name":"Muyuka","admin1Code":"CM.09","latitude":4.2898,"longitude":9.4103,"translations":{"pt":"Muyuka","it":"Muyuka","ru":"Muyuka","uk":"Muyuka","de":"Muyuka","es":"Muyuka","en":"Muyuka","fr":"Muyuka"}},{"country":"CM","name":"Mutengene","admin1Code":"CM.09","latitude":4.0913,"longitude":9.3144,"translations":{"pt":"Mutengene","it":"Mutengene","ru":"Mutengene","uk":"Mutengene","de":"Mutengene","es":"Mutengene","en":"Mutengene","fr":"Mutengene"}},{"country":"CM","name":"Море","admin1Code":"CM.12","latitude":11.04611,"longitude":14.14011,"translations":{"pt":"More","it":"More","ru":"Море","uk":"Море","de":"More","es":"More","en":"Море","fr":"More"}},{"country":"CM","name":"Mokolo","admin1Code":"CM.12","latitude":10.74244,"longitude":13.80227,"translations":{"pt":"Mokolo","it":"Mokolo","ru":"Mokolo","uk":"Mokolo","de":"Mokolo","es":"Mokolo","en":"Mokolo","fr":"Mokolo"}},{"country":"CM","name":"Melong","admin1Code":"CM.05","latitude":5.12181,"longitude":9.96143,"translations":{"pt":"Melong","it":"Melong","ru":"Melong","uk":"Melong","de":"Melong","es":"Melong","en":"Melong","fr":"Melong"}},{"country":"CM","name":"Мейганге","admin1Code":"CM.10","latitude":6.51667,"longitude":14.3,"translations":{"pt":"Mejhanhe","it":"Mejhanhe","ru":"Мейганге","uk":"Мейганге","de":"Mejhanhe","es":"Mejhanhe","en":"Мейганге","fr":"Mejhanhe"}},{"country":"CM","name":"Mbouda","admin1Code":"CM.08","latitude":5.62611,"longitude":10.25421,"translations":{"pt":"Mbouda","it":"Mbouda","ru":"Mbouda","uk":"Mbouda","de":"Mbouda","es":"Mbouda","en":"Mbouda","fr":"Mbouda"}},{"country":"CM","name":"Mbanga","admin1Code":"CM.05","latitude":4.5016,"longitude":9.5671,"translations":{"pt":"Mbanga","it":"Mbanga","ru":"Mbanga","uk":"Mbanga","de":"Mbanga","es":"Mbanga","en":"Mbanga","fr":"Mbanga"}},{"country":"CM","name":"Mbandjok","admin1Code":"CM.11","latitude":4.45,"longitude":11.9,"translations":{"pt":"Mbandjok","it":"Mbandjok","ru":"Mbandjok","uk":"Mbandjok","de":"Mbandjok","es":"Mbandjok","en":"Mbandjok","fr":"Mbandjok"}},{"country":"CM","name":"Мбальмайо","admin1Code":"CM.11","latitude":3.51667,"longitude":11.5,"translations":{"pt":"Mbal'majo","it":"Mbal'majo","ru":"Мбальмайо","uk":"Мбальмайо","de":"Mbal'majo","es":"Mbal'majo","en":"Мбальмайо","fr":"Mbal'majo"}},{"country":"CM","name":"Маруа","admin1Code":"CM.12","latitude":10.59095,"longitude":14.31593,"translations":{"pt":"Marua","it":"Marua","ru":"Маруа","uk":"Маруа","de":"Marua","es":"Marua","en":"Маруа","fr":"Marua"}},{"country":"CM","name":"Manjo","admin1Code":"CM.05","latitude":4.8428,"longitude":9.8217,"translations":{"pt":"Manjo","it":"Manjo","ru":"Manjo","uk":"Manjo","de":"Manjo","es":"Manjo","en":"Manjo","fr":"Manjo"}},{"country":"CM","name":"Mamfe","admin1Code":"CM.09","latitude":5.75132,"longitude":9.3137,"translations":{"pt":"Mamfe","it":"Mamfe","ru":"Mamfe","uk":"Mamfe","de":"Mamfe","es":"Mamfe","en":"Mamfe","fr":"Mamfe"}},{"country":"CM","name":"Magba","admin1Code":"CM.08","latitude":5.95,"longitude":11.21667,"translations":{"pt":"Magba","it":"Magba","ru":"Magba","uk":"Magba","de":"Magba","es":"Magba","en":"Magba","fr":"Magba"}},{"country":"CM","name":"Maga","admin1Code":"CM.12","latitude":10.8434,"longitude":14.93962,"translations":{"pt":"Maga","it":"Maga","ru":"Maga","uk":"Maga","de":"Maga","es":"Maga","en":"Maga","fr":"Maga"}},{"country":"CM","name":"Лум","admin1Code":"CM.05","latitude":4.7182,"longitude":9.7351,"translations":{"pt":"Lum","it":"Lum","ru":"Лум","uk":"Лум","de":"Lum","es":"Lum","en":"Лум","fr":"Lum"}},{"country":"CM","name":"Lolodorf","admin1Code":"CM.14","latitude":3.23333,"longitude":10.73333,"translations":{"pt":"Lolodorf","it":"Lolodorf","ru":"Lolodorf","uk":"Lolodorf","de":"Lolodorf","es":"Lolodorf","en":"Lolodorf","fr":"Lolodorf"}},{"country":"CM","name":"Limbe","admin1Code":"CM.09","latitude":4.02356,"longitude":9.20607,"translations":{"pt":"Limbe","it":"Limbe","ru":"Лимбе","uk":"Limbe","de":"Limbe","es":"Limbe","en":"Limbe","fr":"Limbé"}},{"country":"CM","name":"Lagdo","admin1Code":"CM.13","latitude":9.05828,"longitude":13.66605,"translations":{"pt":"Lagdo","it":"Lagdo","ru":"Lagdo","uk":"Lagdo","de":"Lagdo","es":"Lagdo","en":"Lagdo","fr":"Lagdo"}},{"country":"CM","name":"Kumbo","admin1Code":"CM.07","latitude":6.2,"longitude":10.66667,"translations":{"pt":"Kumbo","it":"Kumbo","ru":"Kumbo","uk":"Kumbo","de":"Kumbo","es":"Kumbo","en":"Kumbo","fr":"Kumbo"}},{"country":"CM","name":"Кумбой","admin1Code":"CM.09","latitude":4.6363,"longitude":9.4469,"translations":{"pt":"Kumboj","it":"Kumboj","ru":"Кумбой","uk":"Кумбой","de":"Kumboj","es":"Kumboj","en":"Кумбой","fr":"Kumboj"}},{"country":"CM","name":"Криби","admin1Code":"CM.14","latitude":2.93725,"longitude":9.90765,"translations":{"pt":"Kryby","it":"Kryby","ru":"Криби","uk":"Криби","de":"Kryby","es":"Kryby","en":"Криби","fr":"Kryby"}},{"country":"CM","name":"Kousséri","admin1Code":"CM.12","latitude":12.07689,"longitude":15.03063,"translations":{"pt":"Kousseri","it":"Kousséri","ru":"Kousséri","uk":"Kousséri","de":"Kousséri","es":"Kousséri","en":"Kousséri","fr":"Kousséri"}},{"country":"CM","name":"Kekem","admin1Code":"CM.08","latitude":5.15689,"longitude":10.01996,"translations":{"pt":"Kekem","it":"Kekem","ru":"Kekem","uk":"Kekem","de":"Kekem","es":"Kekem","en":"Kekem","fr":"Kekem"}},{"country":"CM","name":"Kaélé","admin1Code":"CM.12","latitude":10.10917,"longitude":14.45083,"translations":{"pt":"Kaélé","it":"Kaélé","ru":"Kaélé","uk":"Kaélé","de":"Kaélé","es":"Kaélé","en":"Kaélé","fr":"Kaélé"}},{"country":"CM","name":"Guidiguis","admin1Code":"CM.12","latitude":10.13366,"longitude":14.70748,"translations":{"pt":"Guidiguis","it":"Guidiguis","ru":"Guidiguis","uk":"Guidiguis","de":"Guidiguis","es":"Guidiguis","en":"Guidiguis","fr":"Guidiguis"}},{"country":"CM","name":"Guider","admin1Code":"CM.13","latitude":9.9333,"longitude":13.94671,"translations":{"pt":"Guider","it":"Guider","ru":"Guider","uk":"Guider","de":"Guider","es":"Guider","en":"Guider","fr":"Guider"}},{"country":"CM","name":"Garoua boulaï","admin1Code":"CM.04","latitude":5.88333,"longitude":14.55,"translations":{"pt":"Garoua boulaï","it":"Garoua boulaï","ru":"Garoua boulaï","uk":"Garoua boulaï","de":"Garoua boulaï","es":"Garoua boulaï","en":"Garoua boulaï","fr":"Garoua boulaï"}},{"country":"CM","name":"Garoua","admin1Code":"CM.13","latitude":9.30143,"longitude":13.39771,"translations":{"pt":"Garoua","it":"Garoua","ru":"Гаруа","uk":"Garoua","de":"Garoua","es":"Garoua","en":"Garoua","fr":"Garoua"}},{"country":"CM","name":"Fundong","admin1Code":"CM.07","latitude":6.28,"longitude":10.283,"translations":{"pt":"Fundong","it":"Fundong","ru":"Fundong","uk":"Fundong","de":"Fundong","es":"Fundong","en":"Fundong","fr":"Fundong"}},{"country":"CM","name":"Foumbot","admin1Code":"CM.08","latitude":5.50803,"longitude":10.6325,"translations":{"pt":"Foumbot","it":"Foumbot","ru":"Foumbot","uk":"Foumbot","de":"Foumbot","es":"Foumbot","en":"Foumbot","fr":"Foumbot"}},{"country":"CM","name":"Foumban","admin1Code":"CM.08","latitude":5.72662,"longitude":10.89865,"translations":{"pt":"Foumban","it":"Foumban","ru":"Фумбан","uk":"Foumban","de":"Foumban","es":"Foumban","en":"Foumban","fr":"Foumban"}},{"country":"CM","name":"Fontem","admin1Code":"CM.09","latitude":5.4685,"longitude":9.8818,"translations":{"pt":"Fontem","it":"Fontem","ru":"Fontem","uk":"Fontem","de":"Fontem","es":"Fontem","en":"Fontem","fr":"Fontem"}},{"country":"CM","name":"Figuil","admin1Code":"CM.13","latitude":9.75574,"longitude":13.9647,"translations":{"pt":"Figuil","it":"Figuil","ru":"Figuil","uk":"Figuil","de":"Figuil","es":"Figuil","en":"Figuil","fr":"Figuil"}},{"country":"CM","name":"Eséka","admin1Code":"CM.11","latitude":3.65,"longitude":10.76667,"translations":{"pt":"Eséka","it":"Eséka","ru":"Eséka","uk":"Eséka","de":"Eséka","es":"Eséka","en":"Eséka","fr":"Eséka"}},{"country":"CM","name":"Ekondo titi","admin1Code":"CM.09","latitude":4.603,"longitude":9.0404,"translations":{"pt":"Ekondo titi","it":"Ekondo titi","ru":"Ekondo titi","uk":"Ekondo titi","de":"Ekondo titi","es":"Ekondo titi","en":"Ekondo titi","fr":"Ekondo titi"}},{"country":"CM","name":"Edéa","admin1Code":"CM.05","latitude":3.8,"longitude":10.13333,"translations":{"pt":"Edéa","it":"Édéa","ru":"Эдеа","uk":"Edéa","de":"Edéa","es":"Edéa","en":"Edéa","fr":"Édéa"}},{"country":"CM","name":"Ébolowa","admin1Code":"CM.14","latitude":2.9,"longitude":11.15,"translations":{"pt":"Ébolowa","it":"Ébolowa","ru":"Ébolowa","uk":"Ébolowa","de":"Ébolowa","es":"Ébolowa","en":"Ébolowa","fr":"Ébolowa"}},{"country":"CM","name":"Dschang","admin1Code":"CM.08","latitude":5.44397,"longitude":10.05332,"translations":{"pt":"Dschang","it":"Dschang","ru":"Джанг","uk":"Dschang","de":"Dschang","es":"Dschang","en":"Dschang","fr":"Dschang"}},{"country":"CM","name":"Douala","admin1Code":"CM.05","latitude":4.04827,"longitude":9.70428,"translations":{"pt":"Douala","it":"Douala","ru":"Дуала","uk":"Дуала","de":"Douala","es":"Duala","en":"Douala","fr":"Douala"}},{"country":"CM","name":"Dizangué","admin1Code":"CM.05","latitude":3.76667,"longitude":9.98333,"translations":{"pt":"Dizangué","it":"Dizangué","ru":"Dizangué","uk":"Dizangué","de":"Dizangué","es":"Dizangué","en":"Dizangué","fr":"Dizangué"}},{"country":"CM","name":"Buea","admin1Code":"CM.09","latitude":4.15342,"longitude":9.24231,"translations":{"pt":"Buéa","it":"Buéa","ru":"Буэа","uk":"Buea","de":"Buea","es":"Buea","en":"Buea","fr":"Buéa"}},{"country":"CM","name":"Bogo","admin1Code":"CM.12","latitude":10.7336,"longitude":14.60928,"translations":{"pt":"Bogo","it":"Bogo","ru":"Bogo","uk":"Bogo","de":"Bogo","es":"Bogo","en":"Bogo","fr":"Bogo"}},{"country":"CM","name":"Bertoua","admin1Code":"CM.04","latitude":4.57728,"longitude":13.68459,"translations":{"pt":"Bertoua","it":"Bertoua","ru":"Бертуа","uk":"Bertoua","de":"Bertoua","es":"Bertoua","en":"Bertoua","fr":"Bertoua"}},{"country":"CM","name":"Белабо","admin1Code":"CM.04","latitude":4.93333,"longitude":13.3,"translations":{"pt":"Belabo","it":"Belabo","ru":"Белабо","uk":"Белабо","de":"Belabo","es":"Belabo","en":"Белабо","fr":"Belabo"}},{"country":"CM","name":"Batouri","admin1Code":"CM.04","latitude":4.43333,"longitude":14.36667,"translations":{"pt":"Batouri","it":"Batouri","ru":"Batouri","uk":"Batouri","de":"Batouri","es":"Batouri","en":"Batouri","fr":"Batouri"}},{"country":"CM","name":"Banyo","admin1Code":"CM.10","latitude":6.75,"longitude":11.81667,"translations":{"pt":"Banyo","it":"Banyo","ru":"Banyo","uk":"Banyo","de":"Banyo","es":"Banyo","en":"Banyo","fr":"Banyo"}},{"country":"CM","name":"Bangangté","admin1Code":"CM.08","latitude":5.14079,"longitude":10.52535,"translations":{"pt":"Bangangté","it":"Bangangte","ru":"Bangangté","uk":"Bangangté","de":"Bangangté","es":"Bangangté","en":"Bangangté","fr":"Bangangté"}},{"country":"CM","name":"Bandjoun","admin1Code":"CM.08","latitude":5.37568,"longitude":10.41326,"translations":{"pt":"Bandjoun","it":"Bandjoun","ru":"Bandjoun","uk":"Bandjoun","de":"Bandjoun","es":"Bandjoun","en":"Bandjoun","fr":"Bandjoun"}},{"country":"CM","name":"Bamusso","admin1Code":"CM.09","latitude":4.4591,"longitude":8.9027,"translations":{"pt":"Bamusso","it":"Bamusso","ru":"Bamusso","uk":"Bamusso","de":"Bamusso","es":"Bamusso","en":"Bamusso","fr":"Bamusso"}},{"country":"CM","name":"Ndop","admin1Code":"CM.07","latitude":5.98843,"longitude":10.43859,"translations":{"pt":"Ndop","it":"Ndop","ru":"Ndop","uk":"Ndop","de":"Ndop","es":"Ndop","en":"Ndop","fr":"Ndop"}},{"country":"CM","name":"Bamenda","admin1Code":"CM.07","latitude":5.9597,"longitude":10.14597,"translations":{"pt":"Bamenda","it":"Bamenda","ru":"Баменды","uk":"Bamenda","de":"Bamenda","es":"Bamenda","en":"Bamenda","fr":"Bamenda"}},{"country":"CM","name":"Bali","admin1Code":"CM.07","latitude":5.88737,"longitude":10.01176,"translations":{"pt":"Bali","it":"Bali","ru":"Бали","uk":"Bali","de":"Bali","es":"Bali","en":"Bali","fr":"Bali"}},{"country":"CM","name":"Bafut","admin1Code":"CM.07","latitude":6.08333,"longitude":10.1,"translations":{"pt":"Bafut","it":"Bafut","ru":"Bafut","uk":"Bafut","de":"Bafut","es":"Bafut","en":"Bafut","fr":"Bafut"}},{"country":"CM","name":"Bafoussam","admin1Code":"CM.08","latitude":5.47775,"longitude":10.41759,"translations":{"pt":"Bafoussam","it":"Bafoussam","ru":"Бафуссама","uk":"Bafoussam","de":"Bafoussam","es":"Bafoussam","en":"Bafoussam","fr":"Bafoussam"}},{"country":"CM","name":"Bafia","admin1Code":"CM.11","latitude":4.75,"longitude":11.23333,"translations":{"pt":"Bafia","it":"Bafia","ru":"Bafia","uk":"Bafia","de":"Bafia","es":"Bafia","en":"Bafia","fr":"Bafia"}},{"country":"CM","name":"Bafang","admin1Code":"CM.08","latitude":5.15705,"longitude":10.1771,"translations":{"pt":"Bafang","it":"Bafang","ru":"Bafang","uk":"Bafang","de":"Bafang","es":"Bafang","en":"Bafang","fr":"Bafang"}},{"country":"CM","name":"Ambam","admin1Code":"CM.14","latitude":2.38333,"longitude":11.28333,"translations":{"pt":"Ambam","it":"Ambam","ru":"Ambam","uk":"Ambam","de":"Ambam","es":"Ambam","en":"Ambam","fr":"Ambam"}},{"country":"CM","name":"Akonolinga","admin1Code":"CM.11","latitude":3.76667,"longitude":12.25,"translations":{"pt":"Akonolinga","it":"Akonolinga","ru":"Akonolinga","uk":"Akonolinga","de":"Akonolinga","es":"Akonolinga","en":"Akonolinga","fr":"Akonolinga"}},{"country":"CM","name":"Abong mbang","admin1Code":"CM.04","latitude":3.98333,"longitude":13.18333,"translations":{"pt":"Abong mbang","it":"Abong mbang","ru":"Abong mbang","uk":"Abong mbang","de":"Abong mbang","es":"Abong mbang","en":"Abong mbang","fr":"Abong mbang"}},{"country":"CM","name":"Ngaoundal","admin1Code":"CM.10","latitude":6.5,"longitude":13.26667,"translations":{"pt":"Ngaoundal","it":"Ngaoundal","ru":"Ngaoundal","uk":"Ngaoundal","de":"Ngaoundal","es":"Ngaoundal","en":"Ngaoundal","fr":"Ngaoundal"}},{"country":"CM","name":"Blangwa","admin1Code":"CM.12","latitude":12.77515,"longitude":14.55328,"translations":{"pt":"Blangwa","it":"Blangwa","ru":"Blangwa","uk":"Blangwa","de":"Blangwa","es":"Blangwa","en":"Blangwa","fr":"Blangwa"}}]