[{"country":"AE","name":"Warisan","admin1Code":"AE.03","latitude":25.16744,"longitude":55.40708,"translations":{"pt":"Warisan","it":"Warisan","ru":"Warisan","uk":"Warisan","de":"Warisan","es":"Warisan","en":"Warisan","fr":"Warisan"}},{"country":"AE","name":"Umm suqeim","admin1Code":"AE.03","latitude":25.15491,"longitude":55.21015,"translations":{"pt":"Umm suqeim","it":"Umm suqeim","ru":"Umm suqeim","uk":"Umm suqeim","de":"Umm suqeim","es":"Umm suqeim","en":"Umm suqeim","fr":"Umm suqeim"}},{"country":"AE","name":"Umm al-quwain","admin1Code":"AE.07","latitude":25.56473,"longitude":55.55517,"translations":{"pt":"Umm al-quwain","it":"Umm al-quwain","ru":"Умм-эль-кайвайн","uk":"Umm al-quwain","de":"Umm al qaywayn","es":"Umm al-quwain","en":"Umm al-quwain","fr":"Oumm al qaïwaïn"}},{"country":"AE","name":"Ar rāshidīyah","admin1Code":"AE.03","latitude":25.22499,"longitude":55.38947,"translations":{"pt":"Ar rāshidīyah","it":"Ar rāshidīyah","ru":"Ar rāshidīyah","uk":"Ar rāshidīyah","de":"Ar rāshidīyah","es":"Ar rāshidīyah","en":"Ar rāshidīyah","fr":"Ar rāshidīyah"}},{"country":"AE","name":"Ras al-khaimah","admin1Code":"AE.05","latitude":25.78953,"longitude":55.9432,"translations":{"pt":"Ras al-khaimah","it":"Ras al-khaimah","ru":"Рас-эль-хайма","uk":"Ras al-khaimah","de":"Ra’s al-chaima","es":"Ras al-khaimah","en":"Ras al-khaimah","fr":"Ras el khaïmah"}},{"country":"AE","name":"Zayed city","admin1Code":"AE.01","latitude":23.65416,"longitude":53.70522,"translations":{"pt":"Zayed city","it":"Zayed city","ru":"Zayed city","uk":"Zayed city","de":"Madīnat zāyid","es":"Zayed city","en":"Zayed city","fr":"Zayed city"}},{"country":"AE","name":"Khor'fakkan","admin1Code":"AE.06","latitude":25.33132,"longitude":56.34199,"translations":{"pt":"Khor'fakkan","it":"Khor'fakkan","ru":"Хор-факкан","uk":"Khor'fakkan","de":"Khor'fakkan","es":"Khor'fakkan","en":"Khor'fakkan","fr":"Khor'fakkan"}},{"country":"AE","name":"Kalbā","admin1Code":"AE.06","latitude":25.0513,"longitude":56.35422,"translations":{"pt":"Kalbā","it":"Kalbā","ru":"Kalbā","uk":"Kalbā","de":"Kalbā","es":"Kalbā","en":"Kalbā","fr":"Kalbā"}},{"country":"AE","name":"Jumayrā","admin1Code":"AE.03","latitude":25.20795,"longitude":55.24969,"translations":{"pt":"Jumayrā","it":"Jumayrā","ru":"Jumayrā","uk":"Jumayrā","de":"Jumayrā","es":"Jumayrā","en":"Jumayrā","fr":"Jumayrā"}},{"country":"AE","name":"Dubai","admin1Code":"AE.03","latitude":25.07725,"longitude":55.30927,"translations":{"pt":"Dubai","it":"Dubai","ru":"Дубай","uk":"Дубай","de":"Dubai","es":"Dubái","en":"Dubai","fr":"Dubaï"}},{"country":"AE","name":"Dibba al-fujairah","admin1Code":"AE.04","latitude":25.59246,"longitude":56.26176,"translations":{"pt":"Dibba al-fujairah","it":"Dibba al-fujairah","ru":"Dibba al-fujairah","uk":"Dibba al-fujairah","de":"Dibba al-fujairah","es":"Dibba al-fujairah","en":"Dibba al-fujairah","fr":"Dibba al-fujairah"}},{"country":"AE","name":"Dibba al-hisn","admin1Code":"AE.04","latitude":25.61955,"longitude":56.27291,"translations":{"pt":"Dibba al-hisn","it":"Dibba al-hisn","ru":"Дибба аль-хисн","uk":"Dibba al-hisn","de":"Dibba al-hisn","es":"Dibba al-hisn","en":"Dibba al-hisn","fr":"Dibba al-hisn"}},{"country":"AE","name":"Deira","admin1Code":"AE.03","latitude":25.27143,"longitude":55.30207,"translations":{"pt":"Deira","it":"Deira","ru":"Deira","uk":"Deira","de":"Deira","es":"Deira","en":"Deira","fr":"Deira"}},{"country":"AE","name":"Sharjah city","admin1Code":"AE.06","latitude":25.33737,"longitude":55.41206,"translations":{"pt":"Sharjah city","it":"Sharja","ru":"Шарджа","uk":"Шарджа","de":"Schardscha","es":"Sarja","en":"Sharjah city","fr":"Charjah"}},{"country":"AE","name":"Ruwais","admin1Code":"AE.01","latitude":24.11028,"longitude":52.73056,"translations":{"pt":"Ruwais","it":"Ruwais","ru":"Ар-руваис","uk":"Ruwais","de":"Ruwais","es":"Ruwais","en":"Ruwais","fr":"Ruwais"}},{"country":"AE","name":"Hatta","admin1Code":"AE.03","latitude":24.80073,"longitude":56.12726,"translations":{"pt":"Hatta","it":"Hatta","ru":"Hatta","uk":"Hatta","de":"Hatta","es":"Hatta","en":"Hatta","fr":"Hatta"}},{"country":"AE","name":"Fujairah","admin1Code":"AE.04","latitude":25.11641,"longitude":56.34141,"translations":{"pt":"Fujairah","it":"Fujairah","ru":"Фуджейра","uk":"Fujairah","de":"Fudschaira","es":"Fujairah","en":"Fujairah","fr":"Fujairah"}},{"country":"AE","name":"Al ain","admin1Code":"AE.01","latitude":24.19167,"longitude":55.76056,"translations":{"pt":"Al ain","it":"Al-ayn","ru":"Эль-айн","uk":"Al ain","de":"Al-ain","es":"Al ain","en":"Al ain","fr":"Al-aïn"}},{"country":"AE","name":"Ajman","admin1Code":"AE.02","latitude":25.40177,"longitude":55.47878,"translations":{"pt":"Ajman","it":"Ajman","ru":"Ajman","uk":"Ajman","de":"Ajman","es":"Ajman","en":"Ajman","fr":"Ajman"}},{"country":"AE","name":"Dhaid","admin1Code":"AE.06","latitude":25.28812,"longitude":55.88157,"translations":{"pt":"Dhaid","it":"Dhaid","ru":"Эд-дайд","uk":"Dhaid","de":"Dhaid","es":"Adh dhaid","en":"Dhaid","fr":"Dhaid"}},{"country":"AE","name":"Abu dhabi","admin1Code":"AE.01","latitude":24.45118,"longitude":54.39696,"translations":{"pt":"Abu dabi","it":"Abu dhabi","ru":"Абу-даби","uk":"Абу-дабі","de":"Abu dhabi","es":"Abu dabi","en":"Abu dhabi","fr":"Abou dabi"}},{"country":"AE","name":"Abū hayl","admin1Code":"AE.03","latitude":25.28413,"longitude":55.33153,"translations":{"pt":"Abū hayl","it":"Abū hayl","ru":"Abū hayl","uk":"Abū hayl","de":"Abū hayl","es":"Abū hayl","en":"Abū hayl","fr":"Abū hayl"}},{"country":"AE","name":"As saţwah","admin1Code":"AE.03","latitude":25.22192,"longitude":55.27459,"translations":{"pt":"As saţwah","it":"As saţwah","ru":"As saţwah","uk":"As saţwah","de":"As saţwah","es":"As saţwah","en":"As saţwah","fr":"As saţwah"}},{"country":"AE","name":"Al ḩamīdīyah","admin1Code":"AE.02","latitude":25.40001,"longitude":55.52925,"translations":{"pt":"Al ḩamīdīyah","it":"Al ḩamīdīyah","ru":"Al ḩamīdīyah","uk":"Al ḩamīdīyah","de":"Al ḩamīdīyah","es":"Al ḩamīdīyah","en":"Al ḩamīdīyah","fr":"Al ḩamīdīyah"}},{"country":"AE","name":"Al waheda","admin1Code":"AE.03","latitude":25.29173,"longitude":55.33822,"translations":{"pt":"Al waheda","it":"Al waheda","ru":"Al waheda","uk":"Al waheda","de":"Al waheda","es":"Al waheda","en":"Al waheda","fr":"Al waheda"}},{"country":"AE","name":"Al karama","admin1Code":"AE.03","latitude":25.24004,"longitude":55.30106,"translations":{"pt":"Al karama","it":"Al karama","ru":"Al karama","uk":"Al karama","de":"Al karama","es":"Al karama","en":"Al karama","fr":"Al karama"}},{"country":"AE","name":"Palm jumeirah","admin1Code":"AE.03","latitude":25.11607,"longitude":55.13506,"translations":{"pt":"Palm jumeirah","it":"Palm jumeirah","ru":"Palm jumeirah","uk":"Palm jumeirah","de":"Palm jumeirah","es":"Palm jumeirah","en":"Palm jumeirah","fr":"Palm jumeirah"}},{"country":"AE","name":"Bur dubai","admin1Code":"AE.03","latitude":25.26038,"longitude":55.29891,"translations":{"pt":"Bur dubai","it":"Bur dubai","ru":"Bur dubai","uk":"Bur dubai","de":"Bur dubai","es":"Bur dubai","en":"Bur dubai","fr":"Bur dubai"}},{"country":"AE","name":"Khalifah a city","admin1Code":"AE.01","latitude":24.42588,"longitude":54.605,"translations":{"pt":"Khalifah a city","it":"Khalifah a city","ru":"Khalifah a city","uk":"Khalifah a city","de":"Khalifah a city","es":"Khalifah a city","en":"Khalifah a city","fr":"Khalifah a city"}},{"country":"AE","name":"Mirdif","admin1Code":"AE.03","latitude":25.22443,"longitude":55.41412,"translations":{"pt":"Mirdif","it":"Mirdif","ru":"Mirdif","uk":"Mirdif","de":"Mirdif","es":"Mirdif","en":"Mirdif","fr":"Mirdif"}},{"country":"AE","name":"Hawr al ‘anz","admin1Code":"AE.03","latitude":25.27744,"longitude":55.33675,"translations":{"pt":"Hawr al ‘anz","it":"Hawr al ‘anz","ru":"Hawr al ‘anz","uk":"Hawr al ‘anz","de":"Hawr al ‘anz","es":"Hawr al ‘anz","en":"Hawr al ‘anz","fr":"Hawr al ‘anz"}},{"country":"AE","name":"Al mankhool","admin1Code":"AE.03","latitude":25.24612,"longitude":55.29222,"translations":{"pt":"Al mankhool","it":"Al mankhool","ru":"Al mankhool","uk":"Al mankhool","de":"Al mankhool","es":"Al mankhool","en":"Al mankhool","fr":"Al mankhool"}},{"country":"AE","name":"Nāyf","admin1Code":"AE.03","latitude":25.27139,"longitude":55.30323,"translations":{"pt":"Nāyf","it":"Nāyf","ru":"Nāyf","uk":"Nāyf","de":"Nāyf","es":"Nāyf","en":"Nāyf","fr":"Nāyf"}},{"country":"AE","name":"Al murar al qadīm","admin1Code":"AE.03","latitude":25.27576,"longitude":55.30738,"translations":{"pt":"Al murar al qadīm","it":"Al murar al qadīm","ru":"Al murar al qadīm","uk":"Al murar al qadīm","de":"Al murar al qadīm","es":"Al murar al qadīm","en":"Al murar al qadīm","fr":"Al murar al qadīm"}},{"country":"AE","name":"Al warqaa","admin1Code":"AE.03","latitude":25.19272,"longitude":55.42013,"translations":{"pt":"Al warqaa","it":"Al warqaa","ru":"Al warqaa","uk":"Al warqaa","de":"Al warqaa","es":"Al warqaa","en":"Al warqaa","fr":"Al warqaa"}},{"country":"AE","name":"Dubai international city","admin1Code":"AE.03","latitude":25.16383,"longitude":55.40987,"translations":{"pt":"Dubai international city","it":"Dubai international city","ru":"Dubai international city","uk":"Dubai international city","de":"Dubai international city","es":"Dubai international city","en":"Dubai international city","fr":"Dubai international city"}},{"country":"AE","name":"Marina de dubái","admin1Code":"AE.03","latitude":25.08525,"longitude":55.14646,"translations":{"pt":"Marina de dubái","it":"Marina de dubái","ru":"Дубай марина","uk":"Marina de dubái","de":"Marina de dubái","es":"Marina de dubái","en":"Marina de dubái","fr":"Dubaï marina"}},{"country":"AE","name":"Dubai internet city","admin1Code":"AE.03","latitude":25.09538,"longitude":55.16171,"translations":{"pt":"Dubai internet city","it":"Dubai internet city","ru":"Dubai internet city","uk":"Dubai internet city","de":"Dubai internet city","es":"Dubai internet city","en":"Dubai internet city","fr":"Dubai internet city"}},{"country":"AE","name":"Al safa","admin1Code":"AE.03","latitude":25.17047,"longitude":55.23336,"translations":{"pt":"Al safa","it":"Al safa","ru":"Al safa","uk":"Al safa","de":"Al safa","es":"Al safa","en":"Al safa","fr":"Al safa"}},{"country":"AE","name":"Ar rumaylah","admin1Code":"AE.02","latitude":25.40338,"longitude":55.4334,"translations":{"pt":"Ar rumaylah","it":"Ar rumaylah","ru":"Ar rumaylah","uk":"Ar rumaylah","de":"Ar rumaylah","es":"Ar rumaylah","en":"Ar rumaylah","fr":"Ar rumaylah"}},{"country":"AE","name":"Al jurf","admin1Code":"AE.02","latitude":25.41814,"longitude":55.50791,"translations":{"pt":"Al jurf","it":"Al jurf","ru":"Al jurf","uk":"Al jurf","de":"Al jurf","es":"Al jurf","en":"Al jurf","fr":"Al jurf"}},{"country":"AE","name":"Al majaz","admin1Code":"AE.06","latitude":25.32354,"longitude":55.38774,"translations":{"pt":"Al majaz","it":"Al majaz","ru":"Al majaz","uk":"Al majaz","de":"Al majaz","es":"Al majaz","en":"Al majaz","fr":"Al majaz"}},{"country":"AE","name":"Dubai festival city","admin1Code":"AE.03","latitude":25.22177,"longitude":55.35733,"translations":{"pt":"Dubai festival city","it":"Dubai festival city","ru":"Dubai festival city","uk":"Dubai festival city","de":"Dubai festival city","es":"Dubai festival city","en":"Dubai festival city","fr":"Dubai festival city"}},{"country":"AE","name":"Dubai international financial centre","admin1Code":"AE.03","latitude":25.2106,"longitude":55.27787,"translations":{"pt":"Dubai international financial centre","it":"Dubai international financial centre","ru":"Dubai international financial centre","uk":"Dubai international financial centre","de":"Dubai international financial centre","es":"Dubai international financial centre","en":"Dubai international financial centre","fr":"Dubai international financial centre"}},{"country":"AE","name":"Dubai investments park","admin1Code":"AE.03","latitude":25.00827,"longitude":55.15682,"translations":{"pt":"Dubai investments park","it":"Dubai investments park","ru":"Dubai investments park","uk":"Dubai investments park","de":"Dubai investments park","es":"Dubai investments park","en":"Dubai investments park","fr":"Dubai investments park"}},{"country":"AE","name":"Jebel ali","admin1Code":"AE.03","latitude":25.00255,"longitude":55.10811,"translations":{"pt":"Jebel ali","it":"Jebel ali","ru":"Jebel ali","uk":"Jebel ali","de":"Jebel ali","es":"Jebel ali","en":"Jebel ali","fr":"Jebel ali"}},{"country":"AE","name":"Bani yas city","admin1Code":"AE.01","latitude":24.30978,"longitude":54.62944,"translations":{"pt":"Bani yas city","it":"Bani yas city","ru":"Bani yas city","uk":"Bani yas city","de":"Bani yas city","es":"Bani yas city","en":"Bani yas city","fr":"Bani yas city"}},{"country":"AE","name":"Musaffah city","admin1Code":"AE.01","latitude":24.35893,"longitude":54.48267,"translations":{"pt":"Musaffah city","it":"Musaffah city","ru":"Мусаффа","uk":"Musaffah city","de":"Musaffah city","es":"Musaffah city","en":"Musaffah city","fr":"Musaffah city"}},{"country":"AE","name":"Al shamkhah city","admin1Code":"AE.01","latitude":24.39268,"longitude":54.70779,"translations":{"pt":"Al shamkhah city","it":"Al shamkhah city","ru":"Al shamkhah city","uk":"Al shamkhah city","de":"Al shamkhah city","es":"Al shamkhah city","en":"Al shamkhah city","fr":"Al shamkhah city"}},{"country":"AE","name":"Reef al fujairah city","admin1Code":"AE.04","latitude":25.14479,"longitude":56.24764,"translations":{"pt":"Reef al fujairah city","it":"Reef al fujairah city","ru":"Reef al fujairah city","uk":"Reef al fujairah city","de":"Reef al fujairah city","es":"Reef al fujairah city","en":"Reef al fujairah city","fr":"Reef al fujairah city"}},{"country":"AE","name":"Al bada'a","admin1Code":"AE.03","latitude":25.22462,"longitude":55.26888,"translations":{"pt":"Al bada'a","it":"Al bada'a","ru":"Al bada'a","uk":"Al bada'a","de":"Al bada'a","es":"Al bada'a","en":"Al bada'a","fr":"Al bada'a"}},{"country":"AE","name":"Muteena","admin1Code":"AE.03","latitude":25.27375,"longitude":55.32265,"translations":{"pt":"Muteena","it":"Muteena","ru":"Muteena","uk":"Muteena","de":"Muteena","es":"Muteena","en":"Muteena","fr":"Muteena"}},{"country":"AE","name":"Al mizhar first","admin1Code":"AE.03","latitude":25.24805,"longitude":55.44128,"translations":{"pt":"Al mizhar first","it":"Al mizhar first","ru":"Al mizhar first","uk":"Al mizhar first","de":"Al mizhar first","es":"Al mizhar first","en":"Al mizhar first","fr":"Al mizhar first"}},{"country":"AE","name":"Silicon oasis","admin1Code":"AE.03","latitude":25.11985,"longitude":55.38718,"translations":{"pt":"Silicon oasis","it":"Silicon oasis","ru":"Silicon oasis","uk":"Silicon oasis","de":"Silicon oasis","es":"Silicon oasis","en":"Silicon oasis","fr":"Silicon oasis"}},{"country":"AE","name":"Al furjan","admin1Code":"AE.03","latitude":25.02651,"longitude":55.14565,"translations":{"pt":"Al furjan","it":"Al furjan","ru":"Al furjan","uk":"Al furjan","de":"Al furjan","es":"Al furjan","en":"Al furjan","fr":"Al furjan"}},{"country":"AE","name":"Business bay","admin1Code":"AE.03","latitude":25.18544,"longitude":55.26969,"translations":{"pt":"Business bay","it":"Business bay","ru":"Business bay","uk":"Business bay","de":"Business bay","es":"Business bay","en":"Business bay","fr":"Business bay"}},{"country":"AE","name":"Al qusais first","admin1Code":"AE.03","latitude":25.27925,"longitude":55.36995,"translations":{"pt":"Al qusais first","it":"Al qusais first","ru":"Al qusais first","uk":"Al qusais first","de":"Al qusais first","es":"Al qusais first","en":"Al qusais first","fr":"Al qusais first"}},{"country":"AE","name":"Halwan","admin1Code":"AE.06","latitude":25.34586,"longitude":55.42165,"translations":{"pt":"Halwan","it":"Halwan","ru":"Halwan","uk":"Halwan","de":"Halwan","es":"Halwan","en":"Halwan","fr":"Halwan"}},{"country":"AE","name":"Al sajaah","admin1Code":"AE.06","latitude":25.31532,"longitude":55.63211,"translations":{"pt":"Al sajaah","it":"Al sajaah","ru":"Al sajaah","uk":"Al sajaah","de":"Al sajaah","es":"Al sajaah","en":"Al sajaah","fr":"Al sajaah"}},{"country":"AE","name":"Lahbab","admin1Code":"AE.03","latitude":25.03763,"longitude":55.59135,"translations":{"pt":"Lahbab","it":"Lahbab","ru":"Lahbab","uk":"Lahbab","de":"Lahbab","es":"Lahbab","en":"Lahbab","fr":"Lahbab"}},{"country":"AE","name":"Mohammed bin zayed city","admin1Code":"AE.01","latitude":24.34794,"longitude":54.55368,"translations":{"pt":"Mohammed bin zayed city","it":"Mohammed bin zayed city","ru":"Mohammed bin zayed city","uk":"Mohammed bin zayed city","de":"Mohammed bin zayed city","es":"Mohammed bin zayed city","en":"Mohammed bin zayed city","fr":"Mohammed bin zayed city"}}]