[{"country":"AO","name":"Saurimo","admin1Code":"AO.18","latitude":-9.66078,"longitude":20.39155,"translations":{"pt":"Saurimo","it":"Saurimo","ru":"Сауримо","uk":"Saurimo","de":"Saurimo","es":"Saurimo","en":"Saurimo","fr":"Saurimo"}},{"country":"AO","name":"Lucapa","admin1Code":"AO.17","latitude":-8.41915,"longitude":20.74466,"translations":{"pt":"Lucapa","it":"Lucapa","ru":"Лукапа","uk":"Lucapa","de":"Lucapa","es":"Lucapa","en":"Lucapa","fr":"Lucapa"}},{"country":"AO","name":"Дунду","admin1Code":"AO.17","latitude":-7.36643,"longitude":20.81557,"translations":{"pt":"Dundu","it":"Dundu","ru":"Дунду","uk":"Дунду","de":"Dundu","es":"Dundu","en":"Дунду","fr":"Dundu"}},{"country":"AO","name":"Chitato","admin1Code":"AO.17","latitude":-7.3,"longitude":20.73333,"translations":{"pt":"Chitato","it":"Chitato","ru":"Chitato","uk":"Chitato","de":"Chitato","es":"Chitato","en":"Chitato","fr":"Chitato"}},{"country":"AO","name":"Cassanguidi","admin1Code":"AO.17","latitude":-7.48367,"longitude":21.30339,"translations":{"pt":"Cassanguidi","it":"Cassanguidi","ru":"Cassanguidi","uk":"Cassanguidi","de":"Cassanguidi","es":"Cassanguidi","en":"Cassanguidi","fr":"Cassanguidi"}},{"country":"AO","name":"Lumbala","admin1Code":"AO.14","latitude":-14.10165,"longitude":21.43531,"translations":{"pt":"Lumbala","it":"Lumbala","ru":"Lumbala","uk":"Lumbala","de":"Lumbala","es":"Lumbala","en":"Lumbala","fr":"Lumbala"}},{"country":"AO","name":"Луау","admin1Code":"AO.14","latitude":-10.70727,"longitude":22.22466,"translations":{"pt":"Luau","it":"Luau","ru":"Луау","uk":"Луау","de":"Luau","es":"Luau","en":"Луау","fr":"Luau"}},{"country":"AO","name":"Казомбо","admin1Code":"AO.14","latitude":-11.89355,"longitude":22.9024,"translations":{"pt":"Kazombo","it":"Kazombo","ru":"Казомбо","uk":"Казомбо","de":"Kazombo","es":"Kazombo","en":"Казомбо","fr":"Kazombo"}},{"country":"AO","name":"Nzagi","admin1Code":"AO.05","latitude":-8.38549,"longitude":15.30126,"translations":{"pt":"Nzagi","it":"Nzagi","ru":"Nzagi","uk":"Nzagi","de":"Nzagi","es":"Nzagi","en":"Nzagi","fr":"Nzagi"}},{"country":"AO","name":"Uíge","admin1Code":"AO.15","latitude":-7.60874,"longitude":15.06131,"translations":{"pt":"Uíge","it":"Uíge","ru":"Уиже","uk":"Uíge","de":"Uíge","es":"Uíge","en":"Uíge","fr":"Uíge"}},{"country":"AO","name":"Tombôco","admin1Code":"AO.16","latitude":-6.80517,"longitude":13.33017,"translations":{"pt":"Tombôco","it":"Tombôco","ru":"Tombôco","uk":"Tombôco","de":"Tombôco","es":"Tombôco","en":"Tombôco","fr":"Tombôco"}},{"country":"AO","name":"Soyo","admin1Code":"AO.16","latitude":-6.1349,"longitude":12.36894,"translations":{"pt":"Soyo","it":"Soyo","ru":"Сойо","uk":"Soyo","de":"Soyo","es":"Soyo","en":"Soyo","fr":"Soyo"}},{"country":"AO","name":"Songo","admin1Code":"AO.15","latitude":-7.35207,"longitude":14.84629,"translations":{"pt":"Songo","it":"Songo","ru":"Songo","uk":"Songo","de":"Songo","es":"Songo","en":"Songo","fr":"Songo"}},{"country":"AO","name":"Sanza pombo","admin1Code":"AO.15","latitude":-7.31473,"longitude":16.0024,"translations":{"pt":"Sanza pombo","it":"Sanza pombo","ru":"Sanza pombo","uk":"Sanza pombo","de":"Sanza pombo","es":"Sanza pombo","en":"Sanza pombo","fr":"Sanza pombo"}},{"country":"AO","name":"Ambrizette","admin1Code":"AO.16","latitude":-7.23116,"longitude":12.8666,"translations":{"pt":"Ambrizette","it":"Ambrizette","ru":"Нзето","uk":"Ambrizette","de":"Ambrizette","es":"Ambrizette","en":"Ambrizette","fr":"Ambrizette"}},{"country":"AO","name":"Негаге","admin1Code":"AO.15","latitude":-7.75938,"longitude":15.2722,"translations":{"pt":"Nehahe","it":"Nehahe","ru":"Негаге","uk":"Негаге","de":"Nehahe","es":"Nehahe","en":"Негаге","fr":"Nehahe"}},{"country":"AO","name":"N'dalatando","admin1Code":"AO.05","latitude":-9.29782,"longitude":14.91162,"translations":{"pt":"N'dalatando","it":"N'dalatando","ru":"N'dalatando","uk":"N'dalatando","de":"N'dalatando","es":"N'dalatando","en":"N'dalatando","fr":"N'dalatando"}},{"country":"AO","name":"Муссенде","admin1Code":"AO.06","latitude":-9.95,"longitude":14.8,"translations":{"pt":"Mussende","it":"Mussende","ru":"Муссенде","uk":"Муссенде","de":"Mussende","es":"Mussende","en":"Муссенде","fr":"Mussende"}},{"country":"AO","name":"Mbanza kongo","admin1Code":"AO.16","latitude":-6.26667,"longitude":14.23833,"translations":{"pt":"Mbanza kongo","it":"Mbanza kongo","ru":"Mbanza kongo","uk":"Mbanza kongo","de":"Mbanza kongo","es":"Mbanza kongo","en":"Mbanza kongo","fr":"Mbanza kongo"}},{"country":"AO","name":"Maquela do zombo","admin1Code":"AO.15","latitude":-6.05716,"longitude":15.10971,"translations":{"pt":"Maquela do zombo","it":"Maquela do zombo","ru":"Maquela do zombo","uk":"Maquela do zombo","de":"Maquela do zombo","es":"Maquela do zombo","en":"Maquela do zombo","fr":"Maquela do zombo"}},{"country":"AO","name":"Маланже","admin1Code":"AO.12","latitude":-9.54015,"longitude":16.34096,"translations":{"pt":"Malanzhe","it":"Malanzhe","ru":"Маланже","uk":"Маланже","de":"Malanzhe","es":"Malanzhe","en":"Маланже","fr":"Malanzhe"}},{"country":"AO","name":"Lucala","admin1Code":"AO.05","latitude":-9.27268,"longitude":15.25206,"translations":{"pt":"Lucala","it":"Lucala","ru":"Lucala","uk":"Lucala","de":"Lucala","es":"Lucala","en":"Lucala","fr":"Lucala"}},{"country":"AO","name":"Lubalo","admin1Code":"AO.17","latitude":-9.15445,"longitude":19.28136,"translations":{"pt":"Lubalo","it":"Lubalo","ru":"Lubalo","uk":"Lubalo","de":"Lubalo","es":"Lubalo","en":"Lubalo","fr":"Lubalo"}},{"country":"AO","name":"Luanda","admin1Code":"AO.20","latitude":-8.83682,"longitude":13.23432,"translations":{"pt":"Luanda","it":"Luanda","ru":"Луанда","uk":"Луанда","de":"Luanda","es":"Luanda","en":"Luanda","fr":"Luanda"}},{"country":"AO","name":"Cunda diá baze","admin1Code":"AO.12","latitude":-8.90769,"longitude":17.05339,"translations":{"pt":"Cunda diá baze","it":"Cunda diá baze","ru":"Cunda diá baze","uk":"Cunda diá baze","de":"Cunda diá baze","es":"Cunda diá baze","en":"Cunda diá baze","fr":"Cunda diá baze"}},{"country":"AO","name":"Голунгу альту","admin1Code":"AO.05","latitude":-9.13333,"longitude":14.76667,"translations":{"pt":"Holunhu al'tu","it":"Holunhu al'tu","ru":"Голунгу альту","uk":"Голунгу альту","de":"Holunhu al'tu","es":"Holunhu al'tu","en":"Голунгу альту","fr":"Holunhu al'tu"}},{"country":"AO","name":"Dondo","admin1Code":"AO.05","latitude":-9.68456,"longitude":14.42788,"translations":{"pt":"Dondo","it":"Dondo","ru":"Dondo","uk":"Dondo","de":"Dondo","es":"Dondo","en":"Dondo","fr":"Dondo"}},{"country":"AO","name":"Dondo","admin1Code":"AO.05","latitude":-9.05,"longitude":15.31667,"translations":{"pt":"Dondo","it":"Dondo","ru":"Dondo","uk":"Dondo","de":"Dondo","es":"Dondo","en":"Dondo","fr":"Dondo"}},{"country":"AO","name":"Куимба","admin1Code":"AO.16","latitude":-6.12085,"longitude":14.62086,"translations":{"pt":"Kuymba","it":"Kuymba","ru":"Куимба","uk":"Куимба","de":"Kuymba","es":"Kuymba","en":"Куимба","fr":"Kuymba"}},{"country":"AO","name":"Cuilo","admin1Code":"AO.17","latitude":-8.23619,"longitude":19.52566,"translations":{"pt":"Cuilo","it":"Cuilo","ru":"Cuilo","uk":"Cuilo","de":"Cuilo","es":"Cuilo","en":"Cuilo","fr":"Cuilo"}},{"country":"AO","name":"Cuango","admin1Code":"AO.17","latitude":-9.14583,"longitude":18.04453,"translations":{"pt":"Cuango","it":"Cuango","ru":"Cuango","uk":"Cuango","de":"Cuango","es":"Cuango","en":"Cuango","fr":"Cuango"}},{"country":"AO","name":"Казомбо","admin1Code":"AO.05","latitude":-8.73204,"longitude":15.37124,"translations":{"pt":"Kazombo","it":"Kazombo","ru":"Казомбо","uk":"Казомбо","de":"Kazombo","es":"Kazombo","en":"Казомбо","fr":"Kazombo"}},{"country":"AO","name":"Кашито","admin1Code":"AO.19","latitude":-8.57848,"longitude":13.66425,"translations":{"pt":"Kashyto","it":"Kashyto","ru":"Кашито","uk":"Кашито","de":"Kashyto","es":"Kashyto","en":"Кашито","fr":"Kashyto"}},{"country":"AO","name":"Кангандала","admin1Code":"AO.12","latitude":-9.78333,"longitude":16.43333,"translations":{"pt":"Kanhandala","it":"Kanhandala","ru":"Кангандала","uk":"Кангандала","de":"Kanhandala","es":"Kanhandala","en":"Кангандала","fr":"Kanhandala"}},{"country":"AO","name":"Камабатела","admin1Code":"AO.05","latitude":-8.18812,"longitude":15.37495,"translations":{"pt":"Kamabatela","it":"Kamabatela","ru":"Камабатела","uk":"Камабатела","de":"Kamabatela","es":"Kamabatela","en":"Камабатела","fr":"Kamabatela"}},{"country":"AO","name":"Какузу","admin1Code":"AO.12","latitude":-9.42102,"longitude":15.74668,"translations":{"pt":"Kakuzu","it":"Kakuzu","ru":"Какузу","uk":"Какузу","de":"Kakuzu","es":"Kakuzu","en":"Какузу","fr":"Kakuzu"}},{"country":"AO","name":"Кабинда","admin1Code":"AO.03","latitude":-5.56717,"longitude":12.19787,"translations":{"pt":"Kabynda","it":"Kabynda","ru":"Кабинда","uk":"Кабинда","de":"Kabynda","es":"Kabynda","en":"Кабинда","fr":"Kabynda"}},{"country":"AO","name":"Buco zau","admin1Code":"AO.03","latitude":-4.76667,"longitude":12.55,"translations":{"pt":"Buco zau","it":"Buco zau","ru":"Buco zau","uk":"Buco zau","de":"Buco zau","es":"Buco zau","en":"Buco zau","fr":"Buco zau"}},{"country":"AO","name":"Belize","admin1Code":"AO.03","latitude":-4.65,"longitude":12.76667,"translations":{"pt":"Belize","it":"Belize","ru":"Belize","uk":"Belize","de":"Belize","es":"Belize","en":"Belize","fr":"Belize"}},{"country":"AO","name":"Barra do dande","admin1Code":"AO.19","latitude":-8.47175,"longitude":13.37011,"translations":{"pt":"Barra do dande","it":"Barra do dande","ru":"Barra do dande","uk":"Barra do dande","de":"Barra do dande","es":"Barra do dande","en":"Barra do dande","fr":"Barra do dande"}},{"country":"AO","name":"Байлунду","admin1Code":"AO.12","latitude":-9.57499,"longitude":15.99442,"translations":{"pt":"Bajlundu","it":"Bajlundu","ru":"Байлунду","uk":"Байлунду","de":"Bajlundu","es":"Bajlundu","en":"Байлунду","fr":"Bajlundu"}},{"country":"AO","name":"Gama","admin1Code":"AO.19","latitude":-8.5675,"longitude":13.47639,"translations":{"pt":"Gama","it":"Gama","ru":"Gama","uk":"Gama","de":"Gama","es":"Gama","en":"Gama","fr":"Gama"}},{"country":"AO","name":"Ксангонго","admin1Code":"AO.07","latitude":-16.7444,"longitude":14.97494,"translations":{"pt":"Ksanhonho","it":"Ksanhonho","ru":"Ксангонго","uk":"Ксангонго","de":"Ksanhonho","es":"Ksanhonho","en":"Ксангонго","fr":"Ksanhonho"}},{"country":"AO","name":"Alto hama","admin1Code":"AO.08","latitude":-12.23333,"longitude":15.55,"translations":{"pt":"Alto hama","it":"Alto hama","ru":"Alto hama","uk":"Alto hama","de":"Alto hama","es":"Alto hama","en":"Alto hama","fr":"Alto hama"}},{"country":"AO","name":"Virei","admin1Code":"AO.13","latitude":-15.727,"longitude":12.94961,"translations":{"pt":"Virei","it":"Virei","ru":"Virei","uk":"Virei","de":"Virei","es":"Virei","en":"Virei","fr":"Virei"}},{"country":"AO","name":"Укума","admin1Code":"AO.08","latitude":-12.96121,"longitude":15.05958,"translations":{"pt":"Ukuma","it":"Ukuma","ru":"Укума","uk":"Укума","de":"Ukuma","es":"Ukuma","en":"Укума","fr":"Ukuma"}},{"country":"AO","name":"Уку","admin1Code":"AO.06","latitude":-11.41237,"longitude":14.30663,"translations":{"pt":"Uku","it":"Uku","ru":"Уку","uk":"Уку","de":"Uku","es":"Uku","en":"Уку","fr":"Uku"}},{"country":"AO","name":"Томбуа","admin1Code":"AO.13","latitude":-15.80394,"longitude":11.84485,"translations":{"pt":"Tombua","it":"Tombua","ru":"Томбуа","uk":"Томбуа","de":"Tombua","es":"Tombua","en":"Томбуа","fr":"Tombua"}},{"country":"AO","name":"Sumbe","admin1Code":"AO.06","latitude":-11.20605,"longitude":13.84371,"translations":{"pt":"Sumbe","it":"Sumbe","ru":"Сумбе","uk":"Сумбе","de":"Sumbe","es":"Sumbe","en":"Sumbe","fr":"Sumbe"}},{"country":"AO","name":"Quipungo","admin1Code":"AO.09","latitude":-14.81909,"longitude":14.53504,"translations":{"pt":"Quipungo","it":"Quipungo","ru":"Quipungo","uk":"Quipungo","de":"Quipungo","es":"Quipungo","en":"Quipungo","fr":"Quipungo"}},{"country":"AO","name":"Кибала","admin1Code":"AO.06","latitude":-10.73366,"longitude":14.97995,"translations":{"pt":"Kybala","it":"Kybala","ru":"Кибала","uk":"Кибала","de":"Kybala","es":"Kybala","en":"Кибала","fr":"Kybala"}},{"country":"AO","name":"Porto amboim","admin1Code":"AO.06","latitude":-10.73251,"longitude":13.76844,"translations":{"pt":"Benguella velha","it":"Porto amboim","ru":"Порту амбоим","uk":"Porto amboim","de":"Porto amboim","es":"Amboim","en":"Porto amboim","fr":"Porto amboim"}},{"country":"AO","name":"Ondjiva","admin1Code":"AO.07","latitude":-17.06667,"longitude":15.73333,"translations":{"pt":"Ondjiva","it":"Ondjiva","ru":"Онджива","uk":"Онджива","de":"Ondjiva","es":"Ondjiva","en":"Ondjiva","fr":"Ondjiva"}},{"country":"AO","name":"Nharêa","admin1Code":"AO.02","latitude":-11.47512,"longitude":16.96496,"translations":{"pt":"Nharêa","it":"Nharêa","ru":"Nharêa","uk":"Nharêa","de":"Nharêa","es":"Nharêa","en":"Nharêa","fr":"Nharêa"}},{"country":"AO","name":"Mossamedes","admin1Code":"AO.13","latitude":-15.19611,"longitude":12.15222,"translations":{"pt":"Mossamedes","it":"Mossamedes","ru":"Намибе","uk":"Намібе","de":"Mossamedes","es":"Mossamedes","en":"Mossamedes","fr":"Mossamedes"}},{"country":"AO","name":"Mungo","admin1Code":"AO.08","latitude":-11.83268,"longitude":16.23613,"translations":{"pt":"Mungo","it":"Mungo","ru":"Mungo","uk":"Mungo","de":"Mungo","es":"Mungo","en":"Mungo","fr":"Mungo"}},{"country":"AO","name":"Менонге","admin1Code":"AO.04","latitude":-14.6585,"longitude":17.69099,"translations":{"pt":"Menonhe","it":"Menonhe","ru":"Менонге","uk":"Менонгве","de":"Menonhe","es":"Menonhe","en":"Менонге","fr":"Menonhe"}},{"country":"AO","name":"Матала","admin1Code":"AO.09","latitude":-14.73272,"longitude":15.03479,"translations":{"pt":"Matala","it":"Matala","ru":"Матала","uk":"Матала","de":"Matala","es":"Matala","en":"Матала","fr":"Matala"}},{"country":"AO","name":"Luquembo","admin1Code":"AO.12","latitude":-10.73912,"longitude":17.71766,"translations":{"pt":"Luquembo","it":"Luquembo","ru":"Luquembo","uk":"Luquembo","de":"Luquembo","es":"Luquembo","en":"Luquembo","fr":"Luquembo"}},{"country":"AO","name":"Луэна","admin1Code":"AO.14","latitude":-11.78333,"longitude":19.91667,"translations":{"pt":"Luэna","it":"Luэna","ru":"Луэна","uk":"Луена","de":"Luэna","es":"Luэna","en":"Луэна","fr":"Luэna"}},{"country":"AO","name":"Lubango","admin1Code":"AO.09","latitude":-14.91717,"longitude":13.4925,"translations":{"pt":"Lubango","it":"Lubango","ru":"Лубанго","uk":"Лубанго","de":"Lubango","es":"Lubango","en":"Lubango","fr":"Lubango"}},{"country":"AO","name":"Логонжу","admin1Code":"AO.08","latitude":-12.90795,"longitude":15.24845,"translations":{"pt":"Lohonzhu","it":"Lohonzhu","ru":"Логонжу","uk":"Логонжу","de":"Lohonzhu","es":"Lohonzhu","en":"Логонжу","fr":"Lohonzhu"}},{"country":"AO","name":"Londuimbali","admin1Code":"AO.08","latitude":-12.23712,"longitude":15.31697,"translations":{"pt":"Londuimbali","it":"Londuimbali","ru":"Londuimbali","uk":"Londuimbali","de":"Londuimbali","es":"Londuimbali","en":"Londuimbali","fr":"Londuimbali"}},{"country":"AO","name":"Lobito","admin1Code":"AO.01","latitude":-12.3644,"longitude":13.53601,"translations":{"pt":"Lobito","it":"Lobito","ru":"Лобиту","uk":"Лобіту","de":"Lobito","es":"Lobito","en":"Lobito","fr":"Lobito"}},{"country":"AO","name":"Cuito","admin1Code":"AO.02","latitude":-12.38333,"longitude":16.93333,"translations":{"pt":"Cuíto","it":"Cuito","ru":"Куито","uk":"Cuito","de":"Kuito","es":"Cuito","en":"Cuito","fr":"Cuito"}},{"country":"AO","name":"Catchiungo","admin1Code":"AO.08","latitude":-12.56598,"longitude":16.22589,"translations":{"pt":"Catchiungo","it":"Catchiungo","ru":"Catchiungo","uk":"Catchiungo","de":"Catchiungo","es":"Catchiungo","en":"Catchiungo","fr":"Catchiungo"}},{"country":"AO","name":"Huambo","admin1Code":"AO.08","latitude":-12.77611,"longitude":15.73917,"translations":{"pt":"Huambo","it":"Huambo","ru":"Уамбо","uk":"Уамбо","de":"Huambo","es":"Huambo","en":"Huambo","fr":"Huambo"}},{"country":"AO","name":"Ганда","admin1Code":"AO.01","latitude":-13.01592,"longitude":14.63502,"translations":{"pt":"Handa","it":"Handa","ru":"Ганда","uk":"Ганда","de":"Handa","es":"Handa","en":"Ганда","fr":"Handa"}},{"country":"AO","name":"Габела","admin1Code":"AO.06","latitude":-10.85147,"longitude":14.37993,"translations":{"pt":"Habela","it":"Habela","ru":"Габела","uk":"Габела","de":"Habela","es":"Habela","en":"Габела","fr":"Habela"}},{"country":"AO","name":"Домбе гранде","admin1Code":"AO.01","latitude":-12.95167,"longitude":13.1025,"translations":{"pt":"Dombe hrande","it":"Dombe hrande","ru":"Домбе гранде","uk":"Домбе гранде","de":"Dombe hrande","es":"Dombe hrande","en":"Домбе гранде","fr":"Dombe hrande"}},{"country":"AO","name":"Cuemba","admin1Code":"AO.02","latitude":-12.15,"longitude":18.08333,"translations":{"pt":"Cuemba","it":"Cuemba","ru":"Cuemba","uk":"Cuemba","de":"Cuemba","es":"Cuemba","en":"Cuemba","fr":"Cuemba"}},{"country":"AO","name":"Кубал","admin1Code":"AO.01","latitude":-13.03865,"longitude":14.2455,"translations":{"pt":"Kubal","it":"Kubal","ru":"Кубал","uk":"Кубал","de":"Kubal","es":"Kubal","en":"Кубал","fr":"Kubal"}},{"country":"AO","name":"Конда","admin1Code":"AO.06","latitude":-11.10862,"longitude":14.33621,"translations":{"pt":"Konda","it":"Konda","ru":"Конда","uk":"Конда","de":"Konda","es":"Konda","en":"Конда","fr":"Konda"}},{"country":"AO","name":"Chitembo","admin1Code":"AO.02","latitude":-13.55,"longitude":16.63333,"translations":{"pt":"Chitembo","it":"Chitembo","ru":"Chitembo","uk":"Chitembo","de":"Chitembo","es":"Chitembo","en":"Chitembo","fr":"Chitembo"}},{"country":"AO","name":"Chinguar","admin1Code":"AO.02","latitude":-12.55708,"longitude":16.33805,"translations":{"pt":"Chinguar","it":"Chinguar","ru":"Chinguar","uk":"Chinguar","de":"Chinguar","es":"Chinguar","en":"Chinguar","fr":"Chinguar"}},{"country":"AO","name":"Кела","admin1Code":"AO.06","latitude":-11.42173,"longitude":15.12345,"translations":{"pt":"Kela","it":"Kela","ru":"Кела","uk":"Кела","de":"Kela","es":"Kela","en":"Кела","fr":"Kela"}},{"country":"AO","name":"Катумбела","admin1Code":"AO.01","latitude":-12.43002,"longitude":13.54677,"translations":{"pt":"Katumbela","it":"Katumbela","ru":"Катумбела","uk":"Катумбела","de":"Katumbela","es":"Katumbela","en":"Катумбела","fr":"Katumbela"}},{"country":"AO","name":"Катабола","admin1Code":"AO.02","latitude":-12.15,"longitude":17.28333,"translations":{"pt":"Katabola","it":"Katabola","ru":"Катабола","uk":"Катабола","de":"Katabola","es":"Katabola","en":"Катабола","fr":"Katabola"}},{"country":"AO","name":"Capunda","admin1Code":"AO.06","latitude":-11.13333,"longitude":14.46667,"translations":{"pt":"Capunda","it":"Capunda","ru":"Capunda","uk":"Capunda","de":"Capunda","es":"Capunda","en":"Capunda","fr":"Capunda"}},{"country":"AO","name":"Camucuio","admin1Code":"AO.13","latitude":-14.11667,"longitude":13.25,"translations":{"pt":"Camucuio","it":"Camucuio","ru":"Camucuio","uk":"Camucuio","de":"Camucuio","es":"Camucuio","en":"Camucuio","fr":"Camucuio"}},{"country":"AO","name":"Cambundi catembo","admin1Code":"AO.12","latitude":-10.07531,"longitude":17.55058,"translations":{"pt":"Cambundi catembo","it":"Cambundi catembo","ru":"Cambundi catembo","uk":"Cambundi catembo","de":"Cambundi catembo","es":"Cambundi catembo","en":"Cambundi catembo","fr":"Cambundi catembo"}},{"country":"AO","name":"Камакупа","admin1Code":"AO.02","latitude":-12.01667,"longitude":17.48333,"translations":{"pt":"Kamakupa","it":"Kamakupa","ru":"Камакупа","uk":"Камакупа","de":"Kamakupa","es":"Kamakupa","en":"Камакупа","fr":"Kamakupa"}},{"country":"AO","name":"Caluquembe","admin1Code":"AO.09","latitude":-13.86667,"longitude":14.43333,"translations":{"pt":"Caluquembe","it":"Caluquembe","ru":"Caluquembe","uk":"Caluquembe","de":"Caluquembe","es":"Caluquembe","en":"Caluquembe","fr":"Caluquembe"}},{"country":"AO","name":"Калуло","admin1Code":"AO.06","latitude":-10.00055,"longitude":14.89519,"translations":{"pt":"Kalulo","it":"Kalulo","ru":"Калуло","uk":"Калуло","de":"Kalulo","es":"Kalulo","en":"Калуло","fr":"Kalulo"}},{"country":"AO","name":"Каале","admin1Code":"AO.08","latitude":-12.8525,"longitude":15.56056,"translations":{"pt":"Kaale","it":"Kaale","ru":"Каале","uk":"Каале","de":"Kaale","es":"Kaale","en":"Каале","fr":"Kaale"}},{"country":"AO","name":"Bocoio","admin1Code":"AO.01","latitude":-12.47017,"longitude":14.13688,"translations":{"pt":"Bocoio","it":"Bocoio","ru":"Bocoio","uk":"Bocoio","de":"Bocoio","es":"Bocoio","en":"Bocoio","fr":"Bocoio"}},{"country":"AO","name":"Benguela","admin1Code":"AO.01","latitude":-12.57674,"longitude":13.40268,"translations":{"pt":"Benguela","it":"Benguela","ru":"Бенгела","uk":"Benguela","de":"Benguela","es":"Benguela","en":"Benguela","fr":"Benguela"}},{"country":"AO","name":"Баломбо","admin1Code":"AO.01","latitude":-12.35426,"longitude":14.77232,"translations":{"pt":"Balombo","it":"Balombo","ru":"Баломбо","uk":"Баломбо","de":"Balombo","es":"Balombo","en":"Баломбо","fr":"Balombo"}},{"country":"AO","name":"Baía farta","admin1Code":"AO.01","latitude":-12.60417,"longitude":13.19667,"translations":{"pt":"Baía farta","it":"Baía farta","ru":"Baía farta","uk":"Baía farta","de":"Baía farta","es":"Baía farta","en":"Baía farta","fr":"Baía farta"}},{"country":"AO","name":"Андулу","admin1Code":"AO.02","latitude":-11.48676,"longitude":16.69663,"translations":{"pt":"Andulu","it":"Andulu","ru":"Андулу","uk":"Андулу","de":"Andulu","es":"Andulu","en":"Андулу","fr":"Andulu"}},{"country":"AO","name":"Cambundi","admin1Code":"AO.12","latitude":-7.46856,"longitude":17.03769,"translations":{"pt":"Cambundi","it":"Cambundi","ru":"Cambundi","uk":"Cambundi","de":"Cambundi","es":"Cambundi","en":"Cambundi","fr":"Cambundi"}},{"country":"AO","name":"Cafunfo","admin1Code":"AO.17","latitude":-8.7672,"longitude":17.99572,"translations":{"pt":"Cafunfo","it":"Cafunfo","ru":"Cafunfo","uk":"Cafunfo","de":"Cafunfo","es":"Cafunfo","en":"Cafunfo","fr":"Cafunfo"}},{"country":"AO","name":"Santa clara","admin1Code":"AO.06","latitude":-10.19156,"longitude":15.43408,"translations":{"pt":"Santa clara","it":"Santa clara","ru":"Santa clara","uk":"Santa clara","de":"Santa clara","es":"Santa clara","en":"Santa clara","fr":"Santa clara"}},{"country":"AO","name":"Quissecula","admin1Code":"AO.06","latitude":-11.39223,"longitude":15.09201,"translations":{"pt":"Quissecula","it":"Quissecula","ru":"Quissecula","uk":"Quissecula","de":"Quissecula","es":"Quissecula","en":"Quissecula","fr":"Quissecula"}},{"country":"AO","name":"Cambundi","admin1Code":"AO.12","latitude":-10.89481,"longitude":17.76402,"translations":{"pt":"Cambundi","it":"Cambundi","ru":"Cambundi","uk":"Cambundi","de":"Cambundi","es":"Cambundi","en":"Cambundi","fr":"Cambundi"}}]