[{"country":"UG","name":"Yumbe","admin1Code":"UG.N","latitude":3.46506,"longitude":31.24689,"translations":{"pt":"Yumbe","it":"Yumbe","ru":"Yumbe","uk":"Yumbe","de":"Yumbe","es":"Yumbe","en":"Yumbe","fr":"Yumbe"}},{"country":"UG","name":"Wobulenzi","admin1Code":"UG.C","latitude":0.72833,"longitude":32.51222,"translations":{"pt":"Wobulenzi","it":"Wobulenzi","ru":"Wobulenzi","uk":"Wobulenzi","de":"Wobulenzi","es":"Wobulenzi","en":"Wobulenzi","fr":"Wobulenzi"}},{"country":"UG","name":"Wakiso","admin1Code":"UG.C","latitude":0.40444,"longitude":32.45944,"translations":{"pt":"Wakiso","it":"Wakiso","ru":"Wakiso","uk":"Wakiso","de":"Wakiso","es":"Wakiso","en":"Wakiso","fr":"Wakiso"}},{"country":"UG","name":"Tororo","admin1Code":"UG.E","latitude":0.69299,"longitude":34.18085,"translations":{"pt":"Tororo","it":"Tororo","ru":"Тороро","uk":"Tororo","de":"Tororo","es":"Tororo","en":"Tororo","fr":"Tororo"}},{"country":"UG","name":"Soroti","admin1Code":"UG.E","latitude":1.71464,"longitude":33.61113,"translations":{"pt":"Soroti","it":"Soroti","ru":"Soroti","uk":"Soroti","de":"Soroti","es":"Soroti","en":"Soroti","fr":"Soroti"}},{"country":"UG","name":"Sironko","admin1Code":"UG.E","latitude":1.23132,"longitude":34.24773,"translations":{"pt":"Sironko","it":"Sironko","ru":"Sironko","uk":"Sironko","de":"Sironko","es":"Sironko","en":"Sironko","fr":"Sironko"}},{"country":"UG","name":"Rutoma","admin1Code":"UG.W","latitude":-0.56667,"longitude":30.38333,"translations":{"pt":"Rutoma","it":"Rutoma","ru":"Rutoma","uk":"Rutoma","de":"Rutoma","es":"Rutoma","en":"Rutoma","fr":"Rutoma"}},{"country":"UG","name":"Rukungiri","admin1Code":"UG.W","latitude":-0.84111,"longitude":29.94194,"translations":{"pt":"Rukungiri","it":"Rukungiri","ru":"Rukungiri","uk":"Rukungiri","de":"Rukungiri","es":"Rukungiri","en":"Rukungiri","fr":"Rukungiri"}},{"country":"UG","name":"Rubanda","admin1Code":"UG.W","latitude":-1.18833,"longitude":29.84611,"translations":{"pt":"Rubanda","it":"Rubanda","ru":"Rubanda","uk":"Rubanda","de":"Rubanda","es":"Rubanda","en":"Rubanda","fr":"Rubanda"}},{"country":"UG","name":"Pallisa","admin1Code":"UG.E","latitude":1.145,"longitude":33.70944,"translations":{"pt":"Pallisa","it":"Pallisa","ru":"Паллиса","uk":"Pallisa","de":"Pallisa","es":"Pallisa","en":"Pallisa","fr":"Pallisa"}},{"country":"UG","name":"Pakwach","admin1Code":"UG.N","latitude":2.46335,"longitude":31.49832,"translations":{"pt":"Pakwach","it":"Pakwach","ru":"Pakwach","uk":"Pakwach","de":"Pakwach","es":"Pakwach","en":"Pakwach","fr":"Pakwach"}},{"country":"UG","name":"Paidha","admin1Code":"UG.N","latitude":2.41669,"longitude":30.98551,"translations":{"pt":"Paidha","it":"Paidha","ru":"Paidha","uk":"Paidha","de":"Paidha","es":"Paidha","en":"Paidha","fr":"Paidha"}},{"country":"UG","name":"Nyahuka","admin1Code":"UG.W","latitude":0.675,"longitude":29.9926,"translations":{"pt":"Nyahuka","it":"Nyahuka","ru":"Nyahuka","uk":"Nyahuka","de":"Nyahuka","es":"Nyahuka","en":"Nyahuka","fr":"Nyahuka"}},{"country":"UG","name":"Nyachera","admin1Code":"UG.W","latitude":-0.9,"longitude":30.41667,"translations":{"pt":"Nyachera","it":"Nyachera","ru":"Nyachera","uk":"Nyachera","de":"Nyachera","es":"Nyachera","en":"Nyachera","fr":"Nyachera"}},{"country":"UG","name":"Ntungamo","admin1Code":"UG.W","latitude":-0.88333,"longitude":29.65,"translations":{"pt":"Ntungamo","it":"Ntungamo","ru":"Ntungamo","uk":"Ntungamo","de":"Ntungamo","es":"Ntungamo","en":"Ntungamo","fr":"Ntungamo"}},{"country":"UG","name":"Ntungamo","admin1Code":"UG.W","latitude":-0.87944,"longitude":30.26417,"translations":{"pt":"Ntungamo","it":"Ntungamo","ru":"Ntungamo","uk":"Ntungamo","de":"Ntungamo","es":"Ntungamo","en":"Ntungamo","fr":"Ntungamo"}},{"country":"UG","name":"Njeru","admin1Code":"UG.C","latitude":0.44166,"longitude":33.17917,"translations":{"pt":"Njeru","it":"Njeru","ru":"Njeru","uk":"Njeru","de":"Njeru","es":"Njeru","en":"Njeru","fr":"Njeru"}},{"country":"UG","name":"Ngora","admin1Code":"UG.E","latitude":1.43139,"longitude":33.77722,"translations":{"pt":"Ngora","it":"Ngora","ru":"Ngora","uk":"Ngora","de":"Ngora","es":"Ngora","en":"Ngora","fr":"Ngora"}},{"country":"UG","name":"Nebbi","admin1Code":"UG.N","latitude":2.47826,"longitude":31.08893,"translations":{"pt":"Nebbi","it":"Nebbi","ru":"Nebbi","uk":"Nebbi","de":"Nebbi","es":"Nebbi","en":"Nebbi","fr":"Nebbi"}},{"country":"UG","name":"Namutumba","admin1Code":"UG.E","latitude":0.83611,"longitude":33.68611,"translations":{"pt":"Namutumba","it":"Namutumba","ru":"Namutumba","uk":"Namutumba","de":"Namutumba","es":"Namutumba","en":"Namutumba","fr":"Namutumba"}},{"country":"UG","name":"Namayumba","admin1Code":"UG.C","latitude":0.52889,"longitude":32.24861,"translations":{"pt":"Namayumba","it":"Namayumba","ru":"Namayumba","uk":"Namayumba","de":"Namayumba","es":"Namayumba","en":"Namayumba","fr":"Namayumba"}},{"country":"UG","name":"Namasuba","admin1Code":"UG.C","latitude":0.68944,"longitude":32.42139,"translations":{"pt":"Namasuba","it":"Namasuba","ru":"Namasuba","uk":"Namasuba","de":"Namasuba","es":"Namasuba","en":"Namasuba","fr":"Namasuba"}},{"country":"UG","name":"Nakaloke","admin1Code":"UG.E","latitude":1.15,"longitude":34.15,"translations":{"pt":"Nakaloke","it":"Nakaloke","ru":"Nakaloke","uk":"Nakaloke","de":"Nakaloke","es":"Nakaloke","en":"Nakaloke","fr":"Nakaloke"}},{"country":"UG","name":"Mukono","admin1Code":"UG.C","latitude":0.35333,"longitude":32.75528,"translations":{"pt":"Mukono","it":"Mukono","ru":"Mukono","uk":"Mukono","de":"Mukono","es":"Mukono","en":"Mukono","fr":"Mukono"}},{"country":"UG","name":"Mubende","admin1Code":"UG.C","latitude":0.55849,"longitude":31.39489,"translations":{"pt":"Mubende","it":"Mubende","ru":"Mubende","uk":"Mubende","de":"Mubende","es":"Mubende","en":"Mubende","fr":"Mubende"}},{"country":"UG","name":"Mpondwe","admin1Code":"UG.W","latitude":0.04008,"longitude":29.7248,"translations":{"pt":"Mpondwe","it":"Mpondwe","ru":"Mpondwe","uk":"Mpondwe","de":"Mpondwe","es":"Mpondwe","en":"Mpondwe","fr":"Mpondwe"}},{"country":"UG","name":"Mpigi","admin1Code":"UG.C","latitude":0.225,"longitude":32.31361,"translations":{"pt":"Mpigi","it":"Mpigi","ru":"Mpigi","uk":"Mpigi","de":"Mpigi","es":"Mpigi","en":"Mpigi","fr":"Mpigi"}},{"country":"UG","name":"Moyo","admin1Code":"UG.N","latitude":3.66088,"longitude":31.72474,"translations":{"pt":"Moyo","it":"Moyo","ru":"Moyo","uk":"Moyo","de":"Moyo","es":"Moyo","en":"Moyo","fr":"Moyo"}},{"country":"UG","name":"Moroto","admin1Code":"UG.N","latitude":2.53453,"longitude":34.66659,"translations":{"pt":"Moroto","it":"Moroto","ru":"Moroto","uk":"Moroto","de":"Moroto","es":"Moroto","en":"Moroto","fr":"Moroto"}},{"country":"UG","name":"Митьяна","admin1Code":"UG.C","latitude":0.4175,"longitude":32.02278,"translations":{"pt":"Myt'jana","it":"Myt'jana","ru":"Митьяна","uk":"Митьяна","de":"Myt'jana","es":"Myt'jana","en":"Митьяна","fr":"Myt'jana"}},{"country":"UG","name":"Mbarara","admin1Code":"UG.W","latitude":-0.60467,"longitude":30.64851,"translations":{"pt":"Mbarara","it":"Mbarara","ru":"Мбарара","uk":"Mbarara","de":"Mbarara","es":"Mbarara","en":"Mbarara","fr":"Mbarara"}},{"country":"UG","name":"Mbale","admin1Code":"UG.E","latitude":1.08209,"longitude":34.17503,"translations":{"pt":"Mbale","it":"Mbale","ru":"Мбале","uk":"Mbale","de":"Mbale","es":"Mbale","en":"Mbale","fr":"Mbale"}},{"country":"UG","name":"Mayuge","admin1Code":"UG.E","latitude":0.45972,"longitude":33.48028,"translations":{"pt":"Mayuge","it":"Mayuge","ru":"Mayuge","uk":"Mayuge","de":"Mayuge","es":"Mayuge","en":"Mayuge","fr":"Mayuge"}},{"country":"UG","name":"Masindi","admin1Code":"UG.W","latitude":1.67444,"longitude":31.715,"translations":{"pt":"Masindi","it":"Masindi","ru":"Масинди","uk":"Masindi","de":"Masindi","es":"Masindi","en":"Masindi","fr":"Masindi"}},{"country":"UG","name":"Masaka","admin1Code":"UG.C","latitude":-0.33379,"longitude":31.73409,"translations":{"pt":"Masaka","it":"Masaka","ru":"Масаки","uk":"Masaka","de":"Masaka","es":"Masaka","en":"Masaka","fr":"Masaka"}},{"country":"UG","name":"Magamaga","admin1Code":"UG.E","latitude":0.5196,"longitude":33.34687,"translations":{"pt":"Magamaga","it":"Magamaga","ru":"Magamaga","uk":"Magamaga","de":"Magamaga","es":"Magamaga","en":"Magamaga","fr":"Magamaga"}},{"country":"UG","name":"Mabare","admin1Code":"UG.W","latitude":-0.96667,"longitude":30.45,"translations":{"pt":"Mabare","it":"Mabare","ru":"Mabare","uk":"Mabare","de":"Mabare","es":"Mabare","en":"Mabare","fr":"Mabare"}},{"country":"UG","name":"Lyantonde","admin1Code":"UG.C","latitude":-0.40306,"longitude":31.15722,"translations":{"pt":"Lyantonde","it":"Lyantonde","ru":"Lyantonde","uk":"Lyantonde","de":"Lyantonde","es":"Lyantonde","en":"Lyantonde","fr":"Lyantonde"}},{"country":"UG","name":"Lwengo","admin1Code":"UG.C","latitude":-0.41611,"longitude":31.40806,"translations":{"pt":"Lwengo","it":"Lwengo","ru":"Lwengo","uk":"Lwengo","de":"Lwengo","es":"Lwengo","en":"Lwengo","fr":"Lwengo"}},{"country":"UG","name":"Lwakyomba","admin1Code":"UG.W","latitude":1.11667,"longitude":31.4,"translations":{"pt":"Lwakyomba","it":"Lwakyomba","ru":"Lwakyomba","uk":"Lwakyomba","de":"Lwakyomba","es":"Lwakyomba","en":"Lwakyomba","fr":"Lwakyomba"}},{"country":"UG","name":"Luwero","admin1Code":"UG.C","latitude":0.84917,"longitude":32.47306,"translations":{"pt":"Luwero","it":"Luwero","ru":"Luwero","uk":"Luwero","de":"Luwero","es":"Luwero","en":"Luwero","fr":"Luwero"}},{"country":"UG","name":"Lukaya","admin1Code":"UG.C","latitude":-0.11306,"longitude":31.85389,"translations":{"pt":"Lukaya","it":"Lukaya","ru":"Lukaya","uk":"Lukaya","de":"Lukaya","es":"Lukaya","en":"Lukaya","fr":"Lukaya"}},{"country":"UG","name":"Lugazi","admin1Code":"UG.C","latitude":0.36788,"longitude":32.9376,"translations":{"pt":"Lugazi","it":"Lugazi","ru":"Lugazi","uk":"Lugazi","de":"Lugazi","es":"Lugazi","en":"Lugazi","fr":"Lugazi"}},{"country":"UG","name":"Лира","admin1Code":"UG.N","latitude":2.2499,"longitude":32.89985,"translations":{"pt":"Lyra","it":"Lyra","ru":"Лира","uk":"Лира","de":"Lyra","es":"Lyra","en":"Лира","fr":"Lyra"}},{"country":"UG","name":"Kyenjojo","admin1Code":"UG.W","latitude":0.63278,"longitude":30.62139,"translations":{"pt":"Kyenjojo","it":"Kyenjojo","ru":"Kyenjojo","uk":"Kyenjojo","de":"Kyenjojo","es":"Kyenjojo","en":"Kyenjojo","fr":"Kyenjojo"}},{"country":"UG","name":"Kyegegwa","admin1Code":"UG.W","latitude":0.50222,"longitude":31.04139,"translations":{"pt":"Kyegegwa","it":"Kyegegwa","ru":"Kyegegwa","uk":"Kyegegwa","de":"Kyegegwa","es":"Kyegegwa","en":"Kyegegwa","fr":"Kyegegwa"}},{"country":"UG","name":"Kyazanga","admin1Code":"UG.C","latitude":-0.38333,"longitude":31.35,"translations":{"pt":"Kyazanga","it":"Kyazanga","ru":"Kyazanga","uk":"Kyazanga","de":"Kyazanga","es":"Kyazanga","en":"Kyazanga","fr":"Kyazanga"}},{"country":"UG","name":"Kyarusozi","admin1Code":"UG.W","latitude":0.78417,"longitude":30.53111,"translations":{"pt":"Kyarusozi","it":"Kyarusozi","ru":"Kyarusozi","uk":"Kyarusozi","de":"Kyarusozi","es":"Kyarusozi","en":"Kyarusozi","fr":"Kyarusozi"}},{"country":"UG","name":"Kyamahungu","admin1Code":"UG.W","latitude":-0.45139,"longitude":30.11333,"translations":{"pt":"Kyamahungu","it":"Kyamahungu","ru":"Kyamahungu","uk":"Kyamahungu","de":"Kyamahungu","es":"Kyamahungu","en":"Kyamahungu","fr":"Kyamahungu"}},{"country":"UG","name":"Kumi","admin1Code":"UG.E","latitude":1.46083,"longitude":33.93611,"translations":{"pt":"Kumi","it":"Kumi","ru":"Kumi","uk":"Kumi","de":"Kumi","es":"Kumi","en":"Kumi","fr":"Kumi"}},{"country":"UG","name":"Kotido","admin1Code":"UG.N","latitude":2.98056,"longitude":34.13306,"translations":{"pt":"Kotido","it":"Kotido","ru":"Kotido","uk":"Kotido","de":"Kotido","es":"Kotido","en":"Kotido","fr":"Kotido"}},{"country":"UG","name":"Koboko","admin1Code":"UG.N","latitude":3.41364,"longitude":30.95994,"translations":{"pt":"Koboko","it":"Koboko","ru":"Koboko","uk":"Koboko","de":"Koboko","es":"Koboko","en":"Koboko","fr":"Koboko"}},{"country":"UG","name":"Kiziba","admin1Code":"UG.C","latitude":0.51389,"longitude":32.35056,"translations":{"pt":"Kiziba","it":"Kiziba","ru":"Kiziba","uk":"Kiziba","de":"Kiziba","es":"Kiziba","en":"Kiziba","fr":"Kiziba"}},{"country":"UG","name":"Китгум","admin1Code":"UG.N","latitude":3.27833,"longitude":32.88667,"translations":{"pt":"Kythum","it":"Kythum","ru":"Китгум","uk":"Китгум","de":"Kythum","es":"Kythum","en":"Китгум","fr":"Kythum"}},{"country":"UG","name":"Kisoro","admin1Code":"UG.W","latitude":-1.28538,"longitude":29.68497,"translations":{"pt":"Kisoro","it":"Kisoro","ru":"Kisoro","uk":"Kisoro","de":"Kisoro","es":"Kisoro","en":"Kisoro","fr":"Kisoro"}},{"country":"UG","name":"Kireka","admin1Code":"UG.C","latitude":0.3475,"longitude":32.64917,"translations":{"pt":"Kireka","it":"Kireka","ru":"Kireka","uk":"Kireka","de":"Kireka","es":"Kireka","en":"Kireka","fr":"Kireka"}},{"country":"UG","name":"Kira","admin1Code":"UG.C","latitude":0.4,"longitude":32.63333,"translations":{"pt":"Kira","it":"Kira","ru":"Kira","uk":"Kira","de":"Kira","es":"Kira","en":"Kira","fr":"Kira"}},{"country":"UG","name":"Kinoni","admin1Code":"UG.W","latitude":-0.70111,"longitude":30.49389,"translations":{"pt":"Kinoni","it":"Kinoni","ru":"Kinoni","uk":"Kinoni","de":"Kinoni","es":"Kinoni","en":"Kinoni","fr":"Kinoni"}},{"country":"UG","name":"Kikube","admin1Code":"UG.W","latitude":1.35639,"longitude":31.22222,"translations":{"pt":"Kikube","it":"Kikube","ru":"Kikube","uk":"Kikube","de":"Kikube","es":"Kikube","en":"Kikube","fr":"Kikube"}},{"country":"UG","name":"Kihihi","admin1Code":"UG.W","latitude":-0.75,"longitude":29.7,"translations":{"pt":"Kihihi","it":"Kihihi","ru":"Kihihi","uk":"Kihihi","de":"Kihihi","es":"Kihihi","en":"Kihihi","fr":"Kihihi"}},{"country":"UG","name":"Kigumba","admin1Code":"UG.W","latitude":1.80838,"longitude":32.00502,"translations":{"pt":"Kigumba","it":"Kigumba","ru":"Kigumba","uk":"Kigumba","de":"Kigumba","es":"Kigumba","en":"Kigumba","fr":"Kigumba"}},{"country":"UG","name":"Kiboga","admin1Code":"UG.C","latitude":0.91611,"longitude":31.77417,"translations":{"pt":"Kiboga","it":"Kiboga","ru":"Kiboga","uk":"Kiboga","de":"Kiboga","es":"Kiboga","en":"Kiboga","fr":"Kiboga"}},{"country":"UG","name":"Kazo","admin1Code":"UG.W","latitude":-0.07444,"longitude":30.78528,"translations":{"pt":"Kazo","it":"Kazo","ru":"Kazo","uk":"Kazo","de":"Kazo","es":"Kazo","en":"Kazo","fr":"Kazo"}},{"country":"UG","name":"Kayunga","admin1Code":"UG.C","latitude":0.7025,"longitude":32.88861,"translations":{"pt":"Kayunga","it":"Kayunga","ru":"Kayunga","uk":"Kayunga","de":"Kayunga","es":"Kayunga","en":"Kayunga","fr":"Kayunga"}},{"country":"UG","name":"Katoke","admin1Code":"UG.W","latitude":0.75833,"longitude":30.6825,"translations":{"pt":"Katoke","it":"Katoke","ru":"Katoke","uk":"Katoke","de":"Katoke","es":"Katoke","en":"Katoke","fr":"Katoke"}},{"country":"UG","name":"Katabi","admin1Code":"UG.C","latitude":0.08411,"longitude":32.46972,"translations":{"pt":"Katabi","it":"Katabi","ru":"Katabi","uk":"Katabi","de":"Katabi","es":"Katabi","en":"Katabi","fr":"Katabi"}},{"country":"UG","name":"Kasozi","admin1Code":"UG.W","latitude":0.02,"longitude":30.49861,"translations":{"pt":"Kasozi","it":"Kasozi","ru":"Kasozi","uk":"Kasozi","de":"Kasozi","es":"Kasozi","en":"Kasozi","fr":"Kasozi"}},{"country":"UG","name":"Касесе","admin1Code":"UG.W","latitude":0.18333,"longitude":30.08333,"translations":{"pt":"Kasese","it":"Kasese","ru":"Касесе","uk":"Касесе","de":"Kasese","es":"Kasese","en":"Касесе","fr":"Kasese"}},{"country":"UG","name":"Kasanje","admin1Code":"UG.C","latitude":0.15334,"longitude":32.40088,"translations":{"pt":"Kasanje","it":"Kasanje","ru":"Kasanje","uk":"Kasanje","de":"Kasanje","es":"Kasanje","en":"Kasanje","fr":"Kasanje"}},{"country":"UG","name":"Kasangati","admin1Code":"UG.C","latitude":0.43803,"longitude":32.60246,"translations":{"pt":"Kasangati","it":"Kasangati","ru":"Kasangati","uk":"Kasangati","de":"Kasangati","es":"Kasangati","en":"Kasangati","fr":"Kasangati"}},{"country":"UG","name":"Kasanda","admin1Code":"UG.C","latitude":0.55667,"longitude":31.80222,"translations":{"pt":"Kasanda","it":"Kasanda","ru":"Kasanda","uk":"Kasanda","de":"Kasanda","es":"Kasanda","en":"Kasanda","fr":"Kasanda"}},{"country":"UG","name":"Kasambya","admin1Code":"UG.C","latitude":0.43333,"longitude":31.23333,"translations":{"pt":"Kasambya","it":"Kasambya","ru":"Kasambya","uk":"Kasambya","de":"Kasambya","es":"Kasambya","en":"Kasambya","fr":"Kasambya"}},{"country":"UG","name":"Kasaali","admin1Code":"UG.C","latitude":-0.61667,"longitude":31.55,"translations":{"pt":"Kasaali","it":"Kasaali","ru":"Kasaali","uk":"Kasaali","de":"Kasaali","es":"Kasaali","en":"Kasaali","fr":"Kasaali"}},{"country":"UG","name":"Kapchorwa","admin1Code":"UG.E","latitude":1.40096,"longitude":34.45038,"translations":{"pt":"Kapchorwa","it":"Kapchorwa","ru":"Kapchorwa","uk":"Kapchorwa","de":"Kapchorwa","es":"Kapchorwa","en":"Kapchorwa","fr":"Kapchorwa"}},{"country":"UG","name":"Kanungu","admin1Code":"UG.W","latitude":-0.9575,"longitude":29.78972,"translations":{"pt":"Kanungu","it":"Kanungu","ru":"Kanungu","uk":"Kanungu","de":"Kanungu","es":"Kanungu","en":"Kanungu","fr":"Kanungu"}},{"country":"UG","name":"Kamwenge","admin1Code":"UG.W","latitude":0.1866,"longitude":30.45393,"translations":{"pt":"Kamwenge","it":"Kamwenge","ru":"Kamwenge","uk":"Kamwenge","de":"Kamwenge","es":"Kamwenge","en":"Kamwenge","fr":"Kamwenge"}},{"country":"UG","name":"Kamuli","admin1Code":"UG.E","latitude":0.94722,"longitude":33.11972,"translations":{"pt":"Kamuli","it":"Kamuli","ru":"Kamuli","uk":"Kamuli","de":"Kamuli","es":"Kamuli","en":"Kamuli","fr":"Kamuli"}},{"country":"UG","name":"Kampala","admin1Code":"UG.C","latitude":0.31628,"longitude":32.58219,"translations":{"pt":"Campala","it":"Kampala","ru":"Кампала","uk":"Кампала","de":"Kampala","es":"Kampala","en":"Kampala","fr":"Kampala"}},{"country":"UG","name":"Kalisizo","admin1Code":"UG.C","latitude":-0.53639,"longitude":31.62139,"translations":{"pt":"Kalisizo","it":"Kalisizo","ru":"Kalisizo","uk":"Kalisizo","de":"Kalisizo","es":"Kalisizo","en":"Kalisizo","fr":"Kalisizo"}},{"country":"UG","name":"Kaliro","admin1Code":"UG.E","latitude":0.89444,"longitude":33.49944,"translations":{"pt":"Kaliro","it":"Kaliro","ru":"Kaliro","uk":"Kaliro","de":"Kaliro","es":"Kaliro","en":"Kaliro","fr":"Kaliro"}},{"country":"UG","name":"Kakumiro","admin1Code":"UG.W","latitude":0.78056,"longitude":31.32361,"translations":{"pt":"Kakumiro","it":"Kakumiro","ru":"Kakumiro","uk":"Kakumiro","de":"Kakumiro","es":"Kakumiro","en":"Kakumiro","fr":"Kakumiro"}},{"country":"UG","name":"Kakiri","admin1Code":"UG.C","latitude":0.41989,"longitude":32.39127,"translations":{"pt":"Kakiri","it":"Kakiri","ru":"Kakiri","uk":"Kakiri","de":"Kakiri","es":"Kakiri","en":"Kakiri","fr":"Kakiri"}},{"country":"UG","name":"Kakira","admin1Code":"UG.E","latitude":0.50833,"longitude":33.28778,"translations":{"pt":"Kakira","it":"Kakira","ru":"Kakira","uk":"Kakira","de":"Kakira","es":"Kakira","en":"Kakira","fr":"Kakira"}},{"country":"UG","name":"Kajansi","admin1Code":"UG.C","latitude":0.21548,"longitude":32.53453,"translations":{"pt":"Kajansi","it":"Kajansi","ru":"Kajansi","uk":"Kajansi","de":"Kajansi","es":"Kajansi","en":"Kajansi","fr":"Kajansi"}},{"country":"UG","name":"Kagadi","admin1Code":"UG.W","latitude":0.93778,"longitude":30.80889,"translations":{"pt":"Kagadi","it":"Kagadi","ru":"Kagadi","uk":"Kagadi","de":"Kagadi","es":"Kagadi","en":"Kagadi","fr":"Kagadi"}},{"country":"UG","name":"Кабале","admin1Code":"UG.W","latitude":-1.24857,"longitude":29.98993,"translations":{"pt":"Kabale","it":"Kabale","ru":"Кабале","uk":"Кабале","de":"Kabale","es":"Kabale","en":"Кабале","fr":"Kabale"}},{"country":"UG","name":"Джинджа","admin1Code":"UG.E","latitude":0.43902,"longitude":33.20317,"translations":{"pt":"Dzhyndzha","it":"Dzhyndzha","ru":"Джинджа","uk":"Джинджа","de":"Dzhyndzha","es":"Dzhyndzha","en":"Джинджа","fr":"Dzhyndzha"}},{"country":"UG","name":"Iryango","admin1Code":"UG.W","latitude":-0.96667,"longitude":30.6,"translations":{"pt":"Iryango","it":"Iryango","ru":"Iryango","uk":"Iryango","de":"Iryango","es":"Iryango","en":"Iryango","fr":"Iryango"}},{"country":"UG","name":"Iganga","admin1Code":"UG.E","latitude":0.60917,"longitude":33.46861,"translations":{"pt":"Iganga","it":"Iganga","ru":"Иганга","uk":"Iganga","de":"Iganga","es":"Iganga","en":"Iganga","fr":"Iganga"}},{"country":"UG","name":"Ibanda","admin1Code":"UG.W","latitude":-0.13398,"longitude":30.49616,"translations":{"pt":"Ibanda","it":"Ibanda","ru":"Ibanda","uk":"Ibanda","de":"Ibanda","es":"Ibanda","en":"Ibanda","fr":"Ibanda"}},{"country":"UG","name":"Hoima","admin1Code":"UG.W","latitude":1.43314,"longitude":31.35241,"translations":{"pt":"Hoima","it":"Hoima","ru":"Хоима","uk":"Hoima","de":"Hoima","es":"Hoima","en":"Hoima","fr":"Hoima"}},{"country":"UG","name":"Гул","admin1Code":"UG.N","latitude":2.77457,"longitude":32.29899,"translations":{"pt":"Hul","it":"Hul","ru":"Гул","uk":"Гул","de":"Hul","es":"Hul","en":"Гул","fr":"Hul"}},{"country":"UG","name":"Gombe","admin1Code":"UG.C","latitude":0.20333,"longitude":32.08806,"translations":{"pt":"Gombe","it":"Gombe","ru":"Gombe","uk":"Gombe","de":"Gombe","es":"Gombe","en":"Gombe","fr":"Gombe"}},{"country":"UG","name":"Fort portal","admin1Code":"UG.W","latitude":0.66174,"longitude":30.2748,"translations":{"pt":"Fort portal","it":"Fort portal","ru":"Форт-портал","uk":"Fort portal","de":"Fort portal","es":"Fort portal","en":"Fort portal","fr":"Fort portal"}},{"country":"UG","name":"Entebbe","admin1Code":"UG.C","latitude":0.05621,"longitude":32.47949,"translations":{"pt":"Entebbe","it":"Entebbe","ru":"Энтеббе","uk":"Ентеббе","de":"Entebbe","es":"Entebbe","en":"Entebbe","fr":"Entebbe"}},{"country":"UG","name":"Dokolo","admin1Code":"UG.N","latitude":1.89833,"longitude":33.1775,"translations":{"pt":"Dokolo","it":"Dokolo","ru":"Dokolo","uk":"Dokolo","de":"Dokolo","es":"Dokolo","en":"Dokolo","fr":"Dokolo"}},{"country":"UG","name":"Bwizibwera","admin1Code":"UG.W","latitude":-0.59167,"longitude":30.62861,"translations":{"pt":"Bwizibwera","it":"Bwizibwera","ru":"Bwizibwera","uk":"Bwizibwera","de":"Bwizibwera","es":"Bwizibwera","en":"Bwizibwera","fr":"Bwizibwera"}},{"country":"UG","name":"Buyende","admin1Code":"UG.E","latitude":1.15167,"longitude":33.155,"translations":{"pt":"Buyende","it":"Buyende","ru":"Buyende","uk":"Buyende","de":"Buyende","es":"Buyende","en":"Buyende","fr":"Buyende"}},{"country":"UG","name":"Buwenge","admin1Code":"UG.E","latitude":0.64996,"longitude":33.17128,"translations":{"pt":"Buwenge","it":"Buwenge","ru":"Buwenge","uk":"Buwenge","de":"Buwenge","es":"Buwenge","en":"Buwenge","fr":"Buwenge"}},{"country":"UG","name":"Butemba","admin1Code":"UG.C","latitude":1.15944,"longitude":31.61083,"translations":{"pt":"Butemba","it":"Butemba","ru":"Butemba","uk":"Butemba","de":"Butemba","es":"Butemba","en":"Butemba","fr":"Butemba"}},{"country":"UG","name":"Butaleja","admin1Code":"UG.E","latitude":0.91194,"longitude":33.95111,"translations":{"pt":"Butaleja","it":"Butaleja","ru":"Butaleja","uk":"Butaleja","de":"Butaleja","es":"Butaleja","en":"Butaleja","fr":"Butaleja"}},{"country":"UG","name":"Busolwe","admin1Code":"UG.E","latitude":0.85007,"longitude":33.92624,"translations":{"pt":"Busolwe","it":"Busolwe","ru":"Busolwe","uk":"Busolwe","de":"Busolwe","es":"Busolwe","en":"Busolwe","fr":"Busolwe"}},{"country":"UG","name":"Busia","admin1Code":"UG.E","latitude":0.46588,"longitude":34.09221,"translations":{"pt":"Busia","it":"Busia","ru":"Busia","uk":"Busia","de":"Busia","es":"Busia","en":"Busia","fr":"Busia"}},{"country":"UG","name":"Busesa","admin1Code":"UG.E","latitude":0.62631,"longitude":33.60027,"translations":{"pt":"Busesa","it":"Busesa","ru":"Busesa","uk":"Busesa","de":"Busesa","es":"Busesa","en":"Busesa","fr":"Busesa"}},{"country":"UG","name":"Busembatia","admin1Code":"UG.E","latitude":0.77725,"longitude":33.62364,"translations":{"pt":"Busembatia","it":"Busembatia","ru":"Busembatia","uk":"Busembatia","de":"Busembatia","es":"Busembatia","en":"Busembatia","fr":"Busembatia"}},{"country":"UG","name":"Bundibugyo","admin1Code":"UG.W","latitude":0.71117,"longitude":30.06469,"translations":{"pt":"Bundibugyo","it":"Bundibugyo","ru":"Bundibugyo","uk":"Bundibugyo","de":"Bundibugyo","es":"Bundibugyo","en":"Bundibugyo","fr":"Bundibugyo"}},{"country":"UG","name":"Bunamwaya","admin1Code":"UG.C","latitude":0.25344,"longitude":32.55723,"translations":{"pt":"Bunamwaya","it":"Bunamwaya","ru":"Bunamwaya","uk":"Bunamwaya","de":"Bunamwaya","es":"Bunamwaya","en":"Bunamwaya","fr":"Bunamwaya"}},{"country":"UG","name":"Bukomero","admin1Code":"UG.C","latitude":0.6975,"longitude":32.02861,"translations":{"pt":"Bukomero","it":"Bukomero","ru":"Bukomero","uk":"Bukomero","de":"Bukomero","es":"Bukomero","en":"Bukomero","fr":"Bukomero"}},{"country":"UG","name":"Buikwe","admin1Code":"UG.C","latitude":0.3375,"longitude":33.01056,"translations":{"pt":"Buikwe","it":"Buikwe","ru":"Buikwe","uk":"Buikwe","de":"Buikwe","es":"Buikwe","en":"Buikwe","fr":"Buikwe"}},{"country":"UG","name":"Buhimba","admin1Code":"UG.W","latitude":1.34722,"longitude":31.30806,"translations":{"pt":"Buhimba","it":"Buhimba","ru":"Buhimba","uk":"Buhimba","de":"Buhimba","es":"Buhimba","en":"Buhimba","fr":"Buhimba"}},{"country":"UG","name":"Buhesi","admin1Code":"UG.W","latitude":0.58105,"longitude":30.21011,"translations":{"pt":"Buhesi","it":"Buhesi","ru":"Buhesi","uk":"Buhesi","de":"Buhesi","es":"Buhesi","en":"Buhesi","fr":"Buhesi"}},{"country":"UG","name":"Bugiri","admin1Code":"UG.E","latitude":0.57139,"longitude":33.74167,"translations":{"pt":"Bugiri","it":"Bugiri","ru":"Bugiri","uk":"Bugiri","de":"Bugiri","es":"Bugiri","en":"Bugiri","fr":"Bugiri"}},{"country":"UG","name":"Bugembe","admin1Code":"UG.E","latitude":0.48213,"longitude":33.24065,"translations":{"pt":"Bugembe","it":"Bugembe","ru":"Bugembe","uk":"Bugembe","de":"Bugembe","es":"Bugembe","en":"Bugembe","fr":"Bugembe"}},{"country":"UG","name":"Budaka","admin1Code":"UG.E","latitude":1.00389,"longitude":33.92556,"translations":{"pt":"Budaka","it":"Budaka","ru":"Budaka","uk":"Budaka","de":"Budaka","es":"Budaka","en":"Budaka","fr":"Budaka"}},{"country":"UG","name":"Budadiri","admin1Code":"UG.E","latitude":1.14806,"longitude":34.32611,"translations":{"pt":"Budadiri","it":"Budadiri","ru":"Budadiri","uk":"Budadiri","de":"Budadiri","es":"Budadiri","en":"Budadiri","fr":"Budadiri"}},{"country":"UG","name":"Bombo","admin1Code":"UG.C","latitude":0.57387,"longitude":32.51545,"translations":{"pt":"Bombo","it":"Bombo","ru":"Bombo","uk":"Bombo","de":"Bombo","es":"Bombo","en":"Bombo","fr":"Bombo"}},{"country":"UG","name":"Arua","admin1Code":"UG.N","latitude":3.02013,"longitude":30.91105,"translations":{"pt":"Arua","it":"Arua","ru":"Аруа","uk":"Arua","de":"Arua","es":"Arua","en":"Arua","fr":"Arua"}},{"country":"UG","name":"Apac","admin1Code":"UG.N","latitude":1.97556,"longitude":32.53861,"translations":{"pt":"Apac","it":"Apac","ru":"Apac","uk":"Apac","de":"Apac","es":"Apac","en":"Apac","fr":"Apac"}},{"country":"UG","name":"Anaka","admin1Code":"UG.N","latitude":2.60114,"longitude":31.94749,"translations":{"pt":"Anaka","it":"Anaka","ru":"Anaka","uk":"Anaka","de":"Anaka","es":"Anaka","en":"Anaka","fr":"Anaka"}},{"country":"UG","name":"Adjumani","admin1Code":"UG.N","latitude":3.37786,"longitude":31.7909,"translations":{"pt":"Adjumani","it":"Adjumani","ru":"Adjumani","uk":"Adjumani","de":"Adjumani","es":"Adjumani","en":"Adjumani","fr":"Adjumani"}},{"country":"UG","name":"Abim","admin1Code":"UG.N","latitude":2.70167,"longitude":33.67611,"translations":{"pt":"Abim","it":"Abim","ru":"Abim","uk":"Abim","de":"Abim","es":"Abim","en":"Abim","fr":"Abim"}},{"country":"UG","name":"Ishaka","admin1Code":"UG.W","latitude":-0.54306,"longitude":30.13694,"translations":{"pt":"Ishaka","it":"Ishaka","ru":"Ishaka","uk":"Ishaka","de":"Ishaka","es":"Ishaka","en":"Ishaka","fr":"Ishaka"}},{"country":"UG","name":"Isingiro","admin1Code":"UG.W","latitude":-0.86864,"longitude":30.83019,"translations":{"pt":"Isingiro","it":"Isingiro","ru":"Isingiro","uk":"Isingiro","de":"Isingiro","es":"Isingiro","en":"Isingiro","fr":"Isingiro"}},{"country":"UG","name":"Manafwa","admin1Code":"UG.E","latitude":0.952,"longitude":34.27,"translations":{"pt":"Manafwa","it":"Manafwa","ru":"Manafwa","uk":"Manafwa","de":"Manafwa","es":"Manafwa","en":"Manafwa","fr":"Manafwa"}},{"country":"UG","name":"Opit","admin1Code":"UG.N","latitude":2.61112,"longitude":32.47559,"translations":{"pt":"Opit","it":"Opit","ru":"Opit","uk":"Opit","de":"Opit","es":"Opit","en":"Opit","fr":"Opit"}},{"country":"UG","name":"Buyale","admin1Code":"UG.W","latitude":1.93421,"longitude":32.11643,"translations":{"pt":"Buyale","it":"Buyale","ru":"Buyale","uk":"Buyale","de":"Buyale","es":"Buyale","en":"Buyale","fr":"Buyale"}},{"country":"UG","name":"Nakivale refugee camp","admin1Code":"UG.W","latitude":-0.74064,"longitude":30.99632,"translations":{"pt":"Nakivale refugee camp","it":"Nakivale refugee camp","ru":"Nakivale refugee camp","uk":"Nakivale refugee camp","de":"Nakivale refugee camp","es":"Nakivale refugee camp","en":"Nakivale refugee camp","fr":"Nakivale refugee camp"}},{"country":"UG","name":"Kisinga","admin1Code":"UG.W","latitude":0.07684,"longitude":29.86832,"translations":{"pt":"Kisinga","it":"Kisinga","ru":"Kisinga","uk":"Kisinga","de":"Kisinga","es":"Kisinga","en":"Kisinga","fr":"Kisinga"}},{"country":"UG","name":"Malaba","admin1Code":"UG.E","latitude":0.64444,"longitude":34.26056,"translations":{"pt":"Malaba","it":"Malaba","ru":"Malaba","uk":"Malaba","de":"Malaba","es":"Malaba","en":"Malaba","fr":"Malaba"}},{"country":"UG","name":"Rwiimi","admin1Code":"UG.W","latitude":0.37957,"longitude":30.23039,"translations":{"pt":"Rwiimi","it":"Rwiimi","ru":"Rwiimi","uk":"Rwiimi","de":"Rwiimi","es":"Rwiimi","en":"Rwiimi","fr":"Rwiimi"}},{"country":"UG","name":"Kyengera","admin1Code":"UG.C","latitude":0.29517,"longitude":32.50159,"translations":{"pt":"Kyengera","it":"Kyengera","ru":"Kyengera","uk":"Kyengera","de":"Kyengera","es":"Kyengera","en":"Kyengera","fr":"Kyengera"}},{"country":"UG","name":"Nansana","admin1Code":"UG.C","latitude":0.36389,"longitude":32.52861,"translations":{"pt":"Nansana","it":"Nansana","ru":"Nansana","uk":"Nansana","de":"Nansana","es":"Nansana","en":"Nansana","fr":"Nansana"}},{"country":"UG","name":"Namavundu","admin1Code":"UG.E","latitude":0.36402,"longitude":33.81759,"translations":{"pt":"Namavundu","it":"Namavundu","ru":"Namavundu","uk":"Namavundu","de":"Namavundu","es":"Namavundu","en":"Namavundu","fr":"Namavundu"}},{"country":"UG","name":"Muhorro","admin1Code":"UG.W","latitude":0.91513,"longitude":30.75078,"translations":{"pt":"Muhorro","it":"Muhorro","ru":"Muhorro","uk":"Muhorro","de":"Muhorro","es":"Muhorro","en":"Muhorro","fr":"Muhorro"}},{"country":"UG","name":"Butunduzi","admin1Code":"UG.W","latitude":0.55473,"longitude":30.85485,"translations":{"pt":"Butunduzi","it":"Butunduzi","ru":"Butunduzi","uk":"Butunduzi","de":"Butunduzi","es":"Butunduzi","en":"Butunduzi","fr":"Butunduzi"}},{"country":"UG","name":"Kiryandongo refugee camp","admin1Code":"UG.W","latitude":1.9399,"longitude":32.16605,"translations":{"pt":"Kiryandongo refugee camp","it":"Kiryandongo refugee camp","ru":"Kiryandongo refugee camp","uk":"Kiryandongo refugee camp","de":"Kiryandongo refugee camp","es":"Kiryandongo refugee camp","en":"Kiryandongo refugee camp","fr":"Kiryandongo refugee camp"}},{"country":"UG","name":"Kyaka ii refugee camp","admin1Code":"UG.W","latitude":0.36738,"longitude":31.10817,"translations":{"pt":"Kyaka ii refugee camp","it":"Kyaka ii refugee camp","ru":"Kyaka ii refugee camp","uk":"Kyaka ii refugee camp","de":"Kyaka ii refugee camp","es":"Kyaka ii refugee camp","en":"Kyaka ii refugee camp","fr":"Kyaka ii refugee camp"}},{"country":"UG","name":"Kyangwali refugee camp","admin1Code":"UG.W","latitude":1.18807,"longitude":30.78281,"translations":{"pt":"Kyangwali refugee camp","it":"Kyangwali refugee camp","ru":"Kyangwali refugee camp","uk":"Kyangwali refugee camp","de":"Kyangwali refugee camp","es":"Kyangwali refugee camp","en":"Kyangwali refugee camp","fr":"Kyangwali refugee camp"}},{"country":"UG","name":"Nyamunuka","admin1Code":"UG.W","latitude":-0.83487,"longitude":30.09216,"translations":{"pt":"Nyamunuka","it":"Nyamunuka","ru":"Nyamunuka","uk":"Nyamunuka","de":"Nyamunuka","es":"Nyamunuka","en":"Nyamunuka","fr":"Nyamunuka"}},{"country":"UG","name":"Rwamwanja refugee camp","admin1Code":"UG.W","latitude":0.34801,"longitude":30.65427,"translations":{"pt":"Rwamwanja refugee camp","it":"Rwamwanja refugee camp","ru":"Rwamwanja refugee camp","uk":"Rwamwanja refugee camp","de":"Rwamwanja refugee camp","es":"Rwamwanja refugee camp","en":"Rwamwanja refugee camp","fr":"Rwamwanja refugee camp"}}]