[{"country":"NO","name":"Alta","admin1Code":"NO.05","latitude":69.96887,"longitude":23.27165,"translations":{"pt":"Alta","it":"Alta","ru":"Алта","uk":"Алта","de":"Alta","es":"Alta","en":"Alta","fr":"Alta"}},{"country":"NO","name":"Trondheim","admin1Code":"NO.21","latitude":63.43049,"longitude":10.39506,"translations":{"pt":"Trondheim","it":"Trondheim","ru":"Тронхейм","uk":"Тронгейм","de":"Trondheim","es":"Trondheim","en":"Trondheim","fr":"Trondheim"}},{"country":"NO","name":"Tromsø","admin1Code":"NO.18","latitude":69.6489,"longitude":18.95508,"translations":{"pt":"Tromsø","it":"Tromsø","ru":"Тромсё","uk":"Тромсе","de":"Tromsø","es":"Tromsø","en":"Tromsø","fr":"Tromsø"}},{"country":"NO","name":"Tønsberg","admin1Code":"NO.20","latitude":59.26754,"longitude":10.40762,"translations":{"pt":"Tønsberg","it":"Tønsberg","ru":"Тёнсберг","uk":"Тенсберг","de":"Tønsberg","es":"Tønsberg","en":"Tønsberg","fr":"Tønsberg"}},{"country":"NO","name":"Stavanger","admin1Code":"NO.14","latitude":58.97005,"longitude":5.73332,"translations":{"pt":"Stavanger","it":"Stavanger","ru":"Ставангер","uk":"Stavanger","de":"Stavanger","es":"Stavanger","en":"Stavanger","fr":"Stavanger"}},{"country":"NO","name":"Skien","admin1Code":"NO.17","latitude":59.20962,"longitude":9.60897,"translations":{"pt":"Skien","it":"Skien","ru":"Шиен","uk":"Шієн","de":"Skien","es":"Skien","en":"Skien","fr":"Skien"}},{"country":"NO","name":"Sarpsborg","admin1Code":"NO.13","latitude":59.28391,"longitude":11.10962,"translations":{"pt":"Sarpsborg","it":"Sarpsborg","ru":"Сарпсборг","uk":"Сарпсборг","de":"Sarpsborg","es":"Sarpsborg","en":"Sarpsborg","fr":"Sarpsborg"}},{"country":"NO","name":"Sandnes","admin1Code":"NO.14","latitude":58.85244,"longitude":5.73521,"translations":{"pt":"Sandnes","it":"Sandnes","ru":"Sandnes","uk":"Sandnes","de":"Sandnes","es":"Sandnes","en":"Sandnes","fr":"Sandnes"}},{"country":"NO","name":"Sandefjord","admin1Code":"NO.20","latitude":59.13118,"longitude":10.21665,"translations":{"pt":"Sandefjord","it":"Sandefjord","ru":"Саннефьорд","uk":"Саннефіорд","de":"Sandefjord","es":"Sandefjord","en":"Sandefjord","fr":"Sandefjord"}},{"country":"NO","name":"Пушгрён","admin1Code":"NO.17","latitude":59.14054,"longitude":9.6561,"translations":{"pt":"Pushhrёn","it":"Pushhrёn","ru":"Пушгрён","uk":"Пушгрён","de":"Pushhrёn","es":"Pushhrёn","en":"Пушгрён","fr":"Pushhrёn"}},{"country":"NO","name":"Oslo","admin1Code":"NO.12","latitude":59.91273,"longitude":10.74609,"translations":{"pt":"Oslo","it":"Oslo","ru":"Осло","uk":"Осло","de":"Oslo","es":"Oslo","en":"Oslo","fr":"Oslo"}},{"country":"NO","name":"Nesttun","admin1Code":"NO.46","latitude":60.31821,"longitude":5.35317,"translations":{"pt":"Nesttun","it":"Nesttun","ru":"Nesttun","uk":"Nesttun","de":"Nesttun","es":"Nesttun","en":"Nesttun","fr":"Nesttun"}},{"country":"NO","name":"Moss","admin1Code":"NO.13","latitude":59.43403,"longitude":10.65771,"translations":{"pt":"Moss","it":"Moss","ru":"Мосс","uk":"Мосс","de":"Moss","es":"Moss","en":"Moss","fr":"Moss"}},{"country":"NO","name":"Molde","admin1Code":"NO.08","latitude":62.73752,"longitude":7.15912,"translations":{"pt":"Molde","it":"Molde","ru":"Молде","uk":"Молде","de":"Molde","es":"Molde","en":"Molde","fr":"Molde"}},{"country":"NO","name":"Mo i rana","admin1Code":"NO.09","latitude":66.31278,"longitude":14.14278,"translations":{"pt":"Mo i rana","it":"Mo i rana","ru":"Му-и-рана","uk":"Mo i rana","de":"Mo i rana","es":"Mo i rana","en":"Mo i rana","fr":"Mo i rana"}},{"country":"NO","name":"Lillestrøm","admin1Code":"NO.01","latitude":59.95597,"longitude":11.04918,"translations":{"pt":"Lillestrøm","it":"Lillestrøm","ru":"Лиллестрём","uk":"Ліллестрем","de":"Lillestrøm","es":"Lillestrøm","en":"Lillestrøm","fr":"Lillestrøm"}},{"country":"NO","name":"Lillehammer","admin1Code":"NO.34","latitude":61.11514,"longitude":10.46628,"translations":{"pt":"Lillehammer","it":"Lillehammer","ru":"Лиллехаммер","uk":"Ліллегаммер","de":"Lillehammer","es":"Lillehammer","en":"Lillehammer","fr":"Lillehammer"}},{"country":"NO","name":"Левангер","admin1Code":"NO.21","latitude":63.74644,"longitude":11.29963,"translations":{"pt":"Levanher","it":"Levanher","ru":"Левангер","uk":"Левангер","de":"Levanher","es":"Levanher","en":"Левангер","fr":"Levanher"}},{"country":"NO","name":"Larvik","admin1Code":"NO.20","latitude":59.05328,"longitude":10.03517,"translations":{"pt":"Larvik","it":"Larvik","ru":"Ларвик","uk":"Ларвік","de":"Larvik","es":"Larvik","en":"Larvik","fr":"Larvik"}},{"country":"NO","name":"Kristiansund","admin1Code":"NO.08","latitude":63.11045,"longitude":7.72795,"translations":{"pt":"Kristiansund","it":"Kristiansund","ru":"Кристиансунн","uk":"Kristiansund","de":"Kristiansund","es":"Kristiansund","en":"Kristiansund","fr":"Kristiansund"}},{"country":"NO","name":"Kristiansand","admin1Code":"NO.42","latitude":58.14671,"longitude":7.9956,"translations":{"pt":"Kristiansand","it":"Kristiansand","ru":"Кристиансанн","uk":"Kristiansand","de":"Kristiansand","es":"Kristiansand","en":"Kristiansand","fr":"Kristiansand"}},{"country":"NO","name":"Kongsberg","admin1Code":"NO.04","latitude":59.66858,"longitude":9.65017,"translations":{"pt":"Kongsberg","it":"Kongsberg","ru":"Конгсберг","uk":"Kongsberg","de":"Kongsberg","es":"Kongsberg","en":"Kongsberg","fr":"Kongsberg"}},{"country":"NO","name":"Horten","admin1Code":"NO.20","latitude":59.41721,"longitude":10.48343,"translations":{"pt":"Horten","it":"Horten","ru":"Хортен","uk":"Horten","de":"Horten","es":"Horten","en":"Horten","fr":"Horten"}},{"country":"NO","name":"Haugesund","admin1Code":"NO.14","latitude":59.41378,"longitude":5.268,"translations":{"pt":"Haugesund","it":"Haugesund","ru":"Хаугезунд","uk":"Гаугесун","de":"Haugesund","es":"Haugesund","en":"Haugesund","fr":"Haugesund"}},{"country":"NO","name":"Harstad","admin1Code":"NO.18","latitude":68.79833,"longitude":16.54165,"translations":{"pt":"Harstad","it":"Harstad","ru":"Харстад","uk":"Harstad","de":"Harstad","es":"Harstad","en":"Harstad","fr":"Harstad"}},{"country":"NO","name":"Hamar","admin1Code":"NO.34","latitude":60.7945,"longitude":11.06798,"translations":{"pt":"Hamar","it":"Hamar","ru":"Хамар","uk":"Гамар","de":"Hamar","es":"Hamar","en":"Hamar","fr":"Hamar"}},{"country":"NO","name":"Halden","admin1Code":"NO.13","latitude":59.12478,"longitude":11.38754,"translations":{"pt":"Halden","it":"Halden","ru":"Халден","uk":"Halden","de":"Halden","es":"Halden","en":"Halden","fr":"Halden"}},{"country":"NO","name":"Grimstad","admin1Code":"NO.42","latitude":58.3405,"longitude":8.59343,"translations":{"pt":"Grimstad","it":"Grimstad","ru":"Гримстад","uk":"Grimstad","de":"Grimstad","es":"Grimstad","en":"Grimstad","fr":"Grimstad"}},{"country":"NO","name":"Gjøvik","admin1Code":"NO.34","latitude":60.79574,"longitude":10.69155,"translations":{"pt":"Gjøvik","it":"Gjøvik","ru":"Йёвик","uk":"Gjøvik","de":"Gjøvik","es":"Gjøvik","en":"Gjøvik","fr":"Gjøvik"}},{"country":"NO","name":"Fredrikstad","admin1Code":"NO.13","latitude":59.2181,"longitude":10.9298,"translations":{"pt":"Fredrikstad","it":"Fredrikstad","ru":"Фредрикстад","uk":"Fredrikstad","de":"Fredrikstad","es":"Fredrikstad","en":"Fredrikstad","fr":"Fredrikstad"}},{"country":"NO","name":"Drammen","admin1Code":"NO.04","latitude":59.74389,"longitude":10.20449,"translations":{"pt":"Drammen","it":"Drammen","ru":"Драммен","uk":"Драммен","de":"Drammen","es":"Drammen","en":"Drammen","fr":"Drammen"}},{"country":"NO","name":"Bodø","admin1Code":"NO.09","latitude":67.28267,"longitude":14.37513,"translations":{"pt":"Bodø","it":"Bodø","ru":"Бодо","uk":"Буде","de":"Bodø","es":"Bodø","en":"Bodø","fr":"Bodø"}},{"country":"NO","name":"Bergen","admin1Code":"NO.46","latitude":60.39299,"longitude":5.32415,"translations":{"pt":"Bergen","it":"Bergen","ru":"Берген","uk":"Берген","de":"Bergen","es":"Bergen","en":"Bergen","fr":"Bergen"}},{"country":"NO","name":"Asker","admin1Code":"NO.01","latitude":59.83333,"longitude":10.43721,"translations":{"pt":"Asker","it":"Asker","ru":"Аскер","uk":"Asker","de":"Asker","es":"Asker","en":"Asker","fr":"Asker"}},{"country":"NO","name":"Arendal","admin1Code":"NO.42","latitude":58.46151,"longitude":8.77253,"translations":{"pt":"Arendal","it":"Arendal","ru":"Арендал","uk":"Арендал","de":"Arendal","es":"Arendal","en":"Arendal","fr":"Arendal"}},{"country":"NO","name":"Ålesund","admin1Code":"NO.08","latitude":62.47225,"longitude":6.15492,"translations":{"pt":"Ålesund","it":"Ålesund","ru":"Олесунн","uk":"Олесунн","de":"Ålesund","es":"Ålesund","en":"Ålesund","fr":"Ålesund"}},{"country":"NO","name":"Ytrebygda","admin1Code":"NO.46","latitude":60.30504,"longitude":5.28236,"translations":{"pt":"Ytrebygda","it":"Ytrebygda","ru":"Ytrebygda","uk":"Ytrebygda","de":"Ytrebygda","es":"Ytrebygda","en":"Ytrebygda","fr":"Ytrebygda"}}]