[{"country":"PY","name":"Yby yaú","admin1Code":"PY.07","latitude":-22.96611,"longitude":-56.54066,"translations":{"pt":"Yby yaú","it":"Yby yaú","ru":"Yby yaú","uk":"Yby yaú","de":"Yby yaú","es":"Yby yaú","en":"Yby yaú","fr":"Yby yaú"}},{"country":"PY","name":"Villarrica","admin1Code":"PY.10","latitude":-25.74946,"longitude":-56.43518,"translations":{"pt":"Villarrica","it":"Villarrica","ru":"Вильяррика","uk":"Вільярріка","de":"Villarrica","es":"Villarrica","en":"Villarrica","fr":"Villarrica"}},{"country":"PY","name":"Villa hayes","admin1Code":"PY.16","latitude":-25.09306,"longitude":-57.52361,"translations":{"pt":"Villa hayes","it":"Villa hayes","ru":"Villa hayes","uk":"Villa hayes","de":"Villa hayes","es":"Villa hayes","en":"Villa hayes","fr":"Villa hayes"}},{"country":"PY","name":"Villa elisa","admin1Code":"PY.06","latitude":-25.3676,"longitude":-57.59274,"translations":{"pt":"Villa elisa","it":"Villa elisa","ru":"Villa elisa","uk":"Villa elisa","de":"Villa elisa","es":"Villa elisa","en":"Villa elisa","fr":"Villa elisa"}},{"country":"PY","name":"San lorenzo","admin1Code":"PY.06","latitude":-25.33968,"longitude":-57.50879,"translations":{"pt":"San lorenzo","it":"San lorenzo","ru":"Сан-лоренсо","uk":"San lorenzo","de":"San lorenzo","es":"San lorenzo","en":"San lorenzo","fr":"San lorenzo"}},{"country":"PY","name":"San juan bautista","admin1Code":"PY.12","latitude":-26.66944,"longitude":-57.14583,"translations":{"pt":"San juan bautista","it":"San juan bautista","ru":"San juan bautista","uk":"San juan bautista","de":"San juan bautista","es":"San juan bautista","en":"San juan bautista","fr":"San juan bautista"}},{"country":"PY","name":"San antonio","admin1Code":"PY.06","latitude":-25.42126,"longitude":-57.54725,"translations":{"pt":"San antonio","it":"San antonio","ru":"San antonio","uk":"San antonio","de":"San antonio","es":"San antonio","en":"San antonio","fr":"San antonio"}},{"country":"PY","name":"Presidente franco","admin1Code":"PY.01","latitude":-25.56384,"longitude":-54.61097,"translations":{"pt":"Presidente franco","it":"Presidente franco","ru":"Presidente franco","uk":"Presidente franco","de":"Presidente franco","es":"Presidente franco","en":"Presidente franco","fr":"Presidente franco"}},{"country":"PY","name":"Пілар","admin1Code":"PY.13","latitude":-26.85874,"longitude":-58.30639,"translations":{"pt":"Pilar","it":"Pilar","ru":"Пилар","uk":"Пілар","de":"Pilar","es":"Pilar","en":"Пілар","fr":"Pilar"}},{"country":"PY","name":"Pedro juan caballero","admin1Code":"PY.02","latitude":-22.54722,"longitude":-55.73333,"translations":{"pt":"Pedro juan caballero","it":"Pedro juan caballero","ru":"Педро-хуан-кабальеро","uk":"Педро-хуан-кабальєро","de":"Pedro juan caballero","es":"Pedro juan caballero","en":"Pedro juan caballero","fr":"Pedro juan caballero"}},{"country":"PY","name":"Nemby","admin1Code":"PY.06","latitude":-25.3949,"longitude":-57.53574,"translations":{"pt":"Nemby","it":"Nemby","ru":"Nemby","uk":"Nemby","de":"Nemby","es":"Nemby","en":"Nemby","fr":"Nemby"}},{"country":"PY","name":"Limpio","admin1Code":"PY.06","latitude":-25.16611,"longitude":-57.48562,"translations":{"pt":"Limpio","it":"Limpio","ru":"Limpio","uk":"Limpio","de":"Limpio","es":"Limpio","en":"Limpio","fr":"Limpio"}},{"country":"PY","name":"Lambaré","admin1Code":"PY.06","latitude":-25.34682,"longitude":-57.60647,"translations":{"pt":"Lambaré","it":"Lambaré","ru":"Lambaré","uk":"Lambaré","de":"Lambaré","es":"Lambaré","en":"Lambaré","fr":"Lambaré"}},{"country":"PY","name":"Itauguá","admin1Code":"PY.06","latitude":-25.39258,"longitude":-57.35421,"translations":{"pt":"Itauguá","it":"Itauguá","ru":"Итаугуа","uk":"Itauguá","de":"Itauguá","es":"Itauguá","en":"Itauguá","fr":"Itauguá"}},{"country":"PY","name":"Itá","admin1Code":"PY.06","latitude":-25.50054,"longitude":-57.36717,"translations":{"pt":"Itá","it":"Itá","ru":"Itá","uk":"Itá","de":"Itá","es":"Itá","en":"Itá","fr":"Itá"}},{"country":"PY","name":"Fernando de la mora","admin1Code":"PY.06","latitude":-25.3386,"longitude":-57.52167,"translations":{"pt":"Fernando de la mora","it":"Fernando de la mora","ru":"Fernando de la mora","uk":"Fernando de la mora","de":"Fernando de la mora","es":"Fernando de la mora","en":"Fernando de la mora","fr":"Fernando de la mora"}},{"country":"PY","name":"Encarnación","admin1Code":"PY.11","latitude":-27.33056,"longitude":-55.86667,"translations":{"pt":"Encarnação","it":"Encarnación","ru":"Энкарнасьон","uk":"Енкарнасьйон","de":"Encarnación","es":"Encarnación","en":"Encarnación","fr":"Encarnación"}},{"country":"PY","name":"Коронель-овьедо","admin1Code":"PY.04","latitude":-25.44444,"longitude":-56.44028,"translations":{"pt":"Koronel'-ov'edo","it":"Koronel'-ov'edo","ru":"Коронель-овьедо","uk":"Коронель-овьєдо","de":"Koronel'-ov'edo","es":"Koronel'-ov'edo","en":"Коронель-овьедо","fr":"Koronel'-ov'edo"}},{"country":"PY","name":"Concepción","admin1Code":"PY.07","latitude":-23.39985,"longitude":-57.43236,"translations":{"pt":"Conceição","it":"Concepción","ru":"Консепсьон","uk":"Concepción","de":"Concepción","es":"Concepción","en":"Concepción","fr":"Concepción"}},{"country":"PY","name":"Mariano roque alonso","admin1Code":"PY.06","latitude":-25.20791,"longitude":-57.53202,"translations":{"pt":"Mariano roque alonso","it":"Mariano roque alonso","ru":"Mariano roque alonso","uk":"Mariano roque alonso","de":"Mariano roque alonso","es":"Mariano roque alonso","en":"Mariano roque alonso","fr":"Mariano roque alonso"}},{"country":"PY","name":"Ciudad del este","admin1Code":"PY.01","latitude":-25.50972,"longitude":-54.61111,"translations":{"pt":"Ciudad del este","it":"Ciudad del este","ru":"Сьюдад-дель-эсте","uk":"Сьюдад-дель-есте","de":"Ciudad del este","es":"Ciudad del este","en":"Ciudad del este","fr":"Ciudad del este"}},{"country":"PY","name":"Capiatá","admin1Code":"PY.06","latitude":-25.3552,"longitude":-57.44545,"translations":{"pt":"Capiatá","it":"Capiatá","ru":"Capiatá","uk":"Capiatá","de":"Capiatá","es":"Capiatá","en":"Capiatá","fr":"Capiatá"}},{"country":"PY","name":"Каазапа","admin1Code":"PY.05","latitude":-26.19583,"longitude":-56.36806,"translations":{"pt":"Kaazapa","it":"Kaazapa","ru":"Каазапа","uk":"Каазапа","de":"Kaazapa","es":"Kaazapa","en":"Каазапа","fr":"Kaazapa"}},{"country":"PY","name":"Caaguazú","admin1Code":"PY.04","latitude":-25.47104,"longitude":-56.01603,"translations":{"pt":"Caaguazú","it":"Caaguazú","ru":"Caaguazú","uk":"Caaguazú","de":"Caaguazú","es":"Caaguazú","en":"Caaguazú","fr":"Caaguazú"}},{"country":"PY","name":"Каакупе","admin1Code":"PY.08","latitude":-25.38575,"longitude":-57.14217,"translations":{"pt":"Kaakupe","it":"Kaakupe","ru":"Каакупе","uk":"Каакупе","de":"Kaakupe","es":"Kaakupe","en":"Каакупе","fr":"Kaakupe"}},{"country":"PY","name":"Asunción","admin1Code":"PY.22","latitude":-25.28646,"longitude":-57.647,"translations":{"pt":"Assunção","it":"Asunción","ru":"Асунсьон","uk":"Асунсьйон","de":"Asunción","es":"Asunción","en":"Asunción","fr":"Asunción"}},{"country":"PY","name":"Filadelfia","admin1Code":"PY.24","latitude":-22.33936,"longitude":-60.03157,"translations":{"pt":"Filadelfia","it":"Filadelfia","ru":"Filadelfia","uk":"Filadelfia","de":"Filadelfia","es":"Filadelfia","en":"Filadelfia","fr":"Filadelfia"}}]