[{"country":"PA","name":"Veracruz","admin1Code":"PA.13","latitude":8.89319,"longitude":-79.62338,"translations":{"pt":"Veracruz","it":"Veracruz","ru":"Veracruz","uk":"Veracruz","de":"Veracruz","es":"Veracruz","en":"Veracruz","fr":"Veracruz"}},{"country":"PA","name":"Tocumen","admin1Code":"PA.08","latitude":9.08939,"longitude":-79.3831,"translations":{"pt":"Tocumen","it":"Tocumen","ru":"Токумен","uk":"Tocumen","de":"Tocumen","es":"Tocumen","en":"Tocumen","fr":"Tocumen"}},{"country":"PA","name":"Santiago","admin1Code":"PA.10","latitude":8.1,"longitude":-80.98333,"translations":{"pt":"Santiago","it":"Santiago","ru":"Santiago","uk":"Santiago","de":"Santiago","es":"Santiago","en":"Santiago","fr":"Santiago"}},{"country":"PA","name":"San miguelito","admin1Code":"PA.08","latitude":9.05032,"longitude":-79.47068,"translations":{"pt":"San miguelito","it":"San miguelito","ru":"San miguelito","uk":"San miguelito","de":"San miguelito","es":"San miguelito","en":"San miguelito","fr":"San miguelito"}},{"country":"PA","name":"Sabanitas","admin1Code":"PA.04","latitude":9.34521,"longitude":-79.80543,"translations":{"pt":"Sabanitas","it":"Sabanitas","ru":"Sabanitas","uk":"Sabanitas","de":"Sabanitas","es":"Sabanitas","en":"Sabanitas","fr":"Sabanitas"}},{"country":"PA","name":"Río abajo","admin1Code":"PA.08","latitude":9.02397,"longitude":-79.49361,"translations":{"pt":"Río abajo","it":"Río abajo","ru":"Río abajo","uk":"Río abajo","de":"Río abajo","es":"Río abajo","en":"Río abajo","fr":"Río abajo"}},{"country":"PA","name":"Penonomé","admin1Code":"PA.03","latitude":8.51889,"longitude":-80.35727,"translations":{"pt":"Penonomé","it":"Penonomé","ru":"Penonomé","uk":"Penonomé","de":"Penonomé","es":"Penonomé","en":"Penonomé","fr":"Penonomé"}},{"country":"PA","name":"Pedregal","admin1Code":"PA.08","latitude":9.0661,"longitude":-79.42577,"translations":{"pt":"Pedregal","it":"Pedregal","ru":"Pedregal","uk":"Pedregal","de":"Pedregal","es":"Pedregal","en":"Pedregal","fr":"Pedregal"}},{"country":"PA","name":"Pedregal","admin1Code":"PA.02","latitude":8.37698,"longitude":-82.42947,"translations":{"pt":"Pedregal","it":"Pedregal","ru":"Pedregal","uk":"Pedregal","de":"Pedregal","es":"Pedregal","en":"Pedregal","fr":"Pedregal"}},{"country":"PA","name":"Parque lefevre","admin1Code":"PA.08","latitude":9.02266,"longitude":-79.47864,"translations":{"pt":"Parque lefevre","it":"Parque lefevre","ru":"Parque lefevre","uk":"Parque lefevre","de":"Parque lefevre","es":"Parque lefevre","en":"Parque lefevre","fr":"Parque lefevre"}},{"country":"PA","name":"Panama city","admin1Code":"PA.08","latitude":8.9936,"longitude":-79.51973,"translations":{"pt":"Panamá","it":"Panamá","ru":"Панама","uk":"Panama city","de":"Panama-stadt","es":"Panamá","en":"Panama city","fr":"Panamá"}},{"country":"PA","name":"Las cumbres","admin1Code":"PA.08","latitude":9.09211,"longitude":-79.53895,"translations":{"pt":"Las cumbres","it":"Las cumbres","ru":"Las cumbres","uk":"Las cumbres","de":"Las cumbres","es":"Las cumbres","en":"Las cumbres","fr":"Las cumbres"}},{"country":"PA","name":"La concepción","admin1Code":"PA.02","latitude":8.51667,"longitude":-82.62393,"translations":{"pt":"La concepción","it":"La concepción","ru":"La concepción","uk":"La concepción","de":"La concepción","es":"La concepción","en":"La concepción","fr":"La concepción"}},{"country":"PA","name":"La chorrera","admin1Code":"PA.13","latitude":8.88028,"longitude":-79.78333,"translations":{"pt":"La chorrera","it":"La chorrera","ru":"La chorrera","uk":"La chorrera","de":"La chorrera","es":"La chorrera","en":"La chorrera","fr":"La chorrera"}},{"country":"PA","name":"La cabima","admin1Code":"PA.08","latitude":9.118,"longitude":-79.53324,"translations":{"pt":"La cabima","it":"La cabima","ru":"La cabima","uk":"La cabima","de":"La cabima","es":"La cabima","en":"La cabima","fr":"La cabima"}},{"country":"PA","name":"Juan díaz","admin1Code":"PA.08","latitude":9.04059,"longitude":-79.44083,"translations":{"pt":"Juan díaz","it":"Juan díaz","ru":"Juan díaz","uk":"Juan díaz","de":"Juan díaz","es":"Juan díaz","en":"Juan díaz","fr":"Juan díaz"}},{"country":"PA","name":"El chorrillo","admin1Code":"PA.08","latitude":8.94964,"longitude":-79.54715,"translations":{"pt":"El chorrillo","it":"El chorrillo","ru":"El chorrillo","uk":"El chorrillo","de":"El chorrillo","es":"El chorrillo","en":"El chorrillo","fr":"El chorrillo"}},{"country":"PA","name":"David","admin1Code":"PA.02","latitude":8.42729,"longitude":-82.43085,"translations":{"pt":"David","it":"David","ru":"Дэвид","uk":"Давид","de":"David","es":"David","en":"David","fr":"David"}},{"country":"PA","name":"Curundú","admin1Code":"PA.08","latitude":8.97092,"longitude":-79.54612,"translations":{"pt":"Curundú","it":"Curundú","ru":"Curundú","uk":"Curundú","de":"Curundú","es":"Curundú","en":"Curundú","fr":"Curundú"}},{"country":"PA","name":"Colón","admin1Code":"PA.04","latitude":9.35451,"longitude":-79.90011,"translations":{"pt":"Colón","it":"Colón","ru":"Колон","uk":"Колон","de":"Colón","es":"Ciudad de colón","en":"Colón","fr":"Colón"}},{"country":"PA","name":"Chilibre","admin1Code":"PA.08","latitude":9.15403,"longitude":-79.62019,"translations":{"pt":"Chilibre","it":"Chilibre","ru":"Chilibre","uk":"Chilibre","de":"Chilibre","es":"Chilibre","en":"Chilibre","fr":"Chilibre"}},{"country":"PA","name":"Чангинола","admin1Code":"PA.01","latitude":9.43,"longitude":-82.52,"translations":{"pt":"Chanhynola","it":"Chanhynola","ru":"Чангинола","uk":"Чангинола","de":"Chanhynola","es":"Chanhynola","en":"Чангинола","fr":"Chanhynola"}},{"country":"PA","name":"Cativá","admin1Code":"PA.04","latitude":9.36218,"longitude":-79.83232,"translations":{"pt":"Cativá","it":"Cativá","ru":"Cativá","uk":"Cativá","de":"Cativá","es":"Cativá","en":"Cativá","fr":"Cativá"}},{"country":"PA","name":"Arraiján","admin1Code":"PA.13","latitude":8.9398,"longitude":-79.64038,"translations":{"pt":"Arraiján","it":"Arraiján","ru":"Arraiján","uk":"Arraiján","de":"Arraiján","es":"Arraiján","en":"Arraiján","fr":"Arraiján"}},{"country":"PA","name":"Ancón","admin1Code":"PA.08","latitude":8.96015,"longitude":-79.5514,"translations":{"pt":"Ancón","it":"Ancón","ru":"Ancón","uk":"Ancón","de":"Ancón","es":"Ancón","en":"Ancón","fr":"Ancón"}},{"country":"PA","name":"Alcalde díaz","admin1Code":"PA.08","latitude":9.12273,"longitude":-79.55667,"translations":{"pt":"Alcalde díaz","it":"Alcalde díaz","ru":"Alcalde díaz","uk":"Alcalde díaz","de":"Alcalde díaz","es":"Alcalde díaz","en":"Alcalde díaz","fr":"Alcalde díaz"}},{"country":"PA","name":"Nuevo belén","admin1Code":"PA.08","latitude":9.08929,"longitude":-79.39177,"translations":{"pt":"Nuevo belén","it":"Nuevo belén","ru":"Nuevo belén","uk":"Nuevo belén","de":"Nuevo belén","es":"Nuevo belén","en":"Nuevo belén","fr":"Nuevo belén"}}]