[{"country":"GF","name":"Сен-лоран-дю-марони","admin1Code":"GF.GF","latitude":5.50153,"longitude":-54.02916,"translations":{"pt":"Sen-loran-dju-marony","it":"Sen-loran-dju-marony","ru":"Сен-лоран-дю-марони","uk":"Сен-лоран-дю-мароні","de":"Sen-loran-dju-marony","es":"Sen-loran-dju-marony","en":"Сен-лоран-дю-марони","fr":"Saint-laurent-du-maroni"}},{"country":"GF","name":"Rémire-montjoly","admin1Code":"GF.GF","latitude":4.91667,"longitude":-52.26667,"translations":{"pt":"Rémire-montjoly","it":"Rémire-montjoly","ru":"Rémire-montjoly","uk":"Rémire-montjoly","de":"Rémire-montjoly","es":"Rémire-montjoly","en":"Rémire-montjoly","fr":"Rémire-montjoly"}},{"country":"GF","name":"Matoury","admin1Code":"GF.GF","latitude":4.84921,"longitude":-52.32355,"translations":{"pt":"Matoury","it":"Matoury","ru":"Matoury","uk":"Matoury","de":"Matoury","es":"Matoury","en":"Matoury","fr":"Matoury"}},{"country":"GF","name":"Kourou","admin1Code":"GF.GF","latitude":5.16281,"longitude":-52.64265,"translations":{"pt":"Kourou","it":"Kourou","ru":"Кур","uk":"Куру","de":"Kourou","es":"Kourou","en":"Kourou","fr":"Kourou"}},{"country":"GF","name":"Cayenne","admin1Code":"GF.GF","latitude":4.9381,"longitude":-52.33455,"translations":{"pt":"Caiena","it":"Caienna","ru":"Кайенна","uk":"Каєнна","de":"Cayenne","es":"Cayena","en":"Cayenne","fr":"Cayenne"}}]