[{"country":"HK","name":"Tsuen wan","admin1Code":"HK.NTW","latitude":22.37137,"longitude":114.11329,"translations":{"pt":"Tsuen wan","it":"Tsuen wan","ru":"Tsuen wan","uk":"Tsuen wan","de":"Tsuen wan","es":"Tsuen wan","en":"Tsuen wan","fr":"Tsuen wan"}},{"country":"HK","name":"Yuen long san hui","admin1Code":"HK.NYL","latitude":22.43333,"longitude":114.03333,"translations":{"pt":"Yuen long san hui","it":"Yuen long san hui","ru":"Yuen long san hui","uk":"Yuen long san hui","de":"Yuen long san hui","es":"Yuen long san hui","en":"Yuen long san hui","fr":"Yuen long san hui"}},{"country":"HK","name":"Yuen long kau hui","admin1Code":"HK.NYL","latitude":22.44831,"longitude":114.03199,"translations":{"pt":"Yuen long kau hui","it":"Yuen long kau hui","ru":"Yuen long kau hui","uk":"Yuen long kau hui","de":"Yuen long kau hui","es":"Yuen long kau hui","en":"Yuen long kau hui","fr":"Yuen long kau hui"}},{"country":"HK","name":"Yuen long","admin1Code":"HK.NYL","latitude":22.44518,"longitude":114.02621,"translations":{"pt":"Yuen long","it":"Yuen long","ru":"Yuen long","uk":"Yuen long","de":"Yuen long","es":"Yuen long","en":"Yuen long","fr":"Yuen long"}},{"country":"HK","name":"Yeung uk tsuen","admin1Code":"HK.NTW","latitude":22.45,"longitude":114.01667,"translations":{"pt":"Yeung uk tsuen","it":"Yeung uk tsuen","ru":"Yeung uk tsuen","uk":"Yeung uk tsuen","de":"Yeung uk tsuen","es":"Yeung uk tsuen","en":"Yeung uk tsuen","fr":"Yeung uk tsuen"}},{"country":"HK","name":"Yau tong","admin1Code":"HK.KKT","latitude":22.29569,"longitude":114.23599,"translations":{"pt":"Yau tong","it":"Yau tong","ru":"Yau tong","uk":"Yau tong","de":"Yau tong","es":"Yau tong","en":"Yau tong","fr":"Yau tong"}},{"country":"HK","name":"Yau ma tei","admin1Code":"HK.KYT","latitude":22.3138,"longitude":114.16857,"translations":{"pt":"Yau ma tei","it":"Yau ma tei","ru":"Yau ma tei","uk":"Yau ma tei","de":"Yau ma tei","es":"Yau ma tei","en":"Yau ma tei","fr":"Yau ma tei"}},{"country":"HK","name":"Wong tai sin","admin1Code":"HK.KWT","latitude":22.35,"longitude":114.18333,"translations":{"pt":"Wong tai sin","it":"Wong tai sin","ru":"Wong tai sin","uk":"Wong tai sin","de":"Wong tai sin","es":"Wong tai sin","en":"Wong tai sin","fr":"Wong tai sin"}},{"country":"HK","name":"Wo che","admin1Code":"HK.NST","latitude":22.39016,"longitude":114.19217,"translations":{"pt":"Wo che","it":"Wo che","ru":"Wo che","uk":"Wo che","de":"Wo che","es":"Wo che","en":"Wo che","fr":"Wo che"}},{"country":"HK","name":"Wang tau hom","admin1Code":"HK.KKC","latitude":22.3401,"longitude":114.18732,"translations":{"pt":"Wang tau hom","it":"Wang tau hom","ru":"Wang tau hom","uk":"Wang tau hom","de":"Wang tau hom","es":"Wang tau hom","en":"Wang tau hom","fr":"Wang tau hom"}},{"country":"HK","name":"Wan chai","admin1Code":"HK.HWC","latitude":22.28142,"longitude":114.17258,"translations":{"pt":"Wan chai","it":"Wan chai","ru":"Wan chai","uk":"Wan chai","de":"Wan chai","es":"Wan chai","en":"Wan chai","fr":"Wan chai"}},{"country":"HK","name":"Wah fu","admin1Code":"HK.HSO","latitude":22.25474,"longitude":114.13622,"translations":{"pt":"Wah fu","it":"Wah fu","ru":"Wah fu","uk":"Wah fu","de":"Wah fu","es":"Wah fu","en":"Wah fu","fr":"Wah fu"}},{"country":"HK","name":"Tuen mun san hui","admin1Code":"HK.NTM","latitude":22.39877,"longitude":113.97596,"translations":{"pt":"Tuen mun san hui","it":"Tuen mun san hui","ru":"Tuen mun san hui","uk":"Tuen mun san hui","de":"Tuen mun san hui","es":"Tuen mun san hui","en":"Tuen mun san hui","fr":"Tuen mun san hui"}},{"country":"HK","name":"Tuen mun","admin1Code":"HK.NTM","latitude":22.39175,"longitude":113.97157,"translations":{"pt":"Tuen mun","it":"Tuen mun","ru":"Tuen mun","uk":"Tuen mun","de":"Tuen mun","es":"Tuen mun","en":"Tuen mun","fr":"Tuen mun"}},{"country":"HK","name":"Tsz wan shan","admin1Code":"HK.KWT","latitude":22.35247,"longitude":114.20016,"translations":{"pt":"Tsz wan shan","it":"Tsz wan shan","ru":"Tsz wan shan","uk":"Tsz wan shan","de":"Tsz wan shan","es":"Tsz wan shan","en":"Tsz wan shan","fr":"Tsz wan shan"}},{"country":"HK","name":"Tsing yi","admin1Code":"HK.NKT","latitude":22.35,"longitude":114.1,"translations":{"pt":"Tsing yi","it":"Tsing yi","ru":"Tsing yi","uk":"Tsing yi","de":"Tsing yi","es":"Tsing yi","en":"Tsing yi","fr":"Tsing yi"}},{"country":"HK","name":"Tsim sha tsui","admin1Code":"HK.KKC","latitude":22.3,"longitude":114.16667,"translations":{"pt":"Tsim sha tsui","it":"Tsim sha tsui","ru":"Чимсачёй","uk":"Tsim sha tsui","de":"Tsim sha tsui","es":"Tsim sha tsui","en":"Tsim sha tsui","fr":"Tsim sha tsui"}},{"country":"HK","name":"Tseung kwan o","admin1Code":"HK.NSK","latitude":22.32789,"longitude":114.24992,"translations":{"pt":"Tseung kwan o","it":"Tseung kwan o","ru":"Tseung kwan o","uk":"Tseung kwan o","de":"Tseung kwan o","es":"Tseung kwan o","en":"Tseung kwan o","fr":"Tseung kwan o"}},{"country":"HK","name":"To kwa wan","admin1Code":"HK.KKC","latitude":22.31693,"longitude":114.19052,"translations":{"pt":"To kwa wan","it":"To kwa wan","ru":"To kwa wan","uk":"To kwa wan","de":"To kwa wan","es":"To kwa wan","en":"To kwa wan","fr":"To kwa wan"}},{"country":"HK","name":"Tiu keng leng","admin1Code":"HK.KKT","latitude":22.29853,"longitude":114.25115,"translations":{"pt":"Tiu keng leng","it":"Tiu keng leng","ru":"Tiu keng leng","uk":"Tiu keng leng","de":"Tiu keng leng","es":"Tiu keng leng","en":"Tiu keng leng","fr":"Tiu keng leng"}},{"country":"HK","name":"Tin wan","admin1Code":"HK.HSO","latitude":22.25113,"longitude":114.14726,"translations":{"pt":"Tin wan","it":"Tin wan","ru":"Tin wan","uk":"Tin wan","de":"Tin wan","es":"Tin wan","en":"Tin wan","fr":"Tin wan"}},{"country":"HK","name":"Tin shui wai","admin1Code":"HK.NYL","latitude":22.45679,"longitude":114.00234,"translations":{"pt":"Tin shui wai","it":"Tin shui wai","ru":"Tin shui wai","uk":"Tin shui wai","de":"Tin shui wai","es":"Tin shui wai","en":"Tin shui wai","fr":"Tin shui wai"}},{"country":"HK","name":"Ting kau","admin1Code":"HK.NTW","latitude":22.36956,"longitude":114.07907,"translations":{"pt":"Ting kau","it":"Ting kau","ru":"Ting kau","uk":"Ting kau","de":"Ting kau","es":"Ting kau","en":"Ting kau","fr":"Ting kau"}},{"country":"HK","name":"Tai wo hau","admin1Code":"HK.NKT","latitude":22.36718,"longitude":114.12347,"translations":{"pt":"Tai wo hau","it":"Tai wo hau","ru":"Tai wo hau","uk":"Tai wo hau","de":"Tai wo hau","es":"Tai wo hau","en":"Tai wo hau","fr":"Tai wo hau"}},{"country":"HK","name":"Tai wai","admin1Code":"HK.NST","latitude":22.37286,"longitude":114.17897,"translations":{"pt":"Tai wai","it":"Tai wai","ru":"Tai wai","uk":"Tai wai","de":"Tai wai","es":"Tai wai","en":"Tai wai","fr":"Tai wai"}},{"country":"HK","name":"Tai shui hang","admin1Code":"HK.NST","latitude":22.40631,"longitude":114.22385,"translations":{"pt":"Tai shui hang","it":"Tai shui hang","ru":"Tai shui hang","uk":"Tai shui hang","de":"Tai shui hang","es":"Tai shui hang","en":"Tai shui hang","fr":"Tai shui hang"}},{"country":"HK","name":"Tai po","admin1Code":"HK.NTP","latitude":22.45007,"longitude":114.16877,"translations":{"pt":"Tai po","it":"Tai po","ru":"Tai po","uk":"Tai po","de":"Tai po","es":"Tai po","en":"Tai po","fr":"Tai po"}},{"country":"HK","name":"Tai mei tuk","admin1Code":"HK.NTP","latitude":22.47447,"longitude":114.23458,"translations":{"pt":"Tai mei tuk","it":"Tai mei tuk","ru":"Tai mei tuk","uk":"Tai mei tuk","de":"Tai mei tuk","es":"Tai mei tuk","en":"Tai mei tuk","fr":"Tai mei tuk"}},{"country":"HK","name":"Tai kok tsui","admin1Code":"HK.KYT","latitude":22.32146,"longitude":114.163,"translations":{"pt":"Tai kok tsui","it":"Tai kok tsui","ru":"Tai kok tsui","uk":"Tai kok tsui","de":"Tai kok tsui","es":"Tai kok tsui","en":"Tai kok tsui","fr":"Tai kok tsui"}},{"country":"HK","name":"Siu lek yuen","admin1Code":"HK.NST","latitude":22.38174,"longitude":114.21256,"translations":{"pt":"Siu lek yuen","it":"Siu lek yuen","ru":"Siu lek yuen","uk":"Siu lek yuen","de":"Siu lek yuen","es":"Siu lek yuen","en":"Siu lek yuen","fr":"Siu lek yuen"}},{"country":"HK","name":"Shuen wan","admin1Code":"HK.NTP","latitude":22.46767,"longitude":114.20812,"translations":{"pt":"Shuen wan","it":"Shuen wan","ru":"Shuen wan","uk":"Shuen wan","de":"Shuen wan","es":"Shuen wan","en":"Shuen wan","fr":"Shuen wan"}},{"country":"HK","name":"Sheung shui","admin1Code":"HK.NNO","latitude":22.51667,"longitude":114.11667,"translations":{"pt":"Sheung shui","it":"Sheung shui","ru":"Sheung shui","uk":"Sheung shui","de":"Sheung shui","es":"Sheung shui","en":"Sheung shui","fr":"Sheung shui"}},{"country":"HK","name":"Shek o","admin1Code":"HK.HSO","latitude":22.23344,"longitude":114.25121,"translations":{"pt":"Shek o","it":"Shek o","ru":"Шек-о","uk":"Shek o","de":"Shek o","es":"Shek o","en":"Shek o","fr":"Shek o"}},{"country":"HK","name":"Shek lei","admin1Code":"HK.NKT","latitude":22.36613,"longitude":114.13982,"translations":{"pt":"Shek lei","it":"Shek lei","ru":"Shek lei","uk":"Shek lei","de":"Shek lei","es":"Shek lei","en":"Shek lei","fr":"Shek lei"}},{"country":"HK","name":"Shek kip mei","admin1Code":"HK.KSS","latitude":22.33146,"longitude":114.16799,"translations":{"pt":"Shek kip mei","it":"Shek kip mei","ru":"Shek kip mei","uk":"Shek kip mei","de":"Shek kip mei","es":"Shek kip mei","en":"Shek kip mei","fr":"Shek kip mei"}},{"country":"HK","name":"Sha tin wai","admin1Code":"HK.NST","latitude":22.37756,"longitude":114.19753,"translations":{"pt":"Sha tin wai","it":"Sha tin wai","ru":"Шатяньвэй","uk":"Sha tin wai","de":"Sha tin wai","es":"Sha tin wai","en":"Sha tin wai","fr":"Sha tin wai"}},{"country":"HK","name":"Shatin","admin1Code":"HK.NST","latitude":22.38333,"longitude":114.18333,"translations":{"pt":"Shatin","it":"Shatin","ru":"Shatin","uk":"Shatin","de":"Shatin","es":"Shatin","en":"Shatin","fr":"Shatin"}},{"country":"HK","name":"Sham tseng","admin1Code":"HK.NTW","latitude":22.36667,"longitude":114.05,"translations":{"pt":"Sham tseng","it":"Sham tseng","ru":"Sham tseng","uk":"Sham tseng","de":"Sham tseng","es":"Sham tseng","en":"Sham tseng","fr":"Sham tseng"}},{"country":"HK","name":"Sham shui po","admin1Code":"HK.KSS","latitude":22.33023,"longitude":114.15945,"translations":{"pt":"Sham shui po","it":"Sham shui po","ru":"Sham shui po","uk":"Sham shui po","de":"Sham shui po","es":"Sham shui po","en":"Sham shui po","fr":"Sham shui po"}},{"country":"HK","name":"Sau mau ping","admin1Code":"HK.KKT","latitude":22.3202,"longitude":114.23497,"translations":{"pt":"Sau mau ping","it":"Sau mau ping","ru":"Sau mau ping","uk":"Sau mau ping","de":"Sau mau ping","es":"Sau mau ping","en":"Sau mau ping","fr":"Sau mau ping"}},{"country":"HK","name":"San tin","admin1Code":"HK.NST","latitude":22.37193,"longitude":114.18385,"translations":{"pt":"San tin","it":"San tin","ru":"San tin","uk":"San tin","de":"San tin","es":"San tin","en":"San tin","fr":"San tin"}},{"country":"HK","name":"San tin","admin1Code":"HK.NYL","latitude":22.50166,"longitude":114.06932,"translations":{"pt":"San tin","it":"San tin","ru":"San tin","uk":"San tin","de":"San tin","es":"San tin","en":"San tin","fr":"San tin"}},{"country":"HK","name":"San po kong","admin1Code":"HK.KWT","latitude":22.33546,"longitude":114.19669,"translations":{"pt":"San po kong","it":"San po kong","ru":"San po kong","uk":"San po kong","de":"San po kong","es":"San po kong","en":"San po kong","fr":"San po kong"}},{"country":"HK","name":"Sai wan ho","admin1Code":"HK.HEA","latitude":22.28449,"longitude":114.2232,"translations":{"pt":"Sai wan ho","it":"Sai wan ho","ru":"Sai wan ho","uk":"Sai wan ho","de":"Sai wan ho","es":"Sai wan ho","en":"Sai wan ho","fr":"Sai wan ho"}},{"country":"HK","name":"Sai kung","admin1Code":"HK.NSK","latitude":22.38333,"longitude":114.26667,"translations":{"pt":"Sai kung","it":"Sai kung","ru":"Sai kung","uk":"Sai kung","de":"Sai kung","es":"Sai kung","en":"Sai kung","fr":"Sai kung"}},{"country":"HK","name":"Pok fu lam","admin1Code":"HK.HSO","latitude":22.26861,"longitude":114.12924,"translations":{"pt":"Pok fu lam","it":"Pok fu lam","ru":"Pok fu lam","uk":"Pok fu lam","de":"Pok fu lam","es":"Pok fu lam","en":"Pok fu lam","fr":"Pok fu lam"}},{"country":"HK","name":"Ping shan","admin1Code":"HK.NYL","latitude":22.44111,"longitude":114.00608,"translations":{"pt":"Ping shan","it":"Ping shan","ru":"Ping shan","uk":"Ping shan","de":"Ping shan","es":"Ping shan","en":"Ping shan","fr":"Ping shan"}},{"country":"HK","name":"San tung chung hang","admin1Code":"HK.NIS","latitude":22.27875,"longitude":113.94307,"translations":{"pt":"San tung chung hang","it":"San tung chung hang","ru":"San tung chung hang","uk":"San tung chung hang","de":"San tung chung hang","es":"San tung chung hang","en":"San tung chung hang","fr":"San tung chung hang"}},{"country":"HK","name":"Mount davis","admin1Code":"HK.HCW","latitude":22.27862,"longitude":114.11777,"translations":{"pt":"Mount davis","it":"Mount davis","ru":"Mount davis","uk":"Mount davis","de":"Mount davis","es":"Mount davis","en":"Mount davis","fr":"Mount davis"}},{"country":"HK","name":"Mong kok","admin1Code":"HK.KYT","latitude":22.31935,"longitude":114.17136,"translations":{"pt":"Mong kok","it":"Mong kok","ru":"Mong kok","uk":"Mong kok","de":"Mong kok","es":"Mong kok","en":"Mong kok","fr":"Mong kok"}},{"country":"HK","name":"Mid levels","admin1Code":"HK.HCW","latitude":22.28399,"longitude":114.14958,"translations":{"pt":"Mid levels","it":"Mid levels","ru":"Mid levels","uk":"Mid levels","de":"Mid levels","es":"Mid levels","en":"Mid levels","fr":"Mid levels"}},{"country":"HK","name":"Ma tau wai","admin1Code":"HK.KKC","latitude":22.32074,"longitude":114.18743,"translations":{"pt":"Ma tau wai","it":"Ma tau wai","ru":"Ma tau wai","uk":"Ma tau wai","de":"Ma tau wai","es":"Ma tau wai","en":"Ma tau wai","fr":"Ma tau wai"}},{"country":"HK","name":"Ma on shan","admin1Code":"HK.NST","latitude":22.40613,"longitude":114.24079,"translations":{"pt":"Ma on shan","it":"Ma on shan","ru":"Ma on shan","uk":"Ma on shan","de":"Ma on shan","es":"Ma on shan","en":"Ma on shan","fr":"Ma on shan"}},{"country":"HK","name":"Leighton hill","admin1Code":"HK.HWC","latitude":22.2761,"longitude":114.18398,"translations":{"pt":"Leighton hill","it":"Leighton hill","ru":"Leighton hill","uk":"Leighton hill","de":"Leighton hill","es":"Leighton hill","en":"Leighton hill","fr":"Leighton hill"}},{"country":"HK","name":"Lam tin","admin1Code":"HK.KKT","latitude":22.30933,"longitude":114.23634,"translations":{"pt":"Lam tin","it":"Lam tin","ru":"Lam tin","uk":"Lam tin","de":"Lam tin","es":"Lam tin","en":"Lam tin","fr":"Lam tin"}},{"country":"HK","name":"Kwun tong","admin1Code":"HK.KKT","latitude":22.31184,"longitude":114.22176,"translations":{"pt":"Kwun tong","it":"Kwun tong","ru":"Kwun tong","uk":"Kwun tong","de":"Kwun tong","es":"Kwun tong","en":"Kwun tong","fr":"Kwun tong"}},{"country":"HK","name":"Kwai chung","admin1Code":"HK.NKT","latitude":22.36828,"longitude":114.13877,"translations":{"pt":"Kwai chung","it":"Kwai chung","ru":"Kwai chung","uk":"Kwai chung","de":"Kwai chung","es":"Kwai chung","en":"Kwai chung","fr":"Kwai chung"}},{"country":"HK","name":"Kowloon tong","admin1Code":"HK.KKC","latitude":22.33312,"longitude":114.17969,"translations":{"pt":"Kowloon tong","it":"Kowloon tong","ru":"Kowloon tong","uk":"Kowloon tong","de":"Kowloon tong","es":"Kowloon tong","en":"Kowloon tong","fr":"Kowloon tong"}},{"country":"HK","name":"Kowloon","admin1Code":"HK.00","latitude":22.31667,"longitude":114.18333,"translations":{"pt":"Kowloon","it":"Kowloon","ru":"Цзюлун","uk":"Kowloon","de":"Kowloon","es":"Kowloon","en":"Kowloon","fr":"Kowloon"}},{"country":"HK","name":"Kam tin","admin1Code":"HK.NYL","latitude":22.44123,"longitude":114.06019,"translations":{"pt":"Kam tin","it":"Kam tin","ru":"Kam tin","uk":"Kam tin","de":"Kam tin","es":"Kam tin","en":"Kam tin","fr":"Kam tin"}},{"country":"HK","name":"Hong lok yuen","admin1Code":"HK.NTP","latitude":22.46315,"longitude":114.1552,"translations":{"pt":"Hong lok yuen","it":"Hong lok yuen","ru":"Hong lok yuen","uk":"Hong lok yuen","de":"Hong lok yuen","es":"Hong lok yuen","en":"Hong lok yuen","fr":"Hong lok yuen"}},{"country":"HK","name":"Hong kong","admin1Code":"HK","latitude":22.27832,"longitude":114.17469,"translations":{"pt":"Victoria","it":"Hong kong","ru":"Гонконг","uk":"Гонконг","de":"Hongkong","es":"Hong kong","en":"Hong kong","fr":"Hong kong"}},{"country":"HK","name":"Ho man tin","admin1Code":"HK.KKC","latitude":22.31584,"longitude":114.18181,"translations":{"pt":"Ho man tin","it":"Ho man tin","ru":"Ho man tin","uk":"Ho man tin","de":"Ho man tin","es":"Ho man tin","en":"Ho man tin","fr":"Ho man tin"}},{"country":"HK","name":"Aberdeen","admin1Code":"HK.HSO","latitude":22.24802,"longitude":114.15289,"translations":{"pt":"Aberdeen","it":"Aberdeen","ru":"Абердин","uk":"Абердін","de":"Aberdeen","es":"Aberdeen","en":"Aberdeen","fr":"Aberdeen"}},{"country":"HK","name":"Ha tsuen","admin1Code":"HK.NYL","latitude":22.44724,"longitude":113.9916,"translations":{"pt":"Ha tsuen","it":"Ha tsuen","ru":"Ha tsuen","uk":"Ha tsuen","de":"Ha tsuen","es":"Ha tsuen","en":"Ha tsuen","fr":"Ha tsuen"}},{"country":"HK","name":"Hang hau","admin1Code":"HK.NSK","latitude":22.31811,"longitude":114.26994,"translations":{"pt":"Hang hau","it":"Hang hau","ru":"Hang hau","uk":"Hang hau","de":"Hang hau","es":"Hang hau","en":"Hang hau","fr":"Hang hau"}},{"country":"HK","name":"Fo tan","admin1Code":"HK.NST","latitude":22.39846,"longitude":114.19293,"translations":{"pt":"Fo tan","it":"Fo tan","ru":"Фо тан","uk":"Fo tan","de":"Fo tan","es":"Fo tan","en":"Fo tan","fr":"Fo tan"}},{"country":"HK","name":"Fanling","admin1Code":"HK.NNO","latitude":22.49487,"longitude":114.13949,"translations":{"pt":"Fanling","it":"Fanling","ru":"Fanling","uk":"Fanling","de":"Fanling","es":"Fanling","en":"Fanling","fr":"Fanling"}},{"country":"HK","name":"Discovery bay","admin1Code":"HK.NIS","latitude":22.3,"longitude":114.01667,"translations":{"pt":"Discovery bay","it":"Discovery bay","ru":"Discovery bay","uk":"Discovery bay","de":"Discovery bay","es":"Discovery bay","en":"Discovery bay","fr":"Discovery bay"}},{"country":"HK","name":"Chuk yuen","admin1Code":"HK.KWT","latitude":22.34544,"longitude":114.19327,"translations":{"pt":"Chuk yuen","it":"Chuk yuen","ru":"Chuk yuen","uk":"Chuk yuen","de":"Chuk yuen","es":"Chuk yuen","en":"Chuk yuen","fr":"Chuk yuen"}},{"country":"HK","name":"Cheung chau","admin1Code":"HK.NIS","latitude":22.21085,"longitude":114.02787,"translations":{"pt":"Cheung chau","it":"Cheung chau","ru":"Cheung chau","uk":"Cheung chau","de":"Cheung chau","es":"Cheung chau","en":"Cheung chau","fr":"Cheung chau"}},{"country":"HK","name":"Stanley","admin1Code":"HK.HSO","latitude":22.21849,"longitude":114.21241,"translations":{"pt":"Stanley","it":"Stanley","ru":"Стэнли","uk":"Stanley","de":"Stanley","es":"Stanley","en":"Stanley","fr":"Stanley"}},{"country":"HK","name":"Victoria","admin1Code":"HK.HCW","latitude":22.2875,"longitude":114.14417,"translations":{"pt":"Victoria","it":"Victoria","ru":"Victoria","uk":"Victoria","de":"Victoria","es":"Victoria","en":"Victoria","fr":"Victoria"}},{"country":"HK","name":"Fortress hill","admin1Code":"HK.HEA","latitude":22.28858,"longitude":114.19417,"translations":{"pt":"Fortress hill","it":"Fortress hill","ru":"Fortress hill","uk":"Fortress hill","de":"Fortress hill","es":"Fortress hill","en":"Fortress hill","fr":"Fortress hill"}},{"country":"HK","name":"Jordan","admin1Code":"HK.KYT","latitude":22.30539,"longitude":114.17001,"translations":{"pt":"Jordan","it":"Jordan","ru":"Jordan","uk":"Jordan","de":"Jordan","es":"Jordan","en":"Jordan","fr":"Jordan"}},{"country":"HK","name":"Wong chuk hang","admin1Code":"HK.HSO","latitude":22.23981,"longitude":114.17001,"translations":{"pt":"Wong chuk hang","it":"Wong chuk hang","ru":"Wong chuk hang","uk":"Wong chuk hang","de":"Wong chuk hang","es":"Wong chuk hang","en":"Wong chuk hang","fr":"Wong chuk hang"}},{"country":"HK","name":"Tai koo","admin1Code":"HK.HEA","latitude":22.2841,"longitude":114.21631,"translations":{"pt":"Tai koo","it":"Tai koo","ru":"Tai koo","uk":"Tai koo","de":"Tai koo","es":"Tai koo","en":"Tai koo","fr":"Tai koo"}},{"country":"HK","name":"Tung chung","admin1Code":"HK.NIS","latitude":22.28783,"longitude":113.94243,"translations":{"pt":"Tung chung","it":"Tung chung","ru":"Tung chung","uk":"Tung chung","de":"Tung chung","es":"Tung chung","en":"Tung chung","fr":"Tung chung"}},{"country":"HK","name":"Sung wong toi","admin1Code":"HK.KKC","latitude":22.32466,"longitude":114.19149,"translations":{"pt":"Sung wong toi","it":"Sung wong toi","ru":"Sung wong toi","uk":"Sung wong toi","de":"Sung wong toi","es":"Sung wong toi","en":"Sung wong toi","fr":"Sung wong toi"}},{"country":"HK","name":"So uk","admin1Code":"HK.KSS","latitude":22.34131,"longitude":114.15679,"translations":{"pt":"So uk","it":"So uk","ru":"So uk","uk":"So uk","de":"So uk","es":"So uk","en":"So uk","fr":"So uk"}},{"country":"HK","name":"City one","admin1Code":"HK.NST","latitude":22.38679,"longitude":114.20275,"translations":{"pt":"City one","it":"City one","ru":"City one","uk":"City one","de":"City one","es":"City one","en":"City one","fr":"City one"}},{"country":"HK","name":"Mei foo","admin1Code":"HK.KSS","latitude":22.33719,"longitude":114.13856,"translations":{"pt":"Mei foo","it":"Mei foo","ru":"Mei foo","uk":"Mei foo","de":"Mei foo","es":"Mei foo","en":"Mei foo","fr":"Mei foo"}},{"country":"HK","name":"Kadoorie","admin1Code":"HK.KKC","latitude":22.32247,"longitude":114.17556,"translations":{"pt":"Kadoorie","it":"Kadoorie","ru":"Kadoorie","uk":"Kadoorie","de":"Kadoorie","es":"Kadoorie","en":"Kadoorie","fr":"Kadoorie"}},{"country":"HK","name":"Kai tak","admin1Code":"HK.KKC","latitude":22.32425,"longitude":114.19741,"translations":{"pt":"Kai tak","it":"Kai tak","ru":"Kai tak","uk":"Kai tak","de":"Kai tak","es":"Kai tak","en":"Kai tak","fr":"Kai tak"}},{"country":"HK","name":"The peak","admin1Code":"HK.HCW","latitude":22.26202,"longitude":114.15649,"translations":{"pt":"The peak","it":"The peak","ru":"The peak","uk":"The peak","de":"The peak","es":"The peak","en":"The peak","fr":"The peak"}},{"country":"HK","name":"Lei tung","admin1Code":"HK.HSO","latitude":22.24052,"longitude":114.15757,"translations":{"pt":"Lei tung","it":"Lei tung","ru":"Lei tung","uk":"Lei tung","de":"Lei tung","es":"Lei tung","en":"Lei tung","fr":"Lei tung"}},{"country":"HK","name":"Pok hong","admin1Code":"HK.NST","latitude":22.37558,"longitude":114.19584,"translations":{"pt":"Pok hong","it":"Pok hong","ru":"Pok hong","uk":"Pok hong","de":"Pok hong","es":"Pok hong","en":"Pok hong","fr":"Pok hong"}},{"country":"HK","name":"Shui chuen o","admin1Code":"HK.NST","latitude":22.37161,"longitude":114.19778,"translations":{"pt":"Shui chuen o","it":"Shui chuen o","ru":"Shui chuen o","uk":"Shui chuen o","de":"Shui chuen o","es":"Shui chuen o","en":"Shui chuen o","fr":"Shui chuen o"}},{"country":"HK","name":"Prince edward","admin1Code":"HK.KKC","latitude":22.3236,"longitude":114.17938,"translations":{"pt":"Prince edward","it":"Prince edward","ru":"Prince edward","uk":"Prince edward","de":"Prince edward","es":"Prince edward","en":"Prince edward","fr":"Prince edward"}},{"country":"HK","name":"Discovery park","admin1Code":"HK.NTW","latitude":22.37621,"longitude":114.11141,"translations":{"pt":"Discovery park","it":"Discovery park","ru":"Discovery park","uk":"Discovery park","de":"Discovery park","es":"Discovery park","en":"Discovery park","fr":"Discovery park"}},{"country":"HK","name":"Nam cheong","admin1Code":"HK.KSS","latitude":22.32799,"longitude":114.15389,"translations":{"pt":"Nam cheong","it":"Nam cheong","ru":"Nam cheong","uk":"Nam cheong","de":"Nam cheong","es":"Nam cheong","en":"Nam cheong","fr":"Nam cheong"}},{"country":"HK","name":"Olympic","admin1Code":"HK.KYT","latitude":22.31939,"longitude":114.15736,"translations":{"pt":"Olympic","it":"Olympic","ru":"Olympic","uk":"Olympic","de":"Olympic","es":"Olympic","en":"Olympic","fr":"Olympic"}},{"country":"HK","name":"Whampoa","admin1Code":"HK.KKC","latitude":22.30504,"longitude":114.19021,"translations":{"pt":"Whampoa","it":"Whampoa","ru":"Whampoa","uk":"Whampoa","de":"Whampoa","es":"Whampoa","en":"Whampoa","fr":"Whampoa"}},{"country":"HK","name":"Laguna city","admin1Code":"HK.KKT","latitude":22.30554,"longitude":114.22861,"translations":{"pt":"Laguna city","it":"Laguna city","ru":"Laguna city","uk":"Laguna city","de":"Laguna city","es":"Laguna city","en":"Laguna city","fr":"Laguna city"}},{"country":"HK","name":"Choi wan","admin1Code":"HK.KWT","latitude":22.33385,"longitude":114.21368,"translations":{"pt":"Choi wan","it":"Choi wan","ru":"Choi wan","uk":"Choi wan","de":"Choi wan","es":"Choi wan","en":"Choi wan","fr":"Choi wan"}},{"country":"HK","name":"Sun tin wai","admin1Code":"HK.NST","latitude":22.37058,"longitude":114.18696,"translations":{"pt":"Sun tin wai","it":"Sun tin wai","ru":"Sun tin wai","uk":"Sun tin wai","de":"Sun tin wai","es":"Sun tin wai","en":"Sun tin wai","fr":"Sun tin wai"}},{"country":"HK","name":"Pat heung","admin1Code":"HK.NYL","latitude":22.4461,"longitude":114.09226,"translations":{"pt":"Pat heung","it":"Pat heung","ru":"Pat heung","uk":"Pat heung","de":"Pat heung","es":"Pat heung","en":"Pat heung","fr":"Pat heung"}},{"country":"HK","name":"Butterfly","admin1Code":"HK.NTM","latitude":22.37591,"longitude":113.96251,"translations":{"pt":"Butterfly","it":"Butterfly","ru":"Butterfly","uk":"Butterfly","de":"Butterfly","es":"Butterfly","en":"Butterfly","fr":"Butterfly"}},{"country":"HK","name":"Fairview park","admin1Code":"HK.NYL","latitude":22.46738,"longitude":114.04766,"translations":{"pt":"Fairview park","it":"Fairview park","ru":"Fairview park","uk":"Fairview park","de":"Fairview park","es":"Fairview park","en":"Fairview park","fr":"Fairview park"}},{"country":"HK","name":"Shap pat heung","admin1Code":"HK.NYL","latitude":22.4248,"longitude":114.03581,"translations":{"pt":"Shap pat heung","it":"Shap pat heung","ru":"Shap pat heung","uk":"Shap pat heung","de":"Shap pat heung","es":"Shap pat heung","en":"Shap pat heung","fr":"Shap pat heung"}},{"country":"HK","name":"South horizons","admin1Code":"HK.HSO","latitude":22.24383,"longitude":114.14828,"translations":{"pt":"South horizons","it":"South horizons","ru":"South horizons","uk":"South horizons","de":"South horizons","es":"South horizons","en":"South horizons","fr":"South horizons"}},{"country":"HK","name":"Lohas park","admin1Code":"HK.NSK","latitude":22.29315,"longitude":114.27245,"translations":{"pt":"Lohas park","it":"Lohas park","ru":"Lohas park","uk":"Lohas park","de":"Lohas park","es":"Lohas park","en":"Lohas park","fr":"Lohas park"}},{"country":"HK","name":"Braemar hill","admin1Code":"HK.HEA","latitude":22.28282,"longitude":114.20034,"translations":{"pt":"Braemar hill","it":"Braemar hill","ru":"Braemar hill","uk":"Braemar hill","de":"Braemar hill","es":"Braemar hill","en":"Braemar hill","fr":"Braemar hill"}},{"country":"HK","name":"Hok yuen","admin1Code":"HK.KKC","latitude":22.31027,"longitude":114.18816,"translations":{"pt":"Hok yuen","it":"Hok yuen","ru":"Hok yuen","uk":"Hok yuen","de":"Hok yuen","es":"Hok yuen","en":"Hok yuen","fr":"Hok yuen"}},{"country":"HK","name":"Laguna verde","admin1Code":"HK.KKC","latitude":22.30719,"longitude":114.19071,"translations":{"pt":"Laguna verde","it":"Laguna verde","ru":"Laguna verde","uk":"Laguna verde","de":"Laguna verde","es":"Laguna verde","en":"Laguna verde","fr":"Laguna verde"}},{"country":"HK","name":"Wu kai sha","admin1Code":"HK.NST","latitude":22.43016,"longitude":114.24212,"translations":{"pt":"Wu kai sha","it":"Wu kai sha","ru":"Wu kai sha","uk":"Wu kai sha","de":"Wu kai sha","es":"Wu kai sha","en":"Wu kai sha","fr":"Wu kai sha"}},{"country":"HK","name":"Lee on","admin1Code":"HK.NST","latitude":22.42635,"longitude":114.24133,"translations":{"pt":"Lee on","it":"Lee on","ru":"Lee on","uk":"Lee on","de":"Lee on","es":"Lee on","en":"Lee on","fr":"Lee on"}},{"country":"HK","name":"Kam ying","admin1Code":"HK.NST","latitude":22.42285,"longitude":114.23664,"translations":{"pt":"Kam ying","it":"Kam ying","ru":"Kam ying","uk":"Kam ying","de":"Kam ying","es":"Kam ying","en":"Kam ying","fr":"Kam ying"}},{"country":"HK","name":"Sam shing","admin1Code":"HK.NTM","latitude":22.38128,"longitude":113.97872,"translations":{"pt":"Sam shing","it":"Sam shing","ru":"Sam shing","uk":"Sam shing","de":"Sam shing","es":"Sam shing","en":"Sam shing","fr":"Sam shing"}},{"country":"HK","name":"Aldrich bay","admin1Code":"HK.HEA","latitude":22.28203,"longitude":114.22474,"translations":{"pt":"Aldrich bay","it":"Aldrich bay","ru":"Aldrich bay","uk":"Aldrich bay","de":"Aldrich bay","es":"Aldrich bay","en":"Aldrich bay","fr":"Aldrich bay"}},{"country":"HK","name":"City garden","admin1Code":"HK.HEA","latitude":22.28997,"longitude":114.19259,"translations":{"pt":"City garden","it":"City garden","ru":"City garden","uk":"City garden","de":"City garden","es":"City garden","en":"City garden","fr":"City garden"}},{"country":"HK","name":"Keng hau","admin1Code":"HK.NST","latitude":22.36507,"longitude":114.17472,"translations":{"pt":"Keng hau","it":"Keng hau","ru":"Keng hau","uk":"Keng hau","de":"Keng hau","es":"Keng hau","en":"Keng hau","fr":"Keng hau"}},{"country":"HK","name":"Un chau estate","admin1Code":"HK.KSS","latitude":22.33633,"longitude":114.15616,"translations":{"pt":"Un chau estate","it":"Un chau estate","ru":"Un chau estate","uk":"Un chau estate","de":"Un chau estate","es":"Un chau estate","en":"Un chau estate","fr":"Un chau estate"}},{"country":"HK","name":"Pak tin estate","admin1Code":"HK.KSS","latitude":22.33713,"longitude":114.16673,"translations":{"pt":"Pak tin estate","it":"Pak tin estate","ru":"Pak tin estate","uk":"Pak tin estate","de":"Pak tin estate","es":"Pak tin estate","en":"Pak tin estate","fr":"Pak tin estate"}},{"country":"HK","name":"Shek kip mei estate","admin1Code":"HK.KSS","latitude":22.33412,"longitude":114.16531,"translations":{"pt":"Shek kip mei estate","it":"Shek kip mei estate","ru":"Shek kip mei estate","uk":"Shek kip mei estate","de":"Shek kip mei estate","es":"Shek kip mei estate","en":"Shek kip mei estate","fr":"Shek kip mei estate"}},{"country":"HK","name":"Mei foo sun chuen","admin1Code":"HK.KSS","latitude":22.33636,"longitude":114.14018,"translations":{"pt":"Mei foo sun chuen","it":"Mei foo sun chuen","ru":"Mei foo sun chuen","uk":"Mei foo sun chuen","de":"Mei foo sun chuen","es":"Mei foo sun chuen","en":"Mei foo sun chuen","fr":"Mei foo sun chuen"}},{"country":"HK","name":"Hoi lai estate","admin1Code":"HK.KSS","latitude":22.33182,"longitude":114.14667,"translations":{"pt":"Hoi lai estate","it":"Hoi lai estate","ru":"Hoi lai estate","uk":"Hoi lai estate","de":"Hoi lai estate","es":"Hoi lai estate","en":"Hoi lai estate","fr":"Hoi lai estate"}},{"country":"HK","name":"Fu cheong estate","admin1Code":"HK.KSS","latitude":22.32891,"longitude":114.15399,"translations":{"pt":"Fu cheong estate","it":"Fu cheong estate","ru":"Fu cheong estate","uk":"Fu cheong estate","de":"Fu cheong estate","es":"Fu cheong estate","en":"Fu cheong estate","fr":"Fu cheong estate"}},{"country":"HK","name":"So uk estate","admin1Code":"HK.KSS","latitude":22.34153,"longitude":114.15653,"translations":{"pt":"So uk estate","it":"So uk estate","ru":"So uk estate","uk":"So uk estate","de":"So uk estate","es":"So uk estate","en":"So uk estate","fr":"So uk estate"}},{"country":"HK","name":"Siu sai wan estate","admin1Code":"HK.HEA","latitude":22.26155,"longitude":114.24881,"translations":{"pt":"Siu sai wan estate","it":"Siu sai wan estate","ru":"Siu sai wan estate","uk":"Siu sai wan estate","de":"Siu sai wan estate","es":"Siu sai wan estate","en":"Siu sai wan estate","fr":"Siu sai wan estate"}},{"country":"HK","name":"Taikoo shing","admin1Code":"HK.HEA","latitude":22.28613,"longitude":114.2187,"translations":{"pt":"Taikoo shing","it":"Taikoo shing","ru":"Taikoo shing","uk":"Taikoo shing","de":"Taikoo shing","es":"Taikoo shing","en":"Taikoo shing","fr":"Taikoo shing"}},{"country":"HK","name":"Heng fa chuen","admin1Code":"HK.HEA","latitude":22.27668,"longitude":114.24077,"translations":{"pt":"Heng fa chuen","it":"Heng fa chuen","ru":"Heng fa chuen","uk":"Heng fa chuen","de":"Heng fa chuen","es":"Heng fa chuen","en":"Heng fa chuen","fr":"Heng fa chuen"}},{"country":"HK","name":"Yiu tung estate","admin1Code":"HK.HEA","latitude":22.27849,"longitude":114.22299,"translations":{"pt":"Yiu tung estate","it":"Yiu tung estate","ru":"Yiu tung estate","uk":"Yiu tung estate","de":"Yiu tung estate","es":"Yiu tung estate","en":"Yiu tung estate","fr":"Yiu tung estate"}},{"country":"HK","name":"Lei tung estate","admin1Code":"HK.HSO","latitude":22.24115,"longitude":114.15523,"translations":{"pt":"Lei tung estate","it":"Lei tung estate","ru":"Lei tung estate","uk":"Lei tung estate","de":"Lei tung estate","es":"Lei tung estate","en":"Lei tung estate","fr":"Lei tung estate"}},{"country":"HK","name":"South horizons (estate)","admin1Code":"HK.HSO","latitude":22.24411,"longitude":114.14616,"translations":{"pt":"South horizons (estate)","it":"South horizons (estate)","ru":"South horizons (estate)","uk":"South horizons (estate)","de":"South horizons (estate)","es":"South horizons (estate)","en":"South horizons (estate)","fr":"South horizons (estate)"}},{"country":"HK","name":"Whampoa garden","admin1Code":"HK.KKC","latitude":22.30534,"longitude":114.18936,"translations":{"pt":"Whampoa garden","it":"Whampoa garden","ru":"Whampoa garden","uk":"Whampoa garden","de":"Whampoa garden","es":"Whampoa garden","en":"Whampoa garden","fr":"Whampoa garden"}},{"country":"HK","name":"Oi man estate","admin1Code":"HK.KKC","latitude":22.31197,"longitude":114.17853,"translations":{"pt":"Oi man estate","it":"Oi man estate","ru":"Oi man estate","uk":"Oi man estate","de":"Oi man estate","es":"Oi man estate","en":"Oi man estate","fr":"Oi man estate"}},{"country":"HK","name":"Tak long estate","admin1Code":"HK.KKC","latitude":22.3302,"longitude":114.20338,"translations":{"pt":"Tak long estate","it":"Tak long estate","ru":"Tak long estate","uk":"Tak long estate","de":"Tak long estate","es":"Tak long estate","en":"Tak long estate","fr":"Tak long estate"}},{"country":"HK","name":"Chuk yuen north estate","admin1Code":"HK.KWT","latitude":22.34592,"longitude":114.19197,"translations":{"pt":"Chuk yuen north estate","it":"Chuk yuen north estate","ru":"Chuk yuen north estate","uk":"Chuk yuen north estate","de":"Chuk yuen north estate","es":"Chuk yuen north estate","en":"Chuk yuen north estate","fr":"Chuk yuen north estate"}},{"country":"HK","name":"Tung tau estate","admin1Code":"HK.KWT","latitude":22.33212,"longitude":114.19277,"translations":{"pt":"Tung tau estate","it":"Tung tau estate","ru":"Tung tau estate","uk":"Tung tau estate","de":"Tung tau estate","es":"Tung tau estate","en":"Tung tau estate","fr":"Tung tau estate"}},{"country":"HK","name":"Choi hung estate","admin1Code":"HK.KWT","latitude":22.33636,"longitude":114.20581,"translations":{"pt":"Choi hung estate","it":"Choi hung estate","ru":"Choi hung estate","uk":"Choi hung estate","de":"Choi hung estate","es":"Choi hung estate","en":"Choi hung estate","fr":"Choi hung estate"}},{"country":"HK","name":"Choi wan estate (i & ii)","admin1Code":"HK.KWT","latitude":22.33337,"longitude":114.21331,"translations":{"pt":"Choi wan estate (i & ii)","it":"Choi wan estate (i & ii)","ru":"Choi wan estate (i & ii)","uk":"Choi wan estate (i & ii)","de":"Choi wan estate (i & ii)","es":"Choi wan estate (i & ii)","en":"Choi wan estate (i & ii)","fr":"Choi wan estate (i & ii)"}},{"country":"HK","name":"Lower wong tai sin estate (i & ii)","admin1Code":"HK.KWT","latitude":22.33923,"longitude":114.19441,"translations":{"pt":"Lower wong tai sin estate (i & ii)","it":"Lower wong tai sin estate (i & ii)","ru":"Lower wong tai sin estate (i & ii)","uk":"Lower wong tai sin estate (i & ii)","de":"Lower wong tai sin estate (i & ii)","es":"Lower wong tai sin estate (i & ii)","en":"Lower wong tai sin estate (i & ii)","fr":"Lower wong tai sin estate (i & ii)"}},{"country":"HK","name":"Tsz ching estate","admin1Code":"HK.KWT","latitude":22.35099,"longitude":114.20056,"translations":{"pt":"Tsz ching estate","it":"Tsz ching estate","ru":"Tsz ching estate","uk":"Tsz ching estate","de":"Tsz ching estate","es":"Tsz ching estate","en":"Tsz ching estate","fr":"Tsz ching estate"}},{"country":"HK","name":"Wang tau hom estate","admin1Code":"HK.KWT","latitude":22.34009,"longitude":114.18673,"translations":{"pt":"Wang tau hom estate","it":"Wang tau hom estate","ru":"Wang tau hom estate","uk":"Wang tau hom estate","de":"Wang tau hom estate","es":"Wang tau hom estate","en":"Wang tau hom estate","fr":"Wang tau hom estate"}},{"country":"HK","name":"New territories","admin1Code":"HK.00","latitude":22.42441,"longitude":114.11095,"translations":{"pt":"New territories","it":"New territories","ru":"New territories","uk":"New territories","de":"New territories","es":"New territories","en":"New territories","fr":"New territories"}},{"country":"HK","name":"Hong kong island","admin1Code":"HK.00","latitude":22.26302,"longitude":114.18419,"translations":{"pt":"Hong kong island","it":"Hong kong island","ru":"Hong kong island","uk":"Hong kong island","de":"Hong kong island","es":"Hong kong island","en":"Hong kong island","fr":"Hong kong island"}}]