[{"country":"KE","name":"Wote","admin1Code":"KE.32","latitude":-1.78079,"longitude":37.62882,"translations":{"pt":"Wote","it":"Wote","ru":"Wote","uk":"Wote","de":"Wote","es":"Wote","en":"Wote","fr":"Wote"}},{"country":"KE","name":"Webuye","admin1Code":"KE.12","latitude":0.6004,"longitude":34.77119,"translations":{"pt":"Webuye","it":"Webuye","ru":"Webuye","uk":"Webuye","de":"Webuye","es":"Webuye","en":"Webuye","fr":"Webuye"}},{"country":"KE","name":"Watamu","admin1Code":"KE.23","latitude":-3.35335,"longitude":40.02095,"translations":{"pt":"Watamu","it":"Watamu","ru":"Watamu","uk":"Watamu","de":"Watamu","es":"Watamu","en":"Watamu","fr":"Watamu"}},{"country":"KE","name":"Wanguru","admin1Code":"KE.24","latitude":-0.68393,"longitude":37.35701,"translations":{"pt":"Wanguru","it":"Wanguru","ru":"Wanguru","uk":"Wanguru","de":"Wanguru","es":"Wanguru","en":"Wanguru","fr":"Wanguru"}},{"country":"KE","name":"Ваджир","admin1Code":"KE.54","latitude":1.7471,"longitude":40.05732,"translations":{"pt":"Vadzhyr","it":"Vadzhyr","ru":"Ваджир","uk":"Ваджир","de":"Vadzhyr","es":"Vadzhyr","en":"Ваджир","fr":"Vadzhyr"}},{"country":"KE","name":"Вои","admin1Code":"KE.47","latitude":-3.39605,"longitude":38.55609,"translations":{"pt":"Voy","it":"Voy","ru":"Вои","uk":"Вои","de":"Voy","es":"Voy","en":"Вои","fr":"Voy"}},{"country":"KE","name":"Ukunda","admin1Code":"KE.28","latitude":-4.2929,"longitude":39.56404,"translations":{"pt":"Ukunda","it":"Ukunda","ru":"Ukunda","uk":"Ukunda","de":"Ukunda","es":"Ukunda","en":"Ukunda","fr":"Ukunda"}},{"country":"KE","name":"Thika","admin1Code":"KE.05","latitude":-1.03326,"longitude":37.06933,"translations":{"pt":"Thika","it":"Thika","ru":"Тик","uk":"Thika","de":"Thika","es":"Thika","en":"Thika","fr":"Thika"}},{"country":"KE","name":"Taveta","admin1Code":"KE.47","latitude":-3.39879,"longitude":37.68336,"translations":{"pt":"Taveta","it":"Taveta","ru":"Taveta","uk":"Taveta","de":"Taveta","es":"Taveta","en":"Taveta","fr":"Taveta"}},{"country":"KE","name":"Ruiru","admin1Code":"KE.22","latitude":-1.14665,"longitude":36.96087,"translations":{"pt":"Ruiru","it":"Ruiru","ru":"Руиру","uk":"Руїру","de":"Ruiru","es":"Ruiru","en":"Ruiru","fr":"Ruiru"}},{"country":"KE","name":"Rongo","admin1Code":"KE.36","latitude":-0.75675,"longitude":34.59833,"translations":{"pt":"Rongo","it":"Rongo","ru":"Rongo","uk":"Rongo","de":"Rongo","es":"Rongo","en":"Rongo","fr":"Rongo"}},{"country":"KE","name":"Rongai","admin1Code":"KE.39","latitude":-0.17344,"longitude":35.86313,"translations":{"pt":"Rongai","it":"Rongai","ru":"Rongai","uk":"Rongai","de":"Rongai","es":"Rongai","en":"Rongai","fr":"Rongai"}},{"country":"KE","name":"Ramu","admin1Code":"KE.33","latitude":3.93147,"longitude":41.22295,"translations":{"pt":"Ramu","it":"Ramu","ru":"Ramu","uk":"Ramu","de":"Ramu","es":"Ramu","en":"Ramu","fr":"Ramu"}},{"country":"KE","name":"Pumwani","admin1Code":"KE.05","latitude":-1.28316,"longitude":36.84725,"translations":{"pt":"Pumwani","it":"Pumwani","ru":"Pumwani","uk":"Pumwani","de":"Pumwani","es":"Pumwani","en":"Pumwani","fr":"Pumwani"}},{"country":"KE","name":"Oyugis","admin1Code":"KE.17","latitude":-0.50974,"longitude":34.73067,"translations":{"pt":"Oyugis","it":"Oyugis","ru":"Oyugis","uk":"Oyugis","de":"Oyugis","es":"Oyugis","en":"Oyugis","fr":"Oyugis"}},{"country":"KE","name":"Ogembo","admin1Code":"KE.25","latitude":-0.80116,"longitude":34.72579,"translations":{"pt":"Ogembo","it":"Ogembo","ru":"Ogembo","uk":"Ogembo","de":"Ogembo","es":"Ogembo","en":"Ogembo","fr":"Ogembo"}},{"country":"KE","name":"Nyeri","admin1Code":"KE.44","latitude":-0.42013,"longitude":36.94759,"translations":{"pt":"Nyeri","it":"Nyeri","ru":"Ньери","uk":"Nyeri","de":"Nyeri","es":"Nyeri","en":"Nyeri","fr":"Nyeri"}},{"country":"KE","name":"Nyamira","admin1Code":"KE.42","latitude":-0.56333,"longitude":34.93583,"translations":{"pt":"Nyamira","it":"Nyamira","ru":"Nyamira","uk":"Nyamira","de":"Nyamira","es":"Nyamira","en":"Nyamira","fr":"Nyamira"}},{"country":"KE","name":"Nyahururu","admin1Code":"KE.29","latitude":0.03813,"longitude":36.36339,"translations":{"pt":"Nyahururu","it":"Nyahururu","ru":"Nyahururu","uk":"Nyahururu","de":"Nyahururu","es":"Nyahururu","en":"Nyahururu","fr":"Nyahururu"}},{"country":"KE","name":"Njoro","admin1Code":"KE.39","latitude":-0.33024,"longitude":35.94445,"translations":{"pt":"Njoro","it":"Njoro","ru":"Njoro","uk":"Njoro","de":"Njoro","es":"Njoro","en":"Njoro","fr":"Njoro"}},{"country":"KE","name":"Ngong","admin1Code":"KE.19","latitude":-1.3527,"longitude":36.6699,"translations":{"pt":"Ngong","it":"Ngong","ru":"Ngong","uk":"Ngong","de":"Ngong","es":"Ngong","en":"Ngong","fr":"Ngong"}},{"country":"KE","name":"Narok","admin1Code":"KE.41","latitude":-1.08083,"longitude":35.87111,"translations":{"pt":"Narok","it":"Narok","ru":"Narok","uk":"Narok","de":"Narok","es":"Narok","en":"Narok","fr":"Narok"}},{"country":"KE","name":"Нанюки","admin1Code":"KE.29","latitude":0.00624,"longitude":37.07398,"translations":{"pt":"Nanjuky","it":"Nanjuky","ru":"Нанюки","uk":"Нанюки","de":"Nanjuky","es":"Nanjuky","en":"Нанюки","fr":"Nanjuky"}},{"country":"KE","name":"Nakuru","admin1Code":"KE.39","latitude":-0.30719,"longitude":36.07225,"translations":{"pt":"Nakuru","it":"Nakuru","ru":"Накуру","uk":"Накуру","de":"Nakuru","es":"Nakuru","en":"Nakuru","fr":"Nakuru"}},{"country":"KE","name":"Naivasha","admin1Code":"KE.39","latitude":-0.71383,"longitude":36.43261,"translations":{"pt":"Naivasha","it":"Naivasha","ru":"Найваша","uk":"Найваша","de":"Naivasha","es":"Naivasha","en":"Naivasha","fr":"Naivasha"}},{"country":"KE","name":"Nairobi","admin1Code":"KE.05","latitude":-1.28333,"longitude":36.81667,"translations":{"pt":"Nairóbi","it":"Nairobi","ru":"Найроби","uk":"Найробі","de":"Nairobi","es":"Nairobi","en":"Nairobi","fr":"Nairobi"}},{"country":"KE","name":"Mwingi","admin1Code":"KE.27","latitude":-0.93605,"longitude":38.05955,"translations":{"pt":"Mwingi","it":"Mwingi","ru":"Mwingi","uk":"Mwingi","de":"Mwingi","es":"Mwingi","en":"Mwingi","fr":"Mwingi"}},{"country":"KE","name":"Murang’a","admin1Code":"KE.38","latitude":-0.72104,"longitude":37.15259,"translations":{"pt":"Murang’a","it":"Murang’a","ru":"Murang’a","uk":"Murang’a","de":"Murang’a","es":"Murang’a","en":"Murang’a","fr":"Murang’a"}},{"country":"KE","name":"Mumias","admin1Code":"KE.20","latitude":0.33474,"longitude":34.48796,"translations":{"pt":"Mumias","it":"Mumias","ru":"Mumias","uk":"Mumias","de":"Mumias","es":"Mumias","en":"Mumias","fr":"Mumias"}},{"country":"KE","name":"Muhoroni","admin1Code":"KE.26","latitude":-0.15816,"longitude":35.19645,"translations":{"pt":"Muhoroni","it":"Muhoroni","ru":"Muhoroni","uk":"Muhoroni","de":"Muhoroni","es":"Muhoroni","en":"Muhoroni","fr":"Muhoroni"}},{"country":"KE","name":"Moyale","admin1Code":"KE.34","latitude":3.52661,"longitude":39.0561,"translations":{"pt":"Moyale","it":"Moyale","ru":"Moyale","uk":"Moyale","de":"Moyale","es":"Moyale","en":"Moyale","fr":"Moyale"}},{"country":"KE","name":"Mombasa","admin1Code":"KE.37","latitude":-4.05466,"longitude":39.66359,"translations":{"pt":"Mombaça","it":"Mombasa","ru":"Момбаса","uk":"Момбаса","de":"Mombasa","es":"Mombasa","en":"Mombasa","fr":"Mombasa"}},{"country":"KE","name":"Molo","admin1Code":"KE.39","latitude":-0.24849,"longitude":35.73194,"translations":{"pt":"Molo","it":"Molo","ru":"Моло","uk":"Molo","de":"Molo","es":"Molo","en":"Molo","fr":"Molo"}},{"country":"KE","name":"Migori","admin1Code":"KE.36","latitude":-1.06343,"longitude":34.47313,"translations":{"pt":"Migori","it":"Migori","ru":"Migori","uk":"Migori","de":"Migori","es":"Migori","en":"Migori","fr":"Migori"}},{"country":"KE","name":"Меры","admin1Code":"KE.35","latitude":0.04626,"longitude":37.65587,"translations":{"pt":"Merы","it":"Merы","ru":"Меры","uk":"Меры","de":"Merы","es":"Merы","en":"Меры","fr":"Merы"}},{"country":"KE","name":"Mbale","admin1Code":"KE.53","latitude":0.08213,"longitude":34.72139,"translations":{"pt":"Mbale","it":"Mbale","ru":"Mbale","uk":"Mbale","de":"Mbale","es":"Mbale","en":"Mbale","fr":"Mbale"}},{"country":"KE","name":"Mazeras","admin1Code":"KE.28","latitude":-3.96426,"longitude":39.5498,"translations":{"pt":"Mazeras","it":"Mazeras","ru":"Mazeras","uk":"Mazeras","de":"Mazeras","es":"Mazeras","en":"Mazeras","fr":"Mazeras"}},{"country":"KE","name":"Maua","admin1Code":"KE.35","latitude":0.2332,"longitude":37.94086,"translations":{"pt":"Maua","it":"Maua","ru":"Maua","uk":"Maua","de":"Maua","es":"Maua","en":"Maua","fr":"Maua"}},{"country":"KE","name":"Masalani","admin1Code":"KE.48","latitude":-1.69405,"longitude":40.17015,"translations":{"pt":"Massalani","it":"Masalani","ru":"Masalani","uk":"Masalani","de":"Masalani","es":"Masalani","en":"Masalani","fr":"Masalani"}},{"country":"KE","name":"Marsabit","admin1Code":"KE.34","latitude":2.33468,"longitude":37.99086,"translations":{"pt":"Marsabit","it":"Marsabit","ru":"Marsabit","uk":"Marsabit","de":"Marsabit","es":"Marsabit","en":"Marsabit","fr":"Marsabit"}},{"country":"KE","name":"Mariakani","admin1Code":"KE.23","latitude":-3.86261,"longitude":39.47458,"translations":{"pt":"Mariakani","it":"Mariakani","ru":"Mariakani","uk":"Mariakani","de":"Mariakani","es":"Mariakani","en":"Mariakani","fr":"Mariakani"}},{"country":"KE","name":"Maralal","admin1Code":"KE.45","latitude":1.09667,"longitude":36.69806,"translations":{"pt":"Maralal","it":"Maralal","ru":"Maralal","uk":"Maralal","de":"Maralal","es":"Maralal","en":"Maralal","fr":"Maralal"}},{"country":"KE","name":"Мандере","admin1Code":"KE.33","latitude":3.93726,"longitude":41.85688,"translations":{"pt":"Mandere","it":"Mandere","ru":"Мандере","uk":"Мандере","de":"Mandere","es":"Mandere","en":"Мандере","fr":"Mandere"}},{"country":"KE","name":"Malindi","admin1Code":"KE.23","latitude":-3.21799,"longitude":40.11692,"translations":{"pt":"Melinde","it":"Malindi","ru":"Малинди","uk":"Малінді","de":"Malindi","es":"Malindi","en":"Malindi","fr":"Malindi"}},{"country":"KE","name":"Singapur","admin1Code":"KE.13","latitude":0.63513,"longitude":34.28165,"translations":{"pt":"Singapur","it":"Singapur","ru":"Singapur","uk":"Singapur","de":"Singapur","es":"Singapur","en":"Singapur","fr":"Singapur"}},{"country":"KE","name":"Makutano","admin1Code":"KE.55","latitude":1.25881,"longitude":35.09569,"translations":{"pt":"Makutano","it":"Makutano","ru":"Makutano","uk":"Makutano","de":"Makutano","es":"Makutano","en":"Makutano","fr":"Makutano"}},{"country":"KE","name":"Makueni boma","admin1Code":"KE.32","latitude":-1.80388,"longitude":37.62405,"translations":{"pt":"Makueni boma","it":"Makueni boma","ru":"Makueni boma","uk":"Makueni boma","de":"Makueni boma","es":"Makueni boma","en":"Makueni boma","fr":"Makueni boma"}},{"country":"KE","name":"Makindu","admin1Code":"KE.32","latitude":-2.27808,"longitude":37.81867,"translations":{"pt":"Makindu","it":"Makindu","ru":"Макинду","uk":"Makindu","de":"Makindu","es":"Makindu","en":"Makindu","fr":"Makindu"}},{"country":"KE","name":"Мачакосский","admin1Code":"KE.31","latitude":-1.52233,"longitude":37.26521,"translations":{"pt":"Machakosskyj","it":"Machakosskyj","ru":"Мачакосский","uk":"Мачакосский","de":"Machakosskyj","es":"Machakosskyj","en":"Мачакосский","fr":"Machakosskyj"}},{"country":"KE","name":"Lugulu","admin1Code":"KE.13","latitude":0.39337,"longitude":34.30399,"translations":{"pt":"Lugulu","it":"Lugulu","ru":"Lugulu","uk":"Lugulu","de":"Lugulu","es":"Lugulu","en":"Lugulu","fr":"Lugulu"}},{"country":"KE","name":"Лодвар","admin1Code":"KE.51","latitude":3.11988,"longitude":35.59642,"translations":{"pt":"Lodvar","it":"Lodvar","ru":"Лодвар","uk":"Лодвар","de":"Lodvar","es":"Lodvar","en":"Лодвар","fr":"Lodvar"}},{"country":"KE","name":"Limuru","admin1Code":"KE.22","latitude":-1.1136,"longitude":36.64205,"translations":{"pt":"Limuru","it":"Limuru","ru":"Limuru","uk":"Limuru","de":"Limuru","es":"Limuru","en":"Limuru","fr":"Limuru"}},{"country":"KE","name":"Ongata rongai","admin1Code":"KE.19","latitude":-1.3953,"longitude":36.764,"translations":{"pt":"Ongata rongai","it":"Ongata rongai","ru":"Ongata rongai","uk":"Ongata rongai","de":"Ongata rongai","es":"Ongata rongai","en":"Ongata rongai","fr":"Ongata rongai"}},{"country":"KE","name":"Лама","admin1Code":"KE.30","latitude":-2.27169,"longitude":40.90201,"translations":{"pt":"Antiga cidade de lamu","it":"Lama","ru":"Лама","uk":"Лама","de":"Lama","es":"Lama","en":"Лама","fr":"Lama"}},{"country":"KE","name":"Kitui","admin1Code":"KE.27","latitude":-1.36696,"longitude":38.01055,"translations":{"pt":"Kitui","it":"Kitui","ru":"Kitui","uk":"Kitui","de":"Kitui","es":"Kitui","en":"Kitui","fr":"Kitui"}},{"country":"KE","name":"Kitale","admin1Code":"KE.50","latitude":1.01572,"longitude":35.00622,"translations":{"pt":"Kitale","it":"Kitale","ru":"Китале","uk":"Kitale","de":"Kitale","es":"Kitale","en":"Kitale","fr":"Kitale"}},{"country":"KE","name":"Kisumu","admin1Code":"KE.26","latitude":-0.10221,"longitude":34.76171,"translations":{"pt":"Kisumu","it":"Kisumu","ru":"Кисуму","uk":"Кісуму","de":"Kisumu","es":"Kisumu","en":"Kisumu","fr":"Kisumu"}},{"country":"KE","name":"Kisii","admin1Code":"KE.25","latitude":-0.68174,"longitude":34.76666,"translations":{"pt":"Kisii","it":"Kisii","ru":"Kisii","uk":"Kisii","de":"Kisii","es":"Kisii","en":"Kisii","fr":"Kisii"}},{"country":"KE","name":"Kiserian","admin1Code":"KE.19","latitude":-1.4275,"longitude":36.6865,"translations":{"pt":"Kiserian","it":"Kiserian","ru":"Kiserian","uk":"Kiserian","de":"Kiserian","es":"Kiserian","en":"Kiserian","fr":"Kiserian"}},{"country":"KE","name":"Kinoi","admin1Code":"KE.31","latitude":-1.6558,"longitude":37.37454,"translations":{"pt":"Kinoi","it":"Kinoi","ru":"Kinoi","uk":"Kinoi","de":"Kinoi","es":"Kinoi","en":"Kinoi","fr":"Kinoi"}},{"country":"KE","name":"Kihancha","admin1Code":"KE.36","latitude":-1.19347,"longitude":34.61967,"translations":{"pt":"Kihancha","it":"Kihancha","ru":"Kihancha","uk":"Kihancha","de":"Kihancha","es":"Kihancha","en":"Kihancha","fr":"Kihancha"}},{"country":"KE","name":"Kiminini","admin1Code":"KE.50","latitude":0.89284,"longitude":34.92468,"translations":{"pt":"Kiminini","it":"Kiminini","ru":"Kiminini","uk":"Kiminini","de":"Kiminini","es":"Kiminini","en":"Kiminini","fr":"Kiminini"}},{"country":"KE","name":"Kimilili","admin1Code":"KE.12","latitude":0.78775,"longitude":34.71562,"translations":{"pt":"Kimilili","it":"Kimilili","ru":"Kimilili","uk":"Kimilili","de":"Kimilili","es":"Kimilili","en":"Kimilili","fr":"Kimilili"}},{"country":"KE","name":"Килифи","admin1Code":"KE.23","latitude":-3.63045,"longitude":39.84992,"translations":{"pt":"Kylyfy","it":"Kylyfy","ru":"Килифи","uk":"Килифи","de":"Kylyfy","es":"Kylyfy","en":"Килифи","fr":"Kylyfy"}},{"country":"KE","name":"Kikuyu","admin1Code":"KE.22","latitude":-1.24627,"longitude":36.66291,"translations":{"pt":"Kikuyu","it":"Kikuyu","ru":"Кикую","uk":"Кікую","de":"Kikuyu","es":"Kikuyu","en":"Kikuyu","fr":"Kikuyu"}},{"country":"KE","name":"Киамбу","admin1Code":"KE.22","latitude":-1.17139,"longitude":36.83556,"translations":{"pt":"Kyambu","it":"Kyambu","ru":"Киамбу","uk":"Киамбу","de":"Kyambu","es":"Kyambu","en":"Киамбу","fr":"Kyambu"}},{"country":"KE","name":"Khwisero","admin1Code":"KE.20","latitude":0.17124,"longitude":34.59466,"translations":{"pt":"Khwisero","it":"Khwisero","ru":"Khwisero","uk":"Khwisero","de":"Khwisero","es":"Khwisero","en":"Khwisero","fr":"Khwisero"}},{"country":"KE","name":"Kerugoya","admin1Code":"KE.24","latitude":-0.49887,"longitude":37.28031,"translations":{"pt":"Kerugoya","it":"Kerugoya","ru":"Kerugoya","uk":"Kerugoya","de":"Kerugoya","es":"Kerugoya","en":"Kerugoya","fr":"Kerugoya"}},{"country":"KE","name":"Kericho","admin1Code":"KE.21","latitude":-0.36774,"longitude":35.28314,"translations":{"pt":"Kericho","it":"Kericho","ru":"Kericho","uk":"Kericho","de":"Kericho","es":"Kericho","en":"Kericho","fr":"Kericho"}},{"country":"KE","name":"Karuri","admin1Code":"KE.22","latitude":-1.17641,"longitude":36.7564,"translations":{"pt":"Karuri","it":"Karuri","ru":"Karuri","uk":"Karuri","de":"Karuri","es":"Karuri","en":"Karuri","fr":"Karuri"}},{"country":"KE","name":"Karuri","admin1Code":"KE.38","latitude":-0.7,"longitude":37.18333,"translations":{"pt":"Karuri","it":"Karuri","ru":"Karuri","uk":"Karuri","de":"Karuri","es":"Karuri","en":"Karuri","fr":"Karuri"}},{"country":"KE","name":"Karatina","admin1Code":"KE.44","latitude":-0.4841,"longitude":37.12662,"translations":{"pt":"Caratina","it":"Karatina","ru":"Karatina","uk":"Karatina","de":"Karatina","es":"Karatina","en":"Karatina","fr":"Karatina"}},{"country":"KE","name":"Kapsabet","admin1Code":"KE.40","latitude":0.20387,"longitude":35.105,"translations":{"pt":"Kapsabet","it":"Kapsabet","ru":"Kapsabet","uk":"Kapsabet","de":"Kapsabet","es":"Kapsabet","en":"Kapsabet","fr":"Kapsabet"}},{"country":"KE","name":"Kapenguria","admin1Code":"KE.55","latitude":1.23889,"longitude":35.11194,"translations":{"pt":"Kapenguria","it":"Kapenguria","ru":"Kapenguria","uk":"Kapenguria","de":"Kapenguria","es":"Kapenguria","en":"Kapenguria","fr":"Kapenguria"}},{"country":"KE","name":"Kakuma","admin1Code":"KE.51","latitude":3.71363,"longitude":34.8572,"translations":{"pt":"Kakuma","it":"Kakuma","ru":"Kakuma","uk":"Kakuma","de":"Kakuma","es":"Kakuma","en":"Kakuma","fr":"Kakuma"}},{"country":"KE","name":"Kakamega","admin1Code":"KE.20","latitude":0.28422,"longitude":34.75229,"translations":{"pt":"Kakamega","it":"Kakamega","ru":"Какамеге","uk":"Kakamega","de":"Kakamega","es":"Kakamega","en":"Kakamega","fr":"Kakamega"}},{"country":"KE","name":"Kajiado","admin1Code":"KE.19","latitude":-1.85238,"longitude":36.77683,"translations":{"pt":"Kajiado","it":"Kajiado","ru":"Kajiado","uk":"Kajiado","de":"Kajiado","es":"Kajiado","en":"Kajiado","fr":"Kajiado"}},{"country":"KE","name":"Kabarnet","admin1Code":"KE.10","latitude":0.49194,"longitude":35.74303,"translations":{"pt":"Kabarnet","it":"Kabarnet","ru":"Kabarnet","uk":"Kabarnet","de":"Kabarnet","es":"Kabarnet","en":"Kabarnet","fr":"Kabarnet"}},{"country":"KE","name":"Iten","admin1Code":"KE.14","latitude":0.67028,"longitude":35.50806,"translations":{"pt":"Iten","it":"Iten","ru":"Iten","uk":"Iten","de":"Iten","es":"Iten","en":"Iten","fr":"Iten"}},{"country":"KE","name":"Исиоло","admin1Code":"KE.18","latitude":0.35462,"longitude":37.58218,"translations":{"pt":"Ysyolo","it":"Ysyolo","ru":"Исиоло","uk":"Исиоло","de":"Ysyolo","es":"Ysyolo","en":"Исиоло","fr":"Ysyolo"}},{"country":"KE","name":"Isebania","admin1Code":"KE.36","latitude":-1.22511,"longitude":34.46385,"translations":{"pt":"Isebania","it":"Isebania","ru":"Isebania","uk":"Isebania","de":"Isebania","es":"Isebania","en":"Isebania","fr":"Isebania"}},{"country":"KE","name":"Homa bay","admin1Code":"KE.17","latitude":-0.52731,"longitude":34.45714,"translations":{"pt":"Homa bay","it":"Homa bay","ru":"Homa bay","uk":"Homa bay","de":"Homa bay","es":"Homa bay","en":"Homa bay","fr":"Homa bay"}},{"country":"KE","name":"Hola","admin1Code":"KE.48","latitude":-1.48256,"longitude":40.03341,"translations":{"pt":"Hola","it":"Hola","ru":"Hola","uk":"Hola","de":"Hola","es":"Hola","en":"Hola","fr":"Hola"}},{"country":"KE","name":"Moi‘s bridge","admin1Code":"KE.52","latitude":0.87178,"longitude":35.12213,"translations":{"pt":"Moi‘s bridge","it":"Moi‘s bridge","ru":"Moi‘s bridge","uk":"Moi‘s bridge","de":"Moi‘s bridge","es":"Moi‘s bridge","en":"Moi‘s bridge","fr":"Moi‘s bridge"}},{"country":"KE","name":"Habaswein","admin1Code":"KE.54","latitude":1.01659,"longitude":39.49122,"translations":{"pt":"Habaswein","it":"Habaswein","ru":"Habaswein","uk":"Habaswein","de":"Habaswein","es":"Habaswein","en":"Habaswein","fr":"Habaswein"}},{"country":"KE","name":"Githunguri","admin1Code":"KE.22","latitude":-1.05754,"longitude":36.77625,"translations":{"pt":"Githunguri","it":"Githunguri","ru":"Githunguri","uk":"Githunguri","de":"Githunguri","es":"Githunguri","en":"Githunguri","fr":"Githunguri"}},{"country":"KE","name":"Gilgil","admin1Code":"KE.39","latitude":-0.50397,"longitude":36.31845,"translations":{"pt":"Gilgil","it":"Gilgil","ru":"Gilgil","uk":"Gilgil","de":"Gilgil","es":"Gilgil","en":"Gilgil","fr":"Gilgil"}},{"country":"KE","name":"Upper gilgil","admin1Code":"KE.43","latitude":-0.21209,"longitude":36.27248,"translations":{"pt":"Upper gilgil","it":"Upper gilgil","ru":"Upper gilgil","uk":"Upper gilgil","de":"Upper gilgil","es":"Upper gilgil","en":"Upper gilgil","fr":"Upper gilgil"}},{"country":"KE","name":"Garissa","admin1Code":"KE.16","latitude":-0.45275,"longitude":39.64601,"translations":{"pt":"Garissa","it":"Garissa","ru":"Гарисса","uk":"Гарісса","de":"Garissa","es":"Garissa","en":"Garissa","fr":"Garissa"}},{"country":"KE","name":"Garba tula","admin1Code":"KE.18","latitude":0.53392,"longitude":38.51878,"translations":{"pt":"Garba tula","it":"Garba tula","ru":"Garba tula","uk":"Garba tula","de":"Garba tula","es":"Garba tula","en":"Garba tula","fr":"Garba tula"}},{"country":"KE","name":"Embu","admin1Code":"KE.15","latitude":-0.53987,"longitude":37.45743,"translations":{"pt":"Embu","it":"Embu","ru":"Эмба","uk":"Embu","de":"Embu","es":"Embu","en":"Embu","fr":"Embu"}},{"country":"KE","name":"Emali","admin1Code":"KE.32","latitude":-2.08033,"longitude":37.47202,"translations":{"pt":"Emali","it":"Emali","ru":"Emali","uk":"Emali","de":"Emali","es":"Emali","en":"Emali","fr":"Emali"}},{"country":"KE","name":"El wak","admin1Code":"KE.33","latitude":2.80922,"longitude":40.92885,"translations":{"pt":"El wak","it":"El wak","ru":"El wak","uk":"El wak","de":"El wak","es":"El wak","en":"El wak","fr":"El wak"}},{"country":"KE","name":"Eldoret","admin1Code":"KE.52","latitude":0.52036,"longitude":35.26993,"translations":{"pt":"Eldoret","it":"Eldoret","ru":"Элдорет","uk":"Eldoret","de":"Eldoret","es":"Eldoret","en":"Eldoret","fr":"Eldoret"}},{"country":"KE","name":"Eldama ravine","admin1Code":"KE.10","latitude":0.05196,"longitude":35.72734,"translations":{"pt":"Eldama ravine","it":"Eldama ravine","ru":"Eldama ravine","uk":"Eldama ravine","de":"Eldama ravine","es":"Eldama ravine","en":"Eldama ravine","fr":"Eldama ravine"}},{"country":"KE","name":"Elburgon","admin1Code":"KE.39","latitude":-0.30037,"longitude":35.80935,"translations":{"pt":"Elburgon","it":"Elburgon","ru":"Elburgon","uk":"Elburgon","de":"Elburgon","es":"Elburgon","en":"Elburgon","fr":"Elburgon"}},{"country":"KE","name":"Chuka","admin1Code":"KE.49","latitude":-0.33316,"longitude":37.64587,"translations":{"pt":"Chuka","it":"Chuka","ru":"Chuka","uk":"Chuka","de":"Chuka","es":"Chuka","en":"Chuka","fr":"Chuka"}},{"country":"KE","name":"Busia","admin1Code":"KE.13","latitude":0.46005,"longitude":34.11169,"translations":{"pt":"Busia","it":"Busia","ru":"Busia","uk":"Busia","de":"Busia","es":"Busia","en":"Busia","fr":"Busia"}},{"country":"KE","name":"Бунгома","admin1Code":"KE.12","latitude":0.5635,"longitude":34.56055,"translations":{"pt":"Bunhoma","it":"Bunhoma","ru":"Бунгома","uk":"Бунгома","de":"Bunhoma","es":"Bunhoma","en":"Бунгома","fr":"Bunhoma"}},{"country":"KE","name":"Bondo","admin1Code":"KE.46","latitude":-0.0962,"longitude":34.27322,"translations":{"pt":"Bondo","it":"Bondo","ru":"Bondo","uk":"Bondo","de":"Bondo","es":"Bondo","en":"Bondo","fr":"Bondo"}},{"country":"KE","name":"Awendo","admin1Code":"KE.36","latitude":-0.90711,"longitude":34.52895,"translations":{"pt":"Awendo","it":"Awendo","ru":"Awendo","uk":"Awendo","de":"Awendo","es":"Awendo","en":"Awendo","fr":"Awendo"}},{"country":"KE","name":"Athi river","admin1Code":"KE.31","latitude":-1.4563,"longitude":36.97826,"translations":{"pt":"Athi river","it":"Athi river","ru":"Athi river","uk":"Athi river","de":"Athi river","es":"Athi river","en":"Athi river","fr":"Athi river"}},{"country":"KE","name":"Siaya","admin1Code":"KE.46","latitude":0.0607,"longitude":34.28806,"translations":{"pt":"Siaya","it":"Siaya","ru":"Siaya","uk":"Siaya","de":"Siaya","es":"Siaya","en":"Siaya","fr":"Siaya"}},{"country":"KE","name":"Takaba","admin1Code":"KE.33","latitude":3.35528,"longitude":40.22278,"translations":{"pt":"Takaba","it":"Takaba","ru":"Takaba","uk":"Takaba","de":"Takaba","es":"Takaba","en":"Takaba","fr":"Takaba"}},{"country":"KE","name":"Ol kalou","admin1Code":"KE.43","latitude":-0.27088,"longitude":36.37917,"translations":{"pt":"Ol kalou","it":"Ol kalou","ru":"Ol kalou","uk":"Ol kalou","de":"Ol kalou","es":"Ol kalou","en":"Ol kalou","fr":"Ol kalou"}},{"country":"KE","name":"Kitengela","admin1Code":"KE.19","latitude":-1.47612,"longitude":36.96144,"translations":{"pt":"Kitengela","it":"Kitengela","ru":"Kitengela","uk":"Kitengela","de":"Kitengela","es":"Kitengela","en":"Kitengela","fr":"Kitengela"}},{"country":"KE","name":"Juja","admin1Code":"KE.22","latitude":-1.10148,"longitude":37.0132,"translations":{"pt":"Juja","it":"Juja","ru":"Juja","uk":"Juja","de":"Juja","es":"Juja","en":"Juja","fr":"Juja"}},{"country":"KE","name":"Lang'ata","admin1Code":"KE.05","latitude":-1.3666,"longitude":36.73324,"translations":{"pt":"Lang'ata","it":"Lang'ata","ru":"Lang'ata","uk":"Lang'ata","de":"Lang'ata","es":"Lang'ata","en":"Lang'ata","fr":"Lang'ata"}},{"country":"KE","name":"Imara daima estate","admin1Code":"KE.05","latitude":-1.32323,"longitude":36.88021,"translations":{"pt":"Imara daima estate","it":"Imara daima estate","ru":"Imara daima estate","uk":"Imara daima estate","de":"Imara daima estate","es":"Imara daima estate","en":"Imara daima estate","fr":"Imara daima estate"}},{"country":"KE","name":"Mlolongo","admin1Code":"KE.31","latitude":-1.39639,"longitude":36.94028,"translations":{"pt":"Mlolongo","it":"Mlolongo","ru":"Mlolongo","uk":"Mlolongo","de":"Mlolongo","es":"Mlolongo","en":"Mlolongo","fr":"Mlolongo"}},{"country":"KE","name":"Lafey","admin1Code":"KE.33","latitude":3.15106,"longitude":41.18577,"translations":{"pt":"Lafey","it":"Lafey","ru":"Lafey","uk":"Lafey","de":"Lafey","es":"Lafey","en":"Lafey","fr":"Lafey"}},{"country":"KE","name":"Mtwapa","admin1Code":"KE.23","latitude":-3.93938,"longitude":39.74877,"translations":{"pt":"Mtwapa","it":"Mtwapa","ru":"Mtwapa","uk":"Mtwapa","de":"Mtwapa","es":"Mtwapa","en":"Mtwapa","fr":"Mtwapa"}},{"country":"KE","name":"Awendo","admin1Code":"KE.17","latitude":-0.5,"longitude":34.4,"translations":{"pt":"Awendo","it":"Awendo","ru":"Awendo","uk":"Awendo","de":"Awendo","es":"Awendo","en":"Awendo","fr":"Awendo"}},{"country":"KE","name":"Maai mahiu","admin1Code":"KE.39","latitude":-0.98855,"longitude":36.58537,"translations":{"pt":"Maai mahiu","it":"Maai mahiu","ru":"Maai mahiu","uk":"Maai mahiu","de":"Maai mahiu","es":"Maai mahiu","en":"Maai mahiu","fr":"Maai mahiu"}},{"country":"KE","name":"Mairo inya","admin1Code":"KE.43","latitude":0.02538,"longitude":36.40865,"translations":{"pt":"Mairo inya","it":"Mairo inya","ru":"Mairo inya","uk":"Mairo inya","de":"Mairo inya","es":"Mairo inya","en":"Mairo inya","fr":"Mairo inya"}},{"country":"KE","name":"Kenol","admin1Code":"KE.38","latitude":-0.9373,"longitude":37.12275,"translations":{"pt":"Kenol","it":"Kenol","ru":"Kenol","uk":"Kenol","de":"Kenol","es":"Kenol","en":"Kenol","fr":"Kenol"}},{"country":"KE","name":"Githunguri","admin1Code":"KE.31","latitude":-1.29996,"longitude":36.99047,"translations":{"pt":"Githunguri","it":"Githunguri","ru":"Githunguri","uk":"Githunguri","de":"Githunguri","es":"Githunguri","en":"Githunguri","fr":"Githunguri"}},{"country":"KE","name":"Mai","admin1Code":"KE.39","latitude":-0.98169,"longitude":36.58642,"translations":{"pt":"Mai","it":"Mai","ru":"Mai","uk":"Mai","de":"Mai","es":"Mai","en":"Mai","fr":"Mai"}}]