[{"country":"SO","name":"Wanlaweyn","admin1Code":"SO.14","latitude":2.6185,"longitude":44.8938,"translations":{"pt":"Wanlaweyn","it":"Wanlaweyn","ru":"Wanlaweyn","uk":"Wanlaweyn","de":"Wanlaweyn","es":"Wanlaweyn","en":"Wanlaweyn","fr":"Wanlaweyn"}},{"country":"SO","name":"Tog wajaale","admin1Code":"SO.20","latitude":9.59972,"longitude":43.335,"translations":{"pt":"Tog wajaale","it":"Tog wajaale","ru":"Tog wajaale","uk":"Tog wajaale","de":"Tog wajaale","es":"Tog wajaale","en":"Tog wajaale","fr":"Tog wajaale"}},{"country":"SO","name":"Ruqi","admin1Code":"SO.21","latitude":9.97293,"longitude":43.4276,"translations":{"pt":"Ruqi","it":"Ruqi","ru":"Ruqi","uk":"Ruqi","de":"Ruqi","es":"Ruqi","en":"Ruqi","fr":"Ruqi"}},{"country":"SO","name":"Qoryooley","admin1Code":"SO.14","latitude":1.78784,"longitude":44.52999,"translations":{"pt":"Qoryooley","it":"Qoryooley","ru":"Qoryooley","uk":"Qoryooley","de":"Qoryooley","es":"Qoryooley","en":"Qoryooley","fr":"Qoryooley"}},{"country":"SO","name":"Qandala","admin1Code":"SO.03","latitude":11.47197,"longitude":49.87282,"translations":{"pt":"Qandala","it":"Candala","ru":"Кандала","uk":"Qandala","de":"Qandala","es":"Ġandala","en":"Qandala","fr":"Qandala"}},{"country":"SO","name":"Mogadishu","admin1Code":"SO.02","latitude":2.03711,"longitude":45.34375,"translations":{"pt":"Mogadíscio","it":"Mogadiscio","ru":"Могадишо","uk":"Могадішо","de":"Mogadischu","es":"Mogadiscio","en":"Mogadishu","fr":"Mogadiscio"}},{"country":"SO","name":"Merca","admin1Code":"SO.14","latitude":1.71594,"longitude":44.77166,"translations":{"pt":"Merca","it":"Merca","ru":"Merca","uk":"Merca","de":"Merca","es":"Merca","en":"Merca","fr":"Merca"}},{"country":"SO","name":"Luuq","admin1Code":"SO.06","latitude":3.80315,"longitude":42.54417,"translations":{"pt":"Luuq","it":"Luuq","ru":"Лук","uk":"Luuq","de":"Luuq","es":"Luuq","en":"Luuq","fr":"Luuq"}},{"country":"SO","name":"Kismayo","admin1Code":"SO.09","latitude":-0.35817,"longitude":42.54536,"translations":{"pt":"Kismayo","it":"Kismayo","ru":"Kismayo","uk":"Kismayo","de":"Kismaayo","es":"Kismaayo","en":"Kismayo","fr":"Kismaayo"}},{"country":"SO","name":"Джилиб","admin1Code":"SO.08","latitude":0.48829,"longitude":42.78535,"translations":{"pt":"Dzhylyb","it":"Dzhylyb","ru":"Джилиб","uk":"Джилиб","de":"Dzhylyb","es":"Dzhylyb","en":"Джилиб","fr":"Dzhylyb"}},{"country":"SO","name":"Giohar","admin1Code":"SO.13","latitude":2.78087,"longitude":45.50048,"translations":{"pt":"Giohar","it":"Giohar","ru":"Giohar","uk":"Giohar","de":"Jowhar","es":"Giohar","en":"Giohar","fr":"Giohar"}},{"country":"SO","name":"Jamaame","admin1Code":"SO.09","latitude":0.06968,"longitude":42.74497,"translations":{"pt":"Jamaame","it":"Jamaame","ru":"Jamaame","uk":"Jamaame","de":"Jamaame","es":"Jamaame","en":"Jamaame","fr":"Jamaame"}},{"country":"SO","name":"Hargeisa","admin1Code":"SO.20","latitude":9.56,"longitude":44.065,"translations":{"pt":"Hargeisa","it":"Hargeisa","ru":"Харгейсе","uk":"Hargeisa","de":"Hargeisa","es":"Hargeisa","en":"Hargeisa","fr":"Hargeisa"}},{"country":"SO","name":"Gebiley","admin1Code":"SO.20","latitude":9.70028,"longitude":43.62444,"translations":{"pt":"Gebiley","it":"Gebiley","ru":"Gebiley","uk":"Gebiley","de":"Gebiley","es":"Gebiley","en":"Gebiley","fr":"Gebiley"}},{"country":"SO","name":"Garoowe","admin1Code":"SO.18","latitude":8.40207,"longitude":48.48284,"translations":{"pt":"Garoowe","it":"Garoowe","ru":"Гароуэ","uk":"Гарове","de":"Garowe","es":"Garoowe","en":"Garoowe","fr":"Garowe"}},{"country":"SO","name":"Gaalkacyo","admin1Code":"SO.10","latitude":6.76972,"longitude":47.43083,"translations":{"pt":"Gaalkacyo","it":"Gallacaio","ru":"Галькайо","uk":"Галькайо","de":"Gaalkacyo","es":"Gaalkacyo","en":"Gaalkacyo","fr":"Gaal kacyo"}},{"country":"SO","name":"Eyl","admin1Code":"SO.18","latitude":7.9803,"longitude":49.8164,"translations":{"pt":"Eyl","it":"Eyl","ru":"Eyl","uk":"Eyl","de":"Eyl","es":"Eyl","en":"Eyl","fr":"Eyl"}},{"country":"SO","name":"Dinsoor","admin1Code":"SO.04","latitude":2.4085,"longitude":42.9771,"translations":{"pt":"Dinsoor","it":"Dinsor","ru":"Динсор","uk":"Dinsoor","de":"Dinsor","es":"Dinsoor","en":"Dinsoor","fr":"Dinsoor"}},{"country":"SO","name":"Erigavo","admin1Code":"SO.12","latitude":10.61616,"longitude":47.36795,"translations":{"pt":"Erigavo","it":"Erigavo","ru":"Erigavo","uk":"Erigavo","de":"Erigavo","es":"Erigavo","en":"Erigavo","fr":"Erigavo"}},{"country":"SO","name":"Ceeldheer","admin1Code":"SO.05","latitude":3.84878,"longitude":47.18064,"translations":{"pt":"Ceeldheer","it":"Ceeldheer","ru":"Ceeldheer","uk":"Ceeldheer","de":"Ceeldheer","es":"Ceeldheer","en":"Ceeldheer","fr":"Ceeldheer"}},{"country":"SO","name":"Cabudwaaq","admin1Code":"SO.05","latitude":6.24585,"longitude":46.2247,"translations":{"pt":"Cabudwaaq","it":"Cabudwaaq","ru":"Cabudwaaq","uk":"Cabudwaaq","de":"Cabudwaaq","es":"Cabudwaaq","en":"Cabudwaaq","fr":"Cabudwaaq"}},{"country":"SO","name":"Buurhakaba","admin1Code":"SO.04","latitude":2.80257,"longitude":44.07805,"translations":{"pt":"Buurhakaba","it":"Buurhakaba","ru":"Buurhakaba","uk":"Buurhakaba","de":"Buurhakaba","es":"Buurhakaba","en":"Buurhakaba","fr":"Buurhakaba"}},{"country":"SO","name":"Buulobarde","admin1Code":"SO.07","latitude":3.85375,"longitude":45.56744,"translations":{"pt":"Buulobarde","it":"Buulobarde","ru":"Buulobarde","uk":"Buulobarde","de":"Buulobarde","es":"Buulobarde","en":"Buulobarde","fr":"Buulobarde"}},{"country":"SO","name":"Burao","admin1Code":"SO.19","latitude":9.52213,"longitude":45.53363,"translations":{"pt":"Burao","it":"Burao","ru":"Бурао","uk":"Бурао","de":"Burao","es":"Burao","en":"Burao","fr":"Burao"}},{"country":"SO","name":"Bosaso","admin1Code":"SO.03","latitude":11.28421,"longitude":49.18158,"translations":{"pt":"Bosaso","it":"Bosaso","ru":"Босасо","uk":"Босасо","de":"Bosaso","es":"Bosaso","en":"Bosaso","fr":"Bosasso"}},{"country":"SO","name":"Boorama","admin1Code":"SO.21","latitude":9.93611,"longitude":43.18278,"translations":{"pt":"Boorama","it":"Boorama","ru":"Борама","uk":"Борама","de":"Boorama","es":"Boorama","en":"Boorama","fr":"Boorama"}},{"country":"SO","name":"Berbera","admin1Code":"SO.20","latitude":10.43959,"longitude":45.01432,"translations":{"pt":"Berbera","it":"Berbera","ru":"Бербера","uk":"Бербера","de":"Berbera","es":"Berbera","en":"Berbera","fr":"Berbera"}},{"country":"SO","name":"Beledweyne","admin1Code":"SO.07","latitude":4.73583,"longitude":45.20361,"translations":{"pt":"Beledweyne","it":"Beledweyne","ru":"Беледуэйне","uk":"Beledweyne","de":"Beledweyne","es":"Beledweyne","en":"Beledweyne","fr":"Beledweyne"}},{"country":"SO","name":"Baidoa","admin1Code":"SO.04","latitude":3.11383,"longitude":43.6498,"translations":{"pt":"Baidoa","it":"Baidoa","ru":"Байдоа","uk":"Байдоа","de":"Baidoa","es":"Baidoa","en":"Baidoa","fr":"Baidoa"}},{"country":"SO","name":"Baardheere","admin1Code":"SO.06","latitude":2.34464,"longitude":42.27644,"translations":{"pt":"Baardheere","it":"Baardheere","ru":"Baardheere","uk":"Baardheere","de":"Baardheere","es":"Baardheere","en":"Baardheere","fr":"Baardheere"}},{"country":"SO","name":"Афгойе","admin1Code":"SO.14","latitude":2.1381,"longitude":45.1212,"translations":{"pt":"Afhoje","it":"Afhoje","ru":"Афгойе","uk":"Афгойе","de":"Afhoje","es":"Afhoje","en":"Афгойе","fr":"Afhoje"}},{"country":"SO","name":"Balanbale","admin1Code":"SO.05","latitude":5.76897,"longitude":45.76297,"translations":{"pt":"Balanbale","it":"Balanbale","ru":"Balanbale","uk":"Balanbale","de":"Balanbale","es":"Balanbale","en":"Balanbale","fr":"Balanbale"}},{"country":"SO","name":"Las anod","admin1Code":"SO.22","latitude":8.47738,"longitude":47.35971,"translations":{"pt":"Las anod","it":"Las anod","ru":"Las anod","uk":"Las anod","de":"Las anod","es":"Las anod","en":"Las anod","fr":"Las anod"}},{"country":"SO","name":"Saaxo","admin1Code":"SO.10","latitude":6.77287,"longitude":46.79689,"translations":{"pt":"Saaxo","it":"Saaxo","ru":"Saaxo","uk":"Saaxo","de":"Saaxo","es":"Saaxo","en":"Saaxo","fr":"Saaxo"}},{"country":"SO","name":"Dhabad","admin1Code":"SO.05","latitude":6.43167,"longitude":46.46194,"translations":{"pt":"Dhabad","it":"Dhabad","ru":"Dhabad","uk":"Dhabad","de":"Dhabad","es":"Dhabad","en":"Dhabad","fr":"Dhabad"}},{"country":"SO","name":"Baki","admin1Code":"SO.21","latitude":9.89206,"longitude":43.38531,"translations":{"pt":"Baki","it":"Baki","ru":"Baki","uk":"Baki","de":"Baki","es":"Baki","en":"Baki","fr":"Baki"}},{"country":"SO","name":"Beled hawo","admin1Code":"SO.06","latitude":3.9284,"longitude":41.87997,"translations":{"pt":"Beled hawo","it":"Beled hawo","ru":"Beled hawo","uk":"Beled hawo","de":"Beled hawo","es":"Beled hawo","en":"Beled hawo","fr":"Beled hawo"}}]