[{"country":"TL","name":"Суаи","admin1Code":"TL.CO","latitude":-9.31286,"longitude":125.25648,"translations":{"pt":"Suay","it":"Suay","ru":"Суаи","uk":"Суаи","de":"Suay","es":"Suay","en":"Суаи","fr":"Suai"}},{"country":"TL","name":"Maubara","admin1Code":"TL.LI","latitude":-8.61194,"longitude":125.20611,"translations":{"pt":"Maubara","it":"Maubara","ru":"Maubara","uk":"Maubara","de":"Maubara","es":"Maubara","en":"Maubara","fr":"Maubara"}},{"country":"TL","name":"Maliana","admin1Code":"TL.BO","latitude":-8.99167,"longitude":125.21972,"translations":{"pt":"Maliana","it":"Maliana","ru":"Maliana","uk":"Maliana","de":"Maliana","es":"Maliana","en":"Maliana","fr":"Maliana"}},{"country":"TL","name":"Liquiçá","admin1Code":"TL.LI","latitude":-8.5875,"longitude":125.34194,"translations":{"pt":"Liquiçá","it":"Liquiçá","ru":"Liquiçá","uk":"Liquiçá","de":"Liquiçá","es":"Liquiçá","en":"Liquiçá","fr":"Liquiçá"}},{"country":"TL","name":"Dili","admin1Code":"TL.DI","latitude":-8.55861,"longitude":125.57361,"translations":{"pt":"Díli","it":"Dili","ru":"Дили","uk":"Ділі","de":"Dili","es":"Dili","en":"Dili","fr":"Dili"}},{"country":"TL","name":"Baucau","admin1Code":"TL.BA","latitude":-8.47572,"longitude":126.45633,"translations":{"pt":"Baucau","it":"Baucau","ru":"Баукау","uk":"Baucau","de":"Baucau","es":"Baucau","en":"Baucau","fr":"Baucau"}},{"country":"TL","name":"Айлеу","admin1Code":"TL.AL","latitude":-8.72806,"longitude":125.56639,"translations":{"pt":"Ajleu","it":"Ajleu","ru":"Айлеу","uk":"Айлеу","de":"Ajleu","es":"Ajleu","en":"Айлеу","fr":"Aileu"}},{"country":"TL","name":"Лоспалос","admin1Code":"TL.LA","latitude":-8.52167,"longitude":126.99833,"translations":{"pt":"Lospalos","it":"Lospalos","ru":"Лоспалос","uk":"Лоспалос","de":"Lospalos","es":"Lospalos","en":"Лоспалос","fr":"Lospalos"}},{"country":"TL","name":"Venilale","admin1Code":"TL.BA","latitude":-8.64306,"longitude":126.37833,"translations":{"pt":"Venilale","it":"Venilale","ru":"Venilale","uk":"Venilale","de":"Venilale","es":"Venilale","en":"Venilale","fr":"Venilale"}}]