[{"country":"MR","name":"Zouérat","admin1Code":"MR.11","latitude":22.73542,"longitude":-12.47134,"translations":{"pt":"Zouérat","it":"Zouérat","ru":"Zouérat","uk":"Zouérat","de":"Zouérat","es":"Zuérate","en":"Zouérat","fr":"Zouerate"}},{"country":"MR","name":"Timbedgha","admin1Code":"MR.01","latitude":16.2447,"longitude":-8.1643,"translations":{"pt":"Timbedgha","it":"Timbedgha","ru":"Timbedgha","uk":"Timbedgha","de":"Timbedgha","es":"Timbedgha","en":"Timbedgha","fr":"Timbedgha"}},{"country":"MR","name":"Tékane","admin1Code":"MR.06","latitude":16.60175,"longitude":-15.34866,"translations":{"pt":"Tékane","it":"Tékane","ru":"Tékane","uk":"Tékane","de":"Tékane","es":"Tékane","en":"Tékane","fr":"Tékane"}},{"country":"MR","name":"Sélibaby","admin1Code":"MR.10","latitude":15.15846,"longitude":-12.1843,"translations":{"pt":"Sélibaby","it":"Sélibaby","ru":"Sélibaby","uk":"Sélibaby","de":"Sélibaby","es":"Sélibaby","en":"Sélibaby","fr":"Sélibaby"}},{"country":"MR","name":"Rosso","admin1Code":"MR.06","latitude":16.51378,"longitude":-15.80503,"translations":{"pt":"Rosso","it":"Rosso","ru":"Росо","uk":"Rosso","de":"Rosso","es":"Rosso","en":"Rosso","fr":"Rosso"}},{"country":"MR","name":"Nouakchott","admin1Code":"MR","latitude":18.08581,"longitude":-15.9785,"translations":{"pt":"Nouakchott","it":"Nouakchott","ru":"Нуакшот","uk":"Нуакшот","de":"Nouakchott","es":"Nuakchot","en":"Nouakchott","fr":"Nouakchott"}},{"country":"MR","name":"Nouadhibou","admin1Code":"MR.08","latitude":20.94188,"longitude":-17.03842,"translations":{"pt":"Nouadhibou","it":"Nouadhibou","ru":"Нуадибу","uk":"Nouadhibou","de":"Nouadhibou","es":"Nuadibú","en":"Nouadhibou","fr":"Nouadhibou"}},{"country":"MR","name":"Néma","admin1Code":"MR.01","latitude":16.61702,"longitude":-7.25649,"translations":{"pt":"Néma","it":"Néma","ru":"Néma","uk":"Néma","de":"Néma","es":"Néma","en":"Néma","fr":"Néma"}},{"country":"MR","name":"Magṭa‘ laḥjar","admin1Code":"MR.05","latitude":17.506,"longitude":-13.0927,"translations":{"pt":"Magṭa‘ laḥjar","it":"Magṭa‘ laḥjar","ru":"Magṭa‘ laḥjar","uk":"Magṭa‘ laḥjar","de":"Magṭa‘ laḥjar","es":"Magṭa‘ laḥjar","en":"Magṭa‘ laḥjar","fr":"Magṭa‘ laḥjar"}},{"country":"MR","name":"Kiffa","admin1Code":"MR.03","latitude":16.62073,"longitude":-11.40208,"translations":{"pt":"Kiffa","it":"Kiffa","ru":"Киффа","uk":"Kiffa","de":"Kiffa","es":"Kifa","en":"Kiffa","fr":"Kiffa"}},{"country":"MR","name":"Kaédi","admin1Code":"MR.04","latitude":16.15027,"longitude":-13.5037,"translations":{"pt":"Kaédi","it":"Kaedi","ru":"Каэди","uk":"Kaédi","de":"Kaédi","es":"Kaédi","en":"Kaédi","fr":"Kaédi"}},{"country":"MR","name":"Boutilimit","admin1Code":"MR.06","latitude":17.5467,"longitude":-14.6944,"translations":{"pt":"Boutilimit","it":"Boutilimit","ru":"Boutilimit","uk":"Boutilimit","de":"Boutilimit","es":"Boutilimit","en":"Boutilimit","fr":"Boutilimit"}},{"country":"MR","name":"Bogué","admin1Code":"MR.05","latitude":16.59153,"longitude":-14.26309,"translations":{"pt":"Bogué","it":"Bogué","ru":"Bogué","uk":"Bogué","de":"Bogué","es":"Bogué","en":"Bogué","fr":"Bogué"}},{"country":"MR","name":"Ayoun el atrous","admin1Code":"MR.02","latitude":16.6614,"longitude":-9.6149,"translations":{"pt":"Ayoun el atrous","it":"Ayoun el atrous","ru":"Аюн-эль-атрус","uk":"Ayoun el atrous","de":"Ayoun el atrous","es":"Ayoun el atrous","en":"Ayoun el atrous","fr":"Ayoun el atrous"}},{"country":"MR","name":"Атар","admin1Code":"MR.07","latitude":20.5177,"longitude":-13.04857,"translations":{"pt":"Atar","it":"Atar","ru":"Атар","uk":"Атар","de":"Atar","es":"Atar","en":"Атар","fr":"Atar"}},{"country":"MR","name":"Aleg","admin1Code":"MR.05","latitude":17.05314,"longitude":-13.91312,"translations":{"pt":"Aleg","it":"Aleg","ru":"Aleg","uk":"Aleg","de":"Aleg","es":"Aleg","en":"Aleg","fr":"Aleg"}},{"country":"MR","name":"Akjoujt","admin1Code":"MR.12","latitude":19.74657,"longitude":-14.38531,"translations":{"pt":"Akjoujt","it":"Akjoujt","ru":"Akjoujt","uk":"Akjoujt","de":"Akjoujt","es":"Akjoujt","en":"Akjoujt","fr":"Akjoujt"}},{"country":"MR","name":"Ṭinṭâne","admin1Code":"MR.02","latitude":16.3946,"longitude":-10.1737,"translations":{"pt":"Ṭinṭâne","it":"Ṭinṭâne","ru":"Ṭinṭâne","uk":"Ṭinṭâne","de":"Ṭinṭâne","es":"Ṭinṭâne","en":"Ṭinṭâne","fr":"Ṭinṭâne"}},{"country":"MR","name":"Tevragh zeina","admin1Code":"MR.13","latitude":18.09894,"longitude":-15.98848,"translations":{"pt":"Tevragh zeina","it":"Tevragh zeina","ru":"Tevragh zeina","uk":"Tevragh zeina","de":"Tevragh zeina","es":"Tevragh zeina","en":"Tevragh zeina","fr":"Tevragh zeina"}},{"country":"MR","name":"Dar naim","admin1Code":"MR.14","latitude":18.10808,"longitude":-15.92666,"translations":{"pt":"Dar naim","it":"Dar naim","ru":"Dar naim","uk":"Dar naim","de":"Dar naim","es":"Dar naim","en":"Dar naim","fr":"Dar naim"}},{"country":"MR","name":"Guerou","admin1Code":"MR.03","latitude":17.07754,"longitude":-12.03869,"translations":{"pt":"Guerou","it":"Guerou","ru":"Guerou","uk":"Guerou","de":"Guerou","es":"Guerou","en":"Guerou","fr":"Guerou"}},{"country":"MR","name":"Mbera","admin1Code":"MR.01","latitude":15.85615,"longitude":-5.79067,"translations":{"pt":"Mbera","it":"Mbera","ru":"Mbera","uk":"Mbera","de":"Mbera","es":"Mbera","en":"Mbera","fr":"Mbera"}}]