[{"country":"SV","name":"Zacatecoluca","admin1Code":"SV.06","latitude":13.5,"longitude":-88.86667,"translations":{"pt":"Zacatecoluca","it":"Zacatecoluca","ru":"Zacatecoluca","uk":"Zacatecoluca","de":"Zacatecoluca","es":"Zacatecoluca","en":"Zacatecoluca","fr":"Zacatecoluca"}},{"country":"SV","name":"Усулутане","admin1Code":"SV.14","latitude":13.35,"longitude":-88.45,"translations":{"pt":"Usulutane","it":"Usulutane","ru":"Усулутане","uk":"Усулутане","de":"Usulutane","es":"Usulutane","en":"Усулутане","fr":"Usulutane"}},{"country":"SV","name":"Soyapango","admin1Code":"SV.10","latitude":13.71024,"longitude":-89.13989,"translations":{"pt":"Soyapango","it":"Soyapango","ru":"Сояпанго","uk":"Soyapango","de":"Soyapango","es":"Soyapango","en":"Soyapango","fr":"Soyapango"}},{"country":"SV","name":"Sonzacate","admin1Code":"SV.13","latitude":13.73417,"longitude":-89.71472,"translations":{"pt":"Sonzacate","it":"Sonzacate","ru":"Sonzacate","uk":"Sonzacate","de":"Sonzacate","es":"Sonzacate","en":"Sonzacate","fr":"Sonzacate"}},{"country":"SV","name":"Сонсонате","admin1Code":"SV.13","latitude":13.71889,"longitude":-89.72417,"translations":{"pt":"Sonsonate","it":"Sonsonate","ru":"Сонсонате","uk":"Сонсонате","de":"Sonsonate","es":"Sonsonate","en":"Сонсонате","fr":"Sonsonate"}},{"country":"SV","name":"Сенсутепеке","admin1Code":"SV.02","latitude":13.86667,"longitude":-88.63333,"translations":{"pt":"Sensutepeke","it":"Sensutepeke","ru":"Сенсутепеке","uk":"Сенсутепеке","de":"Sensutepeke","es":"Sensutepeke","en":"Сенсутепеке","fr":"Sensutepeke"}},{"country":"SV","name":"San vicente","admin1Code":"SV.12","latitude":13.63333,"longitude":-88.8,"translations":{"pt":"San vicente","it":"San vicente","ru":"San vicente","uk":"San vicente","de":"San vicente","es":"San vicente","en":"San vicente","fr":"San vicente"}},{"country":"SV","name":"Santiago de maría","admin1Code":"SV.14","latitude":13.48333,"longitude":-88.46667,"translations":{"pt":"Santiago de maría","it":"Santiago de maría","ru":"Santiago de maría","uk":"Santiago de maría","de":"Santiago de maría","es":"Santiago de maría","en":"Santiago de maría","fr":"Santiago de maría"}},{"country":"SV","name":"Santa ana","admin1Code":"SV.11","latitude":13.99417,"longitude":-89.55972,"translations":{"pt":"Santa ana","it":"Santa ana","ru":"Санта-ана","uk":"Santa ana","de":"Santa ana","es":"Santa ana","en":"Santa ana","fr":"Santa ana"}},{"country":"SV","name":"San salvador","admin1Code":"SV.10","latitude":13.68935,"longitude":-89.18718,"translations":{"pt":"San salvador","it":"San salvador","ru":"Сан-сальвадор","uk":"Сан-сальвадор","de":"San salvador","es":"San salvador","en":"San salvador","fr":"San salvador"}},{"country":"SV","name":"San rafael oriente","admin1Code":"SV.09","latitude":13.38333,"longitude":-88.35,"translations":{"pt":"San rafael oriente","it":"San rafael oriente","ru":"San rafael oriente","uk":"San rafael oriente","de":"San rafael oriente","es":"San rafael oriente","en":"San rafael oriente","fr":"San rafael oriente"}},{"country":"SV","name":"San miguel","admin1Code":"SV.09","latitude":13.48333,"longitude":-88.18333,"translations":{"pt":"San miguel","it":"San miguel","ru":"San miguel","uk":"San miguel","de":"San miguel","es":"San miguel","en":"San miguel","fr":"San miguel"}},{"country":"SV","name":"San martín","admin1Code":"SV.04","latitude":13.78333,"longitude":-88.91667,"translations":{"pt":"San martín","it":"San martín","ru":"San martín","uk":"San martín","de":"San martín","es":"San martín","en":"San martín","fr":"San martín"}},{"country":"SV","name":"San marcos","admin1Code":"SV.10","latitude":13.66108,"longitude":-89.18252,"translations":{"pt":"San marcos","it":"San marcos","ru":"San marcos","uk":"San marcos","de":"San marcos","es":"San marcos","en":"San marcos","fr":"San marcos"}},{"country":"SV","name":"San francisco","admin1Code":"SV.08","latitude":13.7,"longitude":-88.1,"translations":{"pt":"San francisco","it":"San francisco","ru":"San francisco","uk":"San francisco","de":"San francisco","es":"San francisco","en":"San francisco","fr":"San francisco"}},{"country":"SV","name":"Кесальтепеке","admin1Code":"SV.05","latitude":13.83124,"longitude":-89.27221,"translations":{"pt":"Kesal'tepeke","it":"Kesal'tepeke","ru":"Кесальтепеке","uk":"Кесальтепеке","de":"Kesal'tepeke","es":"Kesal'tepeke","en":"Кесальтепеке","fr":"Kesal'tepeke"}},{"country":"SV","name":"Puerto el triunfo","admin1Code":"SV.14","latitude":13.28333,"longitude":-88.55,"translations":{"pt":"Puerto el triunfo","it":"Puerto el triunfo","ru":"Puerto el triunfo","uk":"Puerto el triunfo","de":"Puerto el triunfo","es":"Puerto el triunfo","en":"Puerto el triunfo","fr":"Puerto el triunfo"}},{"country":"SV","name":"Santa tecla","admin1Code":"SV.05","latitude":13.67694,"longitude":-89.27972,"translations":{"pt":"Santa tecla","it":"Santa tecla","ru":"Нуэва-сан-сальвадор","uk":"Santa tecla","de":"Santa tecla","es":"Santa tecla","en":"Santa tecla","fr":"Santa tecla"}},{"country":"SV","name":"Метапан","admin1Code":"SV.11","latitude":14.33333,"longitude":-89.45,"translations":{"pt":"Metapan","it":"Metapan","ru":"Метапан","uk":"Метапан","de":"Metapan","es":"Metapan","en":"Метапан","fr":"Metapan"}},{"country":"SV","name":"Mejicanos","admin1Code":"SV.10","latitude":13.72397,"longitude":-89.188,"translations":{"pt":"Mejicanos","it":"Mejicanos","ru":"Мехиканос","uk":"Mejicanos","de":"Mejicanos","es":"Mejicanos","en":"Mejicanos","fr":"Mejicanos"}},{"country":"SV","name":"La unión","admin1Code":"SV.07","latitude":13.33915,"longitude":-87.84328,"translations":{"pt":"La unión","it":"La unión","ru":"La unión","uk":"La unión","de":"La unión","es":"La unión","en":"La unión","fr":"La unión"}},{"country":"SV","name":"La libertad","admin1Code":"SV.05","latitude":13.48833,"longitude":-89.32222,"translations":{"pt":"La libertad","it":"La libertad","ru":"La libertad","uk":"La libertad","de":"La libertad","es":"La libertad","en":"La libertad","fr":"La libertad"}},{"country":"SV","name":"Исалько","admin1Code":"SV.13","latitude":13.74472,"longitude":-89.67306,"translations":{"pt":"Ysal'ko","it":"Ysal'ko","ru":"Исалько","uk":"Исалько","de":"Ysal'ko","es":"Ysal'ko","en":"Исалько","fr":"Ysal'ko"}},{"country":"SV","name":"Илопанго","admin1Code":"SV.10","latitude":13.70167,"longitude":-89.10944,"translations":{"pt":"Ylopanho","it":"Ylopanho","ru":"Илопанго","uk":"Илопанго","de":"Ylopanho","es":"Ylopanho","en":"Илопанго","fr":"Ylopanho"}},{"country":"SV","name":"Delgado","admin1Code":"SV.10","latitude":13.72171,"longitude":-89.16874,"translations":{"pt":"Delgado","it":"Delgado","ru":"Дельгадо","uk":"Delgado","de":"Delgado","es":"Delgado","en":"Delgado","fr":"Delgado"}},{"country":"SV","name":"Cuscatancingo","admin1Code":"SV.10","latitude":13.72702,"longitude":-89.18161,"translations":{"pt":"Cuscatancingo","it":"Cuscatancingo","ru":"Cuscatancingo","uk":"Cuscatancingo","de":"Cuscatancingo","es":"Cuscatancingo","en":"Cuscatancingo","fr":"Cuscatancingo"}},{"country":"SV","name":"Cojutepeque","admin1Code":"SV.04","latitude":13.71667,"longitude":-88.93333,"translations":{"pt":"Cojutepeque","it":"Cojutepeque","ru":"Cojutepeque","uk":"Cojutepeque","de":"Cojutepeque","es":"Cojutepeque","en":"Cojutepeque","fr":"Cojutepeque"}},{"country":"SV","name":"Chalchuapa","admin1Code":"SV.11","latitude":13.98667,"longitude":-89.68111,"translations":{"pt":"Chalchuapa","it":"Chalchuapa","ru":"Chalchuapa","uk":"Chalchuapa","de":"Chalchuapa","es":"Chalchuapa","en":"Chalchuapa","fr":"Chalchuapa"}},{"country":"SV","name":"Чалатенанго","admin1Code":"SV.03","latitude":14.03333,"longitude":-88.93333,"translations":{"pt":"Chalatenanho","it":"Chalatenanho","ru":"Чалатенанго","uk":"Чалатенанго","de":"Chalatenanho","es":"Chalatenanho","en":"Чалатенанго","fr":"Chalatenanho"}},{"country":"SV","name":"Ayutuxtepeque","admin1Code":"SV.10","latitude":13.73538,"longitude":-89.20221,"translations":{"pt":"Ayutuxtepeque","it":"Ayutuxtepeque","ru":"Ayutuxtepeque","uk":"Ayutuxtepeque","de":"Ayutuxtepeque","es":"Ayutuxtepeque","en":"Ayutuxtepeque","fr":"Ayutuxtepeque"}},{"country":"SV","name":"Apopa","admin1Code":"SV.10","latitude":13.80722,"longitude":-89.17917,"translations":{"pt":"Apopa","it":"Apopa","ru":"Apopa","uk":"Apopa","de":"Apopa","es":"Apopa","en":"Apopa","fr":"Apopa"}},{"country":"SV","name":"Antiguo cuscatlán","admin1Code":"SV.05","latitude":13.66492,"longitude":-89.25319,"translations":{"pt":"Antiguo cuscatlán","it":"Antiguo cuscatlán","ru":"Antiguo cuscatlán","uk":"Antiguo cuscatlán","de":"Antiguo cuscatlán","es":"Antiguo cuscatlán","en":"Antiguo cuscatlán","fr":"Antiguo cuscatlán"}},{"country":"SV","name":"Ачуачапан","admin1Code":"SV.01","latitude":13.92139,"longitude":-89.845,"translations":{"pt":"Achuachapan","it":"Achuachapan","ru":"Ачуачапан","uk":"Ачуачапан","de":"Achuachapan","es":"Achuachapan","en":"Ачуачапан","fr":"Achuachapan"}},{"country":"SV","name":"Aguilares","admin1Code":"SV.10","latitude":13.95722,"longitude":-89.18972,"translations":{"pt":"Aguilares","it":"Aguilares","ru":"Aguilares","uk":"Aguilares","de":"Aguilares","es":"Aguilares","en":"Aguilares","fr":"Aguilares"}},{"country":"SV","name":"Акахутла","admin1Code":"SV.13","latitude":13.59278,"longitude":-89.8275,"translations":{"pt":"Akakhutla","it":"Akakhutla","ru":"Акахутла","uk":"Акахутла","de":"Akakhutla","es":"Akakhutla","en":"Акахутла","fr":"Akakhutla"}}]