[{"country":"PE","name":"Юримагуас","admin1Code":"PE.16","latitude":-5.90181,"longitude":-76.12234,"translations":{"pt":"Jurymahuas","it":"Jurymahuas","ru":"Юримагуас","uk":"Юримагуас","de":"Jurymahuas","es":"Jurymahuas","en":"Юримагуас","fr":"Jurymahuas"}},{"country":"PE","name":"Virú","admin1Code":"PE.13","latitude":-8.41554,"longitude":-78.75201,"translations":{"pt":"Virú","it":"Virú","ru":"Virú","uk":"Virú","de":"Virú","es":"Virú","en":"Virú","fr":"Virú"}},{"country":"PE","name":"Uchiza","admin1Code":"PE.22","latitude":-8.45917,"longitude":-76.46333,"translations":{"pt":"Uchiza","it":"Uchiza","ru":"Uchiza","uk":"Uchiza","de":"Uchiza","es":"Uchiza","en":"Uchiza","fr":"Uchiza"}},{"country":"PE","name":"Tumbes","admin1Code":"PE.24","latitude":-3.56694,"longitude":-80.45153,"translations":{"pt":"Tumbes","it":"Tumbes","ru":"Тумбес","uk":"Тумбес","de":"Tumbes","es":"Tumbes","en":"Tumbes","fr":"Tumbes"}},{"country":"PE","name":"Trujillo","admin1Code":"PE.13","latitude":-8.11599,"longitude":-79.02998,"translations":{"pt":"Trujillo","it":"Trujillo","ru":"Трухильо","uk":"Трухійо","de":"Trujillo","es":"Trujillo","en":"Trujillo","fr":"Trujillo"}},{"country":"PE","name":"Tocache","admin1Code":"PE.22","latitude":-8.1877,"longitude":-76.52046,"translations":{"pt":"Tocache","it":"Tocache","ru":"Tocache","uk":"Tocache","de":"Tocache","es":"Tocache","en":"Tocache","fr":"Tocache"}},{"country":"PE","name":"Tingo maría","admin1Code":"PE.10","latitude":-9.29532,"longitude":-75.99574,"translations":{"pt":"Tingo maría","it":"Tingo maría","ru":"Tingo maría","uk":"Tingo maría","de":"Tingo maría","es":"Tingo maría","en":"Tingo maría","fr":"Tingo maría"}},{"country":"PE","name":"Tambo grande","admin1Code":"PE.20","latitude":-4.92694,"longitude":-80.34472,"translations":{"pt":"Tambo grande","it":"Tambo grande","ru":"Tambo grande","uk":"Tambo grande","de":"Tambo grande","es":"Tambo grande","en":"Tambo grande","fr":"Tambo grande"}},{"country":"PE","name":"Talara","admin1Code":"PE.20","latitude":-4.57722,"longitude":-81.27194,"translations":{"pt":"Talara","it":"Talara","ru":"Талара","uk":"Талара","de":"Talara","es":"Talara","en":"Talara","fr":"Talara"}},{"country":"PE","name":"Sullana","admin1Code":"PE.20","latitude":-4.90389,"longitude":-80.68528,"translations":{"pt":"Sullana","it":"Sullana","ru":"Сульяна","uk":"Sullana","de":"Sullana","es":"Sullana","en":"Sullana","fr":"Sullana"}},{"country":"PE","name":"Sechura","admin1Code":"PE.20","latitude":-5.55694,"longitude":-80.82222,"translations":{"pt":"Sechura","it":"Sechura","ru":"Sechura","uk":"Sechura","de":"Sechura","es":"Sechura","en":"Sechura","fr":"Sechura"}},{"country":"PE","name":"Santiago de cao","admin1Code":"PE.13","latitude":-7.95889,"longitude":-79.23917,"translations":{"pt":"Santiago de cao","it":"Santiago de cao","ru":"Santiago de cao","uk":"Santiago de cao","de":"Santiago de cao","es":"Santiago de cao","en":"Santiago de cao","fr":"Santiago de cao"}},{"country":"PE","name":"San pedro de lloc","admin1Code":"PE.13","latitude":-7.4289,"longitude":-79.50416,"translations":{"pt":"San pedro de lloc","it":"San pedro de lloc","ru":"San pedro de lloc","uk":"Сан педро де йок","de":"San pedro de lloc","es":"San pedro de lloc","en":"San pedro de lloc","fr":"San pedro de lloc"}},{"country":"PE","name":"San juan","admin1Code":"PE.16","latitude":-3.77611,"longitude":-73.28139,"translations":{"pt":"San juan","it":"San juan","ru":"San juan","uk":"San juan","de":"San juan","es":"San juan","en":"San juan","fr":"San juan"}},{"country":"PE","name":"Зана","admin1Code":"PE.14","latitude":-6.91888,"longitude":-79.582,"translations":{"pt":"Zana","it":"Zana","ru":"Зана","uk":"Зана","de":"Zana","es":"Zana","en":"Зана","fr":"Zana"}},{"country":"PE","name":"Rioja","admin1Code":"PE.22","latitude":-6.05675,"longitude":-77.16651,"translations":{"pt":"Rioja","it":"Rioja","ru":"Rioja","uk":"Rioja","de":"Rioja","es":"Rioja","en":"Rioja","fr":"Rioja"}},{"country":"PE","name":"Querecotillo","admin1Code":"PE.20","latitude":-4.83778,"longitude":-80.64556,"translations":{"pt":"Querecotillo","it":"Querecotillo","ru":"Querecotillo","uk":"Querecotillo","de":"Querecotillo","es":"Querecotillo","en":"Querecotillo","fr":"Querecotillo"}},{"country":"PE","name":"Pucallpa","admin1Code":"PE.25","latitude":-8.37915,"longitude":-74.55387,"translations":{"pt":"Pucallpa","it":"Pucallpa","ru":"Пукальпа","uk":"Пукальпа","de":"Pucallpa","es":"Pucallpa","en":"Pucallpa","fr":"Pucallpa"}},{"country":"PE","name":"Piura","admin1Code":"PE.20","latitude":-5.19449,"longitude":-80.63282,"translations":{"pt":"Piura","it":"Piura","ru":"Пиура","uk":"Піура","de":"Piura","es":"Piura","en":"Piura","fr":"Piura"}},{"country":"PE","name":"Pimentel","admin1Code":"PE.14","latitude":-6.83667,"longitude":-79.93417,"translations":{"pt":"Pimentel","it":"Pimentel","ru":"Pimentel","uk":"Pimentel","de":"Pimentel","es":"Pimentel","en":"Pimentel","fr":"Pimentel"}},{"country":"PE","name":"Пикси","admin1Code":"PE.14","latitude":-6.71778,"longitude":-79.76972,"translations":{"pt":"Pyksy","it":"Pyksy","ru":"Пикси","uk":"Пикси","de":"Pyksy","es":"Pyksy","en":"Пикси","fr":"Pyksy"}},{"country":"PE","name":"Pátapo","admin1Code":"PE.14","latitude":-6.73315,"longitude":-79.6359,"translations":{"pt":"Pátapo","it":"Pátapo","ru":"Pátapo","uk":"Pátapo","de":"Pátapo","es":"Pátapo","en":"Pátapo","fr":"Pátapo"}},{"country":"PE","name":"Паита","admin1Code":"PE.20","latitude":-5.08917,"longitude":-81.11444,"translations":{"pt":"Payta","it":"Payta","ru":"Паита","uk":"Пайта","de":"Payta","es":"Payta","en":"Паита","fr":"Payta"}},{"country":"PE","name":"Paiján","admin1Code":"PE.13","latitude":-7.73291,"longitude":-79.3015,"translations":{"pt":"Paiján","it":"Paiján","ru":"Paiján","uk":"Paiján","de":"Paiján","es":"Paiján","en":"Paiján","fr":"Paiján"}},{"country":"PE","name":"Pacasmayo","admin1Code":"PE.13","latitude":-7.40056,"longitude":-79.57139,"translations":{"pt":"Pacasmayo","it":"Pacasmayo","ru":"Pacasmayo","uk":"Pacasmayo","de":"Pacasmayo","es":"Pacasmayo","en":"Pacasmayo","fr":"Pacasmayo"}},{"country":"PE","name":"Moyobamba","admin1Code":"PE.22","latitude":-6.03416,"longitude":-76.97168,"translations":{"pt":"Moyobamba","it":"Moyobamba","ru":"Мойобамба","uk":"Moyobamba","de":"Moyobamba","es":"Moyobamba","en":"Moyobamba","fr":"Moyobamba"}},{"country":"PE","name":"Monsefú","admin1Code":"PE.14","latitude":-6.87431,"longitude":-79.86871,"translations":{"pt":"Monsefú","it":"Monsefú","ru":"Monsefú","uk":"Monsefú","de":"Monsefú","es":"Monsefú","en":"Monsefú","fr":"Monsefú"}},{"country":"PE","name":"Moche","admin1Code":"PE.13","latitude":-8.17111,"longitude":-79.00917,"translations":{"pt":"Moche","it":"Moche","ru":"Moche","uk":"Moche","de":"Moche","es":"Moche","en":"Moche","fr":"Moche"}},{"country":"PE","name":"Marcavelica","admin1Code":"PE.20","latitude":-4.87778,"longitude":-80.70528,"translations":{"pt":"Marcavelica","it":"Marcavelica","ru":"Marcavelica","uk":"Marcavelica","de":"Marcavelica","es":"Marcavelica","en":"Marcavelica","fr":"Marcavelica"}},{"country":"PE","name":"La unión","admin1Code":"PE.20","latitude":-5.40232,"longitude":-80.74224,"translations":{"pt":"La unión","it":"La unión","ru":"La unión","uk":"La unión","de":"La unión","es":"La unión","en":"La unión","fr":"La unión"}},{"country":"PE","name":"Ларедо","admin1Code":"PE.13","latitude":-8.08965,"longitude":-78.9602,"translations":{"pt":"Laredo","it":"Laredo","ru":"Ларедо","uk":"Ларедо","de":"Laredo","es":"Laredo","en":"Ларедо","fr":"Laredo"}},{"country":"PE","name":"La peca","admin1Code":"PE.01","latitude":-5.61111,"longitude":-78.435,"translations":{"pt":"La peca","it":"La peca","ru":"La peca","uk":"La peca","de":"La peca","es":"La peca","en":"La peca","fr":"La peca"}},{"country":"PE","name":"Ламбайеке","admin1Code":"PE.14","latitude":-6.70111,"longitude":-79.90611,"translations":{"pt":"Lambajeke","it":"Lambajeke","ru":"Ламбайеке","uk":"Ламбайеке","de":"Lambajeke","es":"Lambajeke","en":"Ламбайеке","fr":"Lambajeke"}},{"country":"PE","name":"Juanjuí","admin1Code":"PE.22","latitude":-7.17697,"longitude":-76.72774,"translations":{"pt":"Juanjuí","it":"Juanjuí","ru":"Хуанхуи","uk":"Хуанхуї","de":"Juanjuí","es":"Juanjuí","en":"Juanjuí","fr":"Juanjuí"}},{"country":"PE","name":"Jaén","admin1Code":"PE.06","latitude":-5.70729,"longitude":-78.80785,"translations":{"pt":"Jaén","it":"Jaén","ru":"Хаэн","uk":"Jaén","de":"Jaén","es":"Jaén","en":"Jaén","fr":"Jaén"}},{"country":"PE","name":"Iquitos","admin1Code":"PE.16","latitude":-3.74912,"longitude":-73.25383,"translations":{"pt":"Iquitos","it":"Iquitos","ru":"Икитос","uk":"Ікітос","de":"Iquitos","es":"Iquitos","en":"Iquitos","fr":"Iquitos"}},{"country":"PE","name":"Huaraz","admin1Code":"PE.02","latitude":-9.52779,"longitude":-77.52778,"translations":{"pt":"Huaraz","it":"Huaraz","ru":"Уарас","uk":"Уарас","de":"Huaraz","es":"Huaraz","en":"Huaraz","fr":"Huaraz"}},{"country":"PE","name":"Huánuco","admin1Code":"PE.10","latitude":-9.93062,"longitude":-76.24223,"translations":{"pt":"Huánuco","it":"Huánuco","ru":"Уануко","uk":"Уануко","de":"Huánuco","es":"Huánuco","en":"Huánuco","fr":"Huánuco"}},{"country":"PE","name":"Huamachuco","admin1Code":"PE.13","latitude":-7.8,"longitude":-78.06667,"translations":{"pt":"Huamachuco","it":"Huamachuco","ru":"Huamachuco","uk":"Huamachuco","de":"Huamachuco","es":"Huamachuco","en":"Huamachuco","fr":"Huamachuco"}},{"country":"PE","name":"Guadalupe","admin1Code":"PE.13","latitude":-7.25,"longitude":-79.48333,"translations":{"pt":"Guadalupe","it":"Guadalupe","ru":"Guadalupe","uk":"Guadalupe","de":"Guadalupe","es":"Guadalupe","en":"Guadalupe","fr":"Guadalupe"}},{"country":"PE","name":"Ferreñafe","admin1Code":"PE.14","latitude":-6.63889,"longitude":-79.78889,"translations":{"pt":"Ferreñafe","it":"Ferreñafe","ru":"Ferreñafe","uk":"Ferreñafe","de":"Ferreñafe","es":"Ferreñafe","en":"Ferreñafe","fr":"Ferreñafe"}},{"country":"PE","name":"Coishco","admin1Code":"PE.02","latitude":-9.02306,"longitude":-78.61556,"translations":{"pt":"Coishco","it":"Coishco","ru":"Coishco","uk":"Coishco","de":"Coishco","es":"Coishco","en":"Coishco","fr":"Coishco"}},{"country":"PE","name":"Chulucanas","admin1Code":"PE.20","latitude":-5.0925,"longitude":-80.1625,"translations":{"pt":"Chulucanas","it":"Chulucanas","ru":"Чулуканаса","uk":"Chulucanas","de":"Chulucanas","es":"Chulucanas","en":"Chulucanas","fr":"Chulucanas"}},{"country":"PE","name":"Chongoyape","admin1Code":"PE.14","latitude":-6.64056,"longitude":-79.38917,"translations":{"pt":"Chongoyape","it":"Chongoyape","ru":"Chongoyape","uk":"Chongoyape","de":"Chongoyape","es":"Chongoyape","en":"Chongoyape","fr":"Chongoyape"}},{"country":"PE","name":"Chocope","admin1Code":"PE.13","latitude":-7.79139,"longitude":-79.22167,"translations":{"pt":"Chocope","it":"Chocope","ru":"Chocope","uk":"Chocope","de":"Chocope","es":"Chocope","en":"Chocope","fr":"Chocope"}},{"country":"PE","name":"Chimbote","admin1Code":"PE.02","latitude":-9.07508,"longitude":-78.59373,"translations":{"pt":"Chimbote","it":"Chimbote","ru":"Чимботе","uk":"Чімботе","de":"Chimbote","es":"Chimbote","en":"Chimbote","fr":"Chimbote"}},{"country":"PE","name":"Chiclayo","admin1Code":"PE.14","latitude":-6.77137,"longitude":-79.84088,"translations":{"pt":"Chiclayo","it":"Chiclayo","ru":"Чиклайо","uk":"Чіклайо","de":"Chiclayo","es":"Chiclayo","en":"Chiclayo","fr":"Chiclayo"}},{"country":"PE","name":"Chepén","admin1Code":"PE.13","latitude":-7.22436,"longitude":-79.42476,"translations":{"pt":"Chepén","it":"Chepén","ru":"Chepén","uk":"Chepén","de":"Chepén","es":"Chepén","en":"Chepén","fr":"Chepén"}},{"country":"PE","name":"Chachapoyas","admin1Code":"PE.01","latitude":-6.23169,"longitude":-77.86903,"translations":{"pt":"Chachapoyas","it":"Chachapoyas","ru":"Чачапояс","uk":"Чачапояс","de":"Chachapoyas","es":"Chachapoyas","en":"Chachapoyas","fr":"Chachapoyas"}},{"country":"PE","name":"Catacaos","admin1Code":"PE.20","latitude":-5.26667,"longitude":-80.68333,"translations":{"pt":"Catacaos","it":"Catacaos","ru":"Catacaos","uk":"Catacaos","de":"Catacaos","es":"Catacaos","en":"Catacaos","fr":"Catacaos"}},{"country":"PE","name":"Cajamarca","admin1Code":"PE.06","latitude":-7.16378,"longitude":-78.50027,"translations":{"pt":"Cajamarca","it":"Cajamarca","ru":"Кахамарка","uk":"Кахамарка","de":"Cajamarca","es":"Cajamarca","en":"Cajamarca","fr":"Cajamarca"}},{"country":"PE","name":"Bellavista","admin1Code":"PE.22","latitude":-7.05614,"longitude":-76.5911,"translations":{"pt":"Bellavista","it":"Bellavista","ru":"Bellavista","uk":"Bellavista","de":"Bellavista","es":"Bellavista","en":"Bellavista","fr":"Bellavista"}},{"country":"PE","name":"Bagua grande","admin1Code":"PE.01","latitude":-5.75611,"longitude":-78.44111,"translations":{"pt":"Bagua grande","it":"Bagua grande","ru":"Bagua grande","uk":"Bagua grande","de":"Bagua grande","es":"Bagua grande","en":"Bagua grande","fr":"Bagua grande"}},{"country":"PE","name":"La breita","admin1Code":"PE.20","latitude":-4.25691,"longitude":-80.88599,"translations":{"pt":"La breita","it":"La breita","ru":"La breita","uk":"La breita","de":"La breita","es":"La breita","en":"La breita","fr":"La breita"}},{"country":"PE","name":"Zarumilla","admin1Code":"PE.24","latitude":-3.50306,"longitude":-80.27306,"translations":{"pt":"Zarumilla","it":"Zarumilla","ru":"Zarumilla","uk":"Zarumilla","de":"Zarumilla","es":"Zarumilla","en":"Zarumilla","fr":"Zarumilla"}},{"country":"PE","name":"Belen","admin1Code":"PE.16","latitude":-3.76016,"longitude":-73.2497,"translations":{"pt":"Belen","it":"Belen","ru":"Belen","uk":"Belen","de":"Belen","es":"Belen","en":"Belen","fr":"Belen"}},{"country":"PE","name":"Yunguyo","admin1Code":"PE.21","latitude":-16.25,"longitude":-69.08333,"translations":{"pt":"Yunguyo","it":"Yunguyo","ru":"Yunguyo","uk":"Yunguyo","de":"Yunguyo","es":"Yunguyo","en":"Yunguyo","fr":"Yunguyo"}},{"country":"PE","name":"Yauri","admin1Code":"PE.08","latitude":-14.79083,"longitude":-71.40986,"translations":{"pt":"Yauri","it":"Yauri","ru":"Yauri","uk":"Yauri","de":"Yauri","es":"Yauri","en":"Yauri","fr":"Yauri"}},{"country":"PE","name":"Yanacancha","admin1Code":"PE.10","latitude":-10.24111,"longitude":-76.64556,"translations":{"pt":"Yanacancha","it":"Yanacancha","ru":"Yanacancha","uk":"Yanacancha","de":"Yanacancha","es":"Yanacancha","en":"Yanacancha","fr":"Yanacancha"}},{"country":"PE","name":"Тарма","admin1Code":"PE.12","latitude":-11.41899,"longitude":-75.68992,"translations":{"pt":"Tarma","it":"Tarma","ru":"Тарма","uk":"Тарма","de":"Tarma","es":"Tarma","en":"Тарма","fr":"Tarma"}},{"country":"PE","name":"Tambopata","admin1Code":"PE.17","latitude":-12.67191,"longitude":-69.35547,"translations":{"pt":"Tambopata","it":"Tambopata","ru":"Tambopata","uk":"Tambopata","de":"Tambopata","es":"Tambopata","en":"Tambopata","fr":"Tambopata"}},{"country":"PE","name":"Tacna","admin1Code":"PE.23","latitude":-18.01465,"longitude":-70.25362,"translations":{"pt":"Tacna","it":"Tacna","ru":"Такна","uk":"Такна","de":"Tacna","es":"Tacna","en":"Tacna","fr":"Tacna"}},{"country":"PE","name":"Santiago de surco","admin1Code":"PE.15","latitude":-12.13588,"longitude":-77.00742,"translations":{"pt":"Santiago de surco","it":"Santiago de surco","ru":"Santiago de surco","uk":"Santiago de surco","de":"Santiago de surco","es":"Santiago de surco","en":"Santiago de surco","fr":"Santiago de surco"}},{"country":"PE","name":"Sicuani","admin1Code":"PE.08","latitude":-14.26944,"longitude":-71.22611,"translations":{"pt":"Sicuani","it":"Sicuani","ru":"Sicuani","uk":"Sicuani","de":"Sicuani","es":"Sicuani","en":"Sicuani","fr":"Sicuani"}},{"country":"PE","name":"Satipo","admin1Code":"PE.12","latitude":-11.25222,"longitude":-74.63861,"translations":{"pt":"Satipo","it":"Satipo","ru":"Satipo","uk":"Satipo","de":"Satipo","es":"Satipo","en":"Satipo","fr":"Satipo"}},{"country":"PE","name":"San vicente de cañete","admin1Code":"PE.15","latitude":-13.07556,"longitude":-76.38528,"translations":{"pt":"San vicente de cañete","it":"San vicente de cañete","ru":"San vicente de cañete","uk":"San vicente de cañete","de":"San vicente de cañete","es":"San vicente de cañete","en":"San vicente de cañete","fr":"San vicente de cañete"}},{"country":"PE","name":"Santa ana","admin1Code":"PE.08","latitude":-12.86667,"longitude":-72.71667,"translations":{"pt":"Santa ana","it":"Santa ana","ru":"Santa ana","uk":"Santa ana","de":"Santa ana","es":"Santa ana","en":"Santa ana","fr":"Santa ana"}},{"country":"PE","name":"San isidro","admin1Code":"PE.15","latitude":-12.09655,"longitude":-77.04258,"translations":{"pt":"San isidro","it":"San isidro","ru":"San isidro","uk":"San isidro","de":"San isidro","es":"San isidro","en":"San isidro","fr":"San isidro"}},{"country":"PE","name":"San clemente","admin1Code":"PE.11","latitude":-13.66667,"longitude":-76.15,"translations":{"pt":"San clemente","it":"San clemente","ru":"San clemente","uk":"San clemente","de":"San clemente","es":"San clemente","en":"San clemente","fr":"San clemente"}},{"country":"PE","name":"Puno","admin1Code":"PE.21","latitude":-15.8422,"longitude":-70.0199,"translations":{"pt":"Puno","it":"Puno","ru":"Пуно","uk":"Пуно","de":"Puno","es":"Puno","en":"Puno","fr":"Puno"}},{"country":"PE","name":"Puerto maldonado","admin1Code":"PE.17","latitude":-12.59331,"longitude":-69.18913,"translations":{"pt":"Puerto maldonado","it":"Puerto maldonado","ru":"Пуэрто-мальдонадо","uk":"Пуерто-мальдонадо","de":"Puerto maldonado","es":"Puerto maldonado","en":"Puerto maldonado","fr":"Puerto maldonado"}},{"country":"PE","name":"Pisco","admin1Code":"PE.11","latitude":-13.71029,"longitude":-76.20538,"translations":{"pt":"Pisco","it":"Pisco","ru":"Писко","uk":"Pisco","de":"Pisco","es":"Pisco","en":"Pisco","fr":"Pisco"}},{"country":"PE","name":"Парамонга","admin1Code":"PE.15","latitude":-10.66667,"longitude":-77.83333,"translations":{"pt":"Paramonha","it":"Paramonha","ru":"Парамонга","uk":"Парамонга","de":"Paramonha","es":"Paramonha","en":"Парамонга","fr":"Paramonha"}},{"country":"PE","name":"Nuevo imperial","admin1Code":"PE.15","latitude":-13.07541,"longitude":-76.31719,"translations":{"pt":"Nuevo imperial","it":"Nuevo imperial","ru":"Nuevo imperial","uk":"Nuevo imperial","de":"Nuevo imperial","es":"Nuevo imperial","en":"Nuevo imperial","fr":"Nuevo imperial"}},{"country":"PE","name":"Nazca","admin1Code":"PE.11","latitude":-14.83098,"longitude":-74.93895,"translations":{"pt":"Placa de nazca","it":"Nazca","ru":"Наска","uk":"Nazca","de":"Nazca","es":"Provincia de nazca","en":"Nazca","fr":"Nazca"}},{"country":"PE","name":"Moquegua","admin1Code":"PE.18","latitude":-17.19832,"longitude":-70.93567,"translations":{"pt":"Moquegua","it":"Moquegua","ru":"Мокегуа","uk":"Мокеґуа","de":"Moquegua","es":"Moquegua","en":"Moquegua","fr":"Moquegua"}},{"country":"PE","name":"Мольендо","admin1Code":"PE.04","latitude":-17.02306,"longitude":-72.01472,"translations":{"pt":"Mol'endo","it":"Mol'endo","ru":"Мольендо","uk":"Мольендо","de":"Mol'endo","es":"Mol'endo","en":"Мольендо","fr":"Mol'endo"}},{"country":"PE","name":"Minas de marcona","admin1Code":"PE.11","latitude":-15.21194,"longitude":-75.11028,"translations":{"pt":"Minas de marcona","it":"Minas de marcona","ru":"Minas de marcona","uk":"Minas de marcona","de":"Minas de marcona","es":"Minas de marcona","en":"Minas de marcona","fr":"Minas de marcona"}},{"country":"PE","name":"Mala","admin1Code":"PE.15","latitude":-12.65806,"longitude":-76.63083,"translations":{"pt":"Mala","it":"Mala","ru":"Mala","uk":"Mala","de":"Mala","es":"Mala","en":"Mala","fr":"Mala"}},{"country":"PE","name":"Lima","admin1Code":"PE.LMA","latitude":-12.04318,"longitude":-77.02824,"translations":{"pt":"Lima","it":"Lima","ru":"Лима","uk":"Ліма","de":"Lima","es":"Lima","en":"Lima","fr":"Lima"}},{"country":"PE","name":"Ла-оройа","admin1Code":"PE.12","latitude":-11.51893,"longitude":-75.89935,"translations":{"pt":"La-oroja","it":"La-oroja","ru":"Ла-оройа","uk":"Ла-оройа","de":"La-oroja","es":"La-oroja","en":"Ла-оройа","fr":"La-oroja"}},{"country":"PE","name":"Junín","admin1Code":"PE.12","latitude":-11.15895,"longitude":-75.99304,"translations":{"pt":"Junín","it":"Junín","ru":"Junín","uk":"Junín","de":"Junín","es":"Junín","en":"Junín","fr":"Junín"}},{"country":"PE","name":"Хульяка","admin1Code":"PE.21","latitude":-15.5,"longitude":-70.13333,"translations":{"pt":"Khul'jaka","it":"Khul'jaka","ru":"Хульяка","uk":"Хульяка","de":"Khul'jaka","es":"Khul'jaka","en":"Хульяка","fr":"Khul'jaka"}},{"country":"PE","name":"José gálvez barrenechea","admin1Code":"PE.15","latitude":-12.21312,"longitude":-76.90522,"translations":{"pt":"José gálvez barrenechea","it":"José gálvez barrenechea","ru":"José gálvez barrenechea","uk":"José gálvez barrenechea","de":"José gálvez barrenechea","es":"José gálvez barrenechea","en":"José gálvez barrenechea","fr":"José gálvez barrenechea"}},{"country":"PE","name":"Хауха","admin1Code":"PE.12","latitude":-11.77584,"longitude":-75.49656,"translations":{"pt":"Khaukha","it":"Khaukha","ru":"Хауха","uk":"Хауха","de":"Khaukha","es":"Khaukha","en":"Хауха","fr":"Khaukha"}},{"country":"PE","name":"Imperial","admin1Code":"PE.15","latitude":-13.05927,"longitude":-76.35269,"translations":{"pt":"Imperial","it":"Imperial","ru":"Imperial","uk":"Imperial","de":"Imperial","es":"Imperial","en":"Imperial","fr":"Imperial"}},{"country":"PE","name":"Ило","admin1Code":"PE.18","latitude":-17.63185,"longitude":-71.34108,"translations":{"pt":"Ylo","it":"Ylo","ru":"Ило","uk":"Іло","de":"Ylo","es":"Ylo","en":"Ило","fr":"Ylo"}},{"country":"PE","name":"Ilave","admin1Code":"PE.21","latitude":-16.08333,"longitude":-69.66667,"translations":{"pt":"Ilave","it":"Ilave","ru":"Ilave","uk":"Ilave","de":"Ilave","es":"Ilave","en":"Ilave","fr":"Ilave"}},{"country":"PE","name":"Ica","admin1Code":"PE.11","latitude":-14.06777,"longitude":-75.72861,"translations":{"pt":"Ica","it":"Ica","ru":"Ика","uk":"Іка","de":"Ica","es":"Ica","en":"Ica","fr":"Ica"}},{"country":"PE","name":"Huaura","admin1Code":"PE.15","latitude":-11.07,"longitude":-77.59944,"translations":{"pt":"Huaura","it":"Huaura","ru":"Huaura","uk":"Huaura","de":"Huaura","es":"Huaura","en":"Huaura","fr":"Huaura"}},{"country":"PE","name":"Huarmey","admin1Code":"PE.02","latitude":-10.06806,"longitude":-78.15222,"translations":{"pt":"Huarmey","it":"Huarmey","ru":"Huarmey","uk":"Huarmey","de":"Huarmey","es":"Huarmey","en":"Huarmey","fr":"Huarmey"}},{"country":"PE","name":"Уараль","admin1Code":"PE.15","latitude":-11.495,"longitude":-77.20778,"translations":{"pt":"Uaral'","it":"Uaral'","ru":"Уараль","uk":"Уараль","de":"Uaral'","es":"Uaral'","en":"Уараль","fr":"Uaral'"}},{"country":"PE","name":"Huanta","admin1Code":"PE.05","latitude":-12.93333,"longitude":-74.25,"translations":{"pt":"Huanta","it":"Huanta","ru":"Huanta","uk":"Huanta","de":"Huanta","es":"Huanta","en":"Huanta","fr":"Huanta"}},{"country":"PE","name":"Huancayo","admin1Code":"PE.12","latitude":-12.06513,"longitude":-75.20486,"translations":{"pt":"Huancayo","it":"Huancayo","ru":"Уанкайо","uk":"Уанкайо","de":"Huancayo","es":"Huancayo","en":"Huancayo","fr":"Huancayo"}},{"country":"PE","name":"Huancavelica","admin1Code":"PE.09","latitude":-12.78261,"longitude":-74.97266,"translations":{"pt":"Huancavelica","it":"Huancavelica","ru":"Уанкавелика","uk":"Уанкавеліка","de":"Huancavelica","es":"Huancavelica","en":"Huancavelica","fr":"Huancavelica"}},{"country":"PE","name":"Hualmay","admin1Code":"PE.15","latitude":-11.09639,"longitude":-77.61389,"translations":{"pt":"Hualmay","it":"Hualmay","ru":"Hualmay","uk":"Hualmay","de":"Hualmay","es":"Hualmay","en":"Hualmay","fr":"Hualmay"}},{"country":"PE","name":"Уачо","admin1Code":"PE.15","latitude":-11.10667,"longitude":-77.605,"translations":{"pt":"Uacho","it":"Uacho","ru":"Уачо","uk":"Уачо","de":"Uacho","es":"Uacho","en":"Уачо","fr":"Uacho"}},{"country":"PE","name":"Cusco","admin1Code":"PE.08","latitude":-13.52264,"longitude":-71.96734,"translations":{"pt":"Cusco","it":"Cusco","ru":"Куско","uk":"Куско","de":"Cusco","es":"Cuzco","en":"Cusco","fr":"Cuzco"}},{"country":"PE","name":"Chosica","admin1Code":"PE.15","latitude":-11.94306,"longitude":-76.70944,"translations":{"pt":"Chosica","it":"Chosica","ru":"Chosica","uk":"Chosica","de":"Chosica","es":"Chosica","en":"Chosica","fr":"Chosica"}},{"country":"PE","name":"Чинча-альта","admin1Code":"PE.11","latitude":-13.40985,"longitude":-76.13235,"translations":{"pt":"Chyncha-al'ta","it":"Chyncha-al'ta","ru":"Чинча-альта","uk":"Чинча-альта","de":"Chyncha-al'ta","es":"Chyncha-al'ta","en":"Чинча-альта","fr":"Chyncha-al'ta"}},{"country":"PE","name":"Chaupimarca","admin1Code":"PE.19","latitude":-10.40696,"longitude":-76.46168,"translations":{"pt":"Chaupimarca","it":"Chaupimarca","ru":"Chaupimarca","uk":"Chaupimarca","de":"Chaupimarca","es":"Chaupimarca","en":"Chaupimarca","fr":"Chaupimarca"}},{"country":"PE","name":"Chancay","admin1Code":"PE.15","latitude":-11.57139,"longitude":-77.26722,"translations":{"pt":"Chancay","it":"Chancay","ru":"Chancay","uk":"Chancay","de":"Chancay","es":"Chancay","en":"Chancay","fr":"Chancay"}},{"country":"PE","name":"Cerro de pasco","admin1Code":"PE.19","latitude":-10.66748,"longitude":-76.25668,"translations":{"pt":"Cerro de pasco","it":"Cerro de pasco","ru":"Серро-де-паско","uk":"Серро-де-паско","de":"Cerro de pasco","es":"Cerro de pasco","en":"Cerro de pasco","fr":"Cerro de pasco"}},{"country":"PE","name":"Camaná","admin1Code":"PE.04","latitude":-16.62375,"longitude":-72.71055,"translations":{"pt":"Camaná","it":"Camaná","ru":"Camaná","uk":"Camaná","de":"Camaná","es":"Camaná","en":"Camaná","fr":"Camaná"}},{"country":"PE","name":"Callao","admin1Code":"PE.07","latitude":-12.05659,"longitude":-77.11814,"translations":{"pt":"El callao","it":"Callao","ru":"Кальяо","uk":"Каяо","de":"Callao","es":"El callao","en":"Callao","fr":"Callao"}},{"country":"PE","name":"Barranca","admin1Code":"PE.15","latitude":-10.75,"longitude":-77.76667,"translations":{"pt":"Barranca","it":"Barranca","ru":"Barranca","uk":"Barranca","de":"Barranca","es":"Barranca","en":"Barranca","fr":"Barranca"}},{"country":"PE","name":"Ayaviri","admin1Code":"PE.21","latitude":-14.88639,"longitude":-70.58889,"translations":{"pt":"Ayaviri","it":"Ayaviri","ru":"Ayaviri","uk":"Ayaviri","de":"Ayaviri","es":"Ayaviri","en":"Ayaviri","fr":"Ayaviri"}},{"country":"PE","name":"Ayacucho","admin1Code":"PE.05","latitude":-13.15878,"longitude":-74.22321,"translations":{"pt":"Ayacucho","it":"Ayacucho","ru":"Аякучо","uk":"Аякучо","de":"Ayacucho","es":"Ayacucho","en":"Ayacucho","fr":"Ayacucho"}},{"country":"PE","name":"Arequipa","admin1Code":"PE.04","latitude":-16.39889,"longitude":-71.535,"translations":{"pt":"Arequipa","it":"Arequipa","ru":"Арекипа","uk":"Арекіпа","de":"Arequipa","es":"Arequipa","en":"Arequipa","fr":"Arequipa"}},{"country":"PE","name":"Андауайлас","admin1Code":"PE.03","latitude":-13.65556,"longitude":-73.38722,"translations":{"pt":"Andauajlas","it":"Andauajlas","ru":"Андауайлас","uk":"Андауайлас","de":"Andauajlas","es":"Andauajlas","en":"Андауайлас","fr":"Andauajlas"}},{"country":"PE","name":"Abancay","admin1Code":"PE.03","latitude":-13.63389,"longitude":-72.88139,"translations":{"pt":"Abancay","it":"Abancay","ru":"Абанкай","uk":"Абанкай","de":"Abancay","es":"Abancay","en":"Abancay","fr":"Abancay"}},{"country":"PE","name":"Jacobo hunter","admin1Code":"PE.04","latitude":-16.44083,"longitude":-71.55333,"translations":{"pt":"Jacobo hunter","it":"Jacobo hunter","ru":"Jacobo hunter","uk":"Jacobo hunter","de":"Jacobo hunter","es":"Jacobo hunter","en":"Jacobo hunter","fr":"Jacobo hunter"}},{"country":"PE","name":"La rinconada","admin1Code":"PE.21","latitude":-14.63126,"longitude":-69.44638,"translations":{"pt":"La rinconada","it":"La rinconada","ru":"La rinconada","uk":"La rinconada","de":"La rinconada","es":"La rinconada","en":"La rinconada","fr":"La rinconada"}},{"country":"PE","name":"Santa anita - los ficus","admin1Code":"PE.15","latitude":-12.05048,"longitude":-76.97335,"translations":{"pt":"Santa anita - los ficus","it":"Santa anita - los ficus","ru":"Santa anita - los ficus","uk":"Santa anita - los ficus","de":"Santa anita - los ficus","es":"Santa anita - los ficus","en":"Santa anita - los ficus","fr":"Santa anita - los ficus"}},{"country":"PE","name":"San martin","admin1Code":"PE.20","latitude":-5.18591,"longitude":-80.66927,"translations":{"pt":"San martin","it":"San martin","ru":"San martin","uk":"San martin","de":"San martin","es":"San martin","en":"San martin","fr":"San martin"}},{"country":"PE","name":"San francisco de borja","admin1Code":"PE.15","latitude":-12.08911,"longitude":-76.99876,"translations":{"pt":"San francisco de borja","it":"San francisco de borja","ru":"San francisco de borja","uk":"San francisco de borja","de":"San francisco de borja","es":"San francisco de borja","en":"San francisco de borja","fr":"San francisco de borja"}},{"country":"PE","name":"Ciudad satelite","admin1Code":"PE.04","latitude":-16.43085,"longitude":-71.52921,"translations":{"pt":"Ciudad satelite","it":"Ciudad satelite","ru":"Ciudad satelite","uk":"Ciudad satelite","de":"Ciudad satelite","es":"Ciudad satelite","en":"Ciudad satelite","fr":"Ciudad satelite"}},{"country":"PE","name":"Chilca","admin1Code":"PE.12","latitude":-12.08628,"longitude":-75.20827,"translations":{"pt":"Chilca","it":"Chilca","ru":"Chilca","uk":"Chilca","de":"Chilca","es":"Chilca","en":"Chilca","fr":"Chilca"}},{"country":"PE","name":"San fernando","admin1Code":"PE.25","latitude":-8.39818,"longitude":-74.53774,"translations":{"pt":"San fernando","it":"San fernando","ru":"San fernando","uk":"San fernando","de":"San fernando","es":"San fernando","en":"San fernando","fr":"San fernando"}},{"country":"PE","name":"Jesus maria","admin1Code":"PE.15","latitude":-12.06982,"longitude":-77.04495,"translations":{"pt":"Jesus maria","it":"Jesus maria","ru":"Jesus maria","uk":"Jesus maria","de":"Jesus maria","es":"Jesus maria","en":"Jesus maria","fr":"Jesus maria"}},{"country":"PE","name":"Wanchaq","admin1Code":"PE.08","latitude":-13.52493,"longitude":-71.96531,"translations":{"pt":"Wanchaq","it":"Wanchaq","ru":"Wanchaq","uk":"Wanchaq","de":"Wanchaq","es":"Wanchaq","en":"Wanchaq","fr":"Wanchaq"}},{"country":"PE","name":"Centenario","admin1Code":"PE.02","latitude":-9.51656,"longitude":-77.53045,"translations":{"pt":"Centenario","it":"Centenario","ru":"Centenario","uk":"Centenario","de":"Centenario","es":"Centenario","en":"Centenario","fr":"Centenario"}},{"country":"PE","name":"Cono norte","admin1Code":"PE.04","latitude":-16.32369,"longitude":-71.58151,"translations":{"pt":"Cono norte","it":"Cono norte","ru":"Cono norte","uk":"Cono norte","de":"Cono norte","es":"Cono norte","en":"Cono norte","fr":"Cono norte"}},{"country":"PE","name":"Carmen de la legua reynoso","admin1Code":"PE.07","latitude":-12.05354,"longitude":-77.09802,"translations":{"pt":"Carmen de la legua reynoso","it":"Carmen de la legua reynoso","ru":"Carmen de la legua reynoso","uk":"Carmen de la legua reynoso","de":"Carmen de la legua reynoso","es":"Carmen de la legua reynoso","en":"Carmen de la legua reynoso","fr":"Carmen de la legua reynoso"}},{"country":"PE","name":"La banda","admin1Code":"PE.22","latitude":-6.49265,"longitude":-76.34224,"translations":{"pt":"La banda","it":"La banda","ru":"La banda","uk":"La banda","de":"La banda","es":"La banda","en":"La banda","fr":"La banda"}},{"country":"PE","name":"Yanacancha","admin1Code":"PE.19","latitude":-10.66585,"longitude":-76.25525,"translations":{"pt":"Yanacancha","it":"Yanacancha","ru":"Yanacancha","uk":"Yanacancha","de":"Yanacancha","es":"Yanacancha","en":"Yanacancha","fr":"Yanacancha"}},{"country":"PE","name":"El pedregal","admin1Code":"PE.04","latitude":-16.36314,"longitude":-72.1921,"translations":{"pt":"El pedregal","it":"El pedregal","ru":"El pedregal","uk":"El pedregal","de":"El pedregal","es":"El pedregal","en":"El pedregal","fr":"El pedregal"}},{"country":"PE","name":"Santa rosa","admin1Code":"PE.12","latitude":-10.91908,"longitude":-74.88496,"translations":{"pt":"Santa rosa","it":"Santa rosa","ru":"Santa rosa","uk":"Santa rosa","de":"Santa rosa","es":"Santa rosa","en":"Santa rosa","fr":"Santa rosa"}},{"country":"PE","name":"San antonio","admin1Code":"PE.18","latitude":-17.21718,"longitude":-70.92593,"translations":{"pt":"San antonio","it":"San antonio","ru":"San antonio","uk":"San antonio","de":"San antonio","es":"San antonio","en":"San antonio","fr":"San antonio"}},{"country":"PE","name":"Selva alegre","admin1Code":"PE.04","latitude":-16.37057,"longitude":-71.52724,"translations":{"pt":"Selva alegre","it":"Selva alegre","ru":"Selva alegre","uk":"Selva alegre","de":"Selva alegre","es":"Selva alegre","en":"Selva alegre","fr":"Selva alegre"}},{"country":"PE","name":"Santiago","admin1Code":"PE.08","latitude":-13.52728,"longitude":-71.9843,"translations":{"pt":"Santiago","it":"Santiago","ru":"Santiago","uk":"Santiago","de":"Santiago","es":"Santiago","en":"Santiago","fr":"Santiago"}},{"country":"PE","name":"Breña","admin1Code":"PE.15","latitude":-12.05605,"longitude":-77.05295,"translations":{"pt":"Breña","it":"Breña","ru":"Breña","uk":"Breña","de":"Breña","es":"Breña","en":"Breña","fr":"Breña"}}]