[{"country":"MY","name":"Kuah","admin1Code":"MY.02","latitude":6.32649,"longitude":99.8432,"translations":{"pt":"Kuah","it":"Kuah","ru":"Куах","uk":"Kuah","de":"Kuah","es":"Kuah","en":"Kuah","fr":"Kuah"}},{"country":"MY","name":"Jerantut","admin1Code":"MY.06","latitude":3.936,"longitude":102.3626,"translations":{"pt":"Jerantut","it":"Jerantut","ru":"Jerantut","uk":"Jerantut","de":"Jerantut","es":"Jerantut","en":"Jerantut","fr":"Jerantut"}},{"country":"MY","name":"Maran","admin1Code":"MY.06","latitude":3.586,"longitude":102.773,"translations":{"pt":"Maran","it":"Maran","ru":"Maran","uk":"Maran","de":"Maran","es":"Maran","en":"Maran","fr":"Maran"}},{"country":"MY","name":"Raub","admin1Code":"MY.06","latitude":3.7899,"longitude":101.857,"translations":{"pt":"Raub","it":"Raub","ru":"Raub","uk":"Raub","de":"Raub","es":"Raub","en":"Raub","fr":"Raub"}},{"country":"MY","name":"Bentong","admin1Code":"MY.06","latitude":3.5316,"longitude":101.9038,"translations":{"pt":"Bentong","it":"Bentong","ru":"Bentong","uk":"Bentong","de":"Bentong","es":"Bentong","en":"Bentong","fr":"Bentong"}},{"country":"MY","name":"Tanjong malim","admin1Code":"MY.07","latitude":3.681,"longitude":101.5198,"translations":{"pt":"Tanjong malim","it":"Tanjong malim","ru":"Tanjong malim","uk":"Tanjong malim","de":"Tanjong malim","es":"Tanjong malim","en":"Tanjong malim","fr":"Tanjong malim"}},{"country":"MY","name":"Kuala kubu bharu","admin1Code":"MY.12","latitude":3.5638,"longitude":101.6581,"translations":{"pt":"Kuala kubu bharu","it":"Kuala kubu bharu","ru":"Kuala kubu bharu","uk":"Kuala kubu bharu","de":"Kuala kubu","es":"Kuala kubu bharu","en":"Kuala kubu bharu","fr":"Kuala kubu bharu"}},{"country":"MY","name":"Parit sulung","admin1Code":"MY.01","latitude":1.976,"longitude":102.8835,"translations":{"pt":"Parit sulung","it":"Parit sulung","ru":"Parit sulung","uk":"Parit sulung","de":"Parit sulung","es":"Parit sulung","en":"Parit sulung","fr":"Parit sulung"}},{"country":"MY","name":"Batu pahat","admin1Code":"MY.01","latitude":1.8548,"longitude":102.9325,"translations":{"pt":"Batu pahat","it":"Batu pahat","ru":"Batu pahat","uk":"Batu pahat","de":"Batu pahat","es":"Batu pahat","en":"Batu pahat","fr":"Batu pahat"}},{"country":"MY","name":"Parit raja","admin1Code":"MY.01","latitude":1.8681,"longitude":103.1124,"translations":{"pt":"Parit raja","it":"Parit raja","ru":"Parit raja","uk":"Parit raja","de":"Parit raja","es":"Parit raja","en":"Parit raja","fr":"Parit raja"}},{"country":"MY","name":"Simpang renggam","admin1Code":"MY.01","latitude":1.825,"longitude":103.3107,"translations":{"pt":"Simpang renggam","it":"Simpang renggam","ru":"Simpang renggam","uk":"Simpang renggam","de":"Simpang renggam","es":"Simpang renggam","en":"Simpang renggam","fr":"Simpang renggam"}},{"country":"MY","name":"Pekan nenas","admin1Code":"MY.01","latitude":1.51,"longitude":103.5141,"translations":{"pt":"Pekan nenas","it":"Pekan nenas","ru":"Pekan nenas","uk":"Pekan nenas","de":"Pekan nenas","es":"Pekan nenas","en":"Pekan nenas","fr":"Pekan nenas"}},{"country":"MY","name":"Pontian besar","admin1Code":"MY.01","latitude":1.5059,"longitude":103.3816,"translations":{"pt":"Pontian besar","it":"Pontian besar","ru":"Pontian besar","uk":"Pontian besar","de":"Pontian besar","es":"Pontian besar","en":"Pontian besar","fr":"Pontian besar"}},{"country":"MY","name":"Kampung pasir gudang baru","admin1Code":"MY.01","latitude":1.4726,"longitude":103.878,"translations":{"pt":"Kampung pasir gudang baru","it":"Kampung pasir gudang baru","ru":"Kampung pasir gudang baru","uk":"Kampung pasir gudang baru","de":"Kampung pasir gudang baru","es":"Kampung pasir gudang baru","en":"Kampung pasir gudang baru","fr":"Kampung pasir gudang baru"}},{"country":"MY","name":"Pasir gudang","admin1Code":"MY.01","latitude":1.462,"longitude":103.9053,"translations":{"pt":"Pasir gudang","it":"Pasir gudang","ru":"Pasir gudang","uk":"Pasir gudang","de":"Pasir gudang","es":"Pasir gudang","en":"Pasir gudang","fr":"Pasir gudang"}},{"country":"MY","name":"Kampung larkin lama","admin1Code":"MY.01","latitude":1.5024,"longitude":103.744,"translations":{"pt":"Kampung larkin lama","it":"Kampung larkin lama","ru":"Kampung larkin lama","uk":"Kampung larkin lama","de":"Kampung larkin lama","es":"Kampung larkin lama","en":"Kampung larkin lama","fr":"Kampung larkin lama"}},{"country":"MY","name":"Kampung sedenak","admin1Code":"MY.01","latitude":1.7114,"longitude":103.5276,"translations":{"pt":"Kampung sedenak","it":"Kampung sedenak","ru":"Kampung sedenak","uk":"Kampung sedenak","de":"Kampung sedenak","es":"Kampung sedenak","en":"Kampung sedenak","fr":"Kampung sedenak"}},{"country":"MY","name":"Kota tinggi","admin1Code":"MY.01","latitude":1.7381,"longitude":103.8999,"translations":{"pt":"Kota tinggi","it":"Kota tinggi","ru":"Kota tinggi","uk":"Kota tinggi","de":"Kota tinggi","es":"Kota tinggi","en":"Kota tinggi","fr":"Kota tinggi"}},{"country":"MY","name":"Сенаи","admin1Code":"MY.01","latitude":1.6006,"longitude":103.6419,"translations":{"pt":"Senay","it":"Senay","ru":"Сенаи","uk":"Сенаи","de":"Senay","es":"Senay","en":"Сенаи","fr":"Senay"}},{"country":"MY","name":"Kulai","admin1Code":"MY.01","latitude":1.6561,"longitude":103.6032,"translations":{"pt":"Kulai","it":"Kulai","ru":"Kulai","uk":"Kulai","de":"Kulai","es":"Kulai","en":"Kulai","fr":"Kulai"}},{"country":"MY","name":"Skudai","admin1Code":"MY.01","latitude":1.53741,"longitude":103.65779,"translations":{"pt":"Skudai","it":"Skudai","ru":"Skudai","uk":"Skudai","de":"Skudai","es":"Skudai","en":"Skudai","fr":"Skudai"}},{"country":"MY","name":"Kempas","admin1Code":"MY.01","latitude":1.5489,"longitude":103.6965,"translations":{"pt":"Kempas","it":"Kempas","ru":"Kempas","uk":"Kempas","de":"Kempas","es":"Kempas","en":"Kempas","fr":"Kempas"}},{"country":"MY","name":"Pelentong","admin1Code":"MY.01","latitude":1.5243,"longitude":103.824,"translations":{"pt":"Pelentong","it":"Pelentong","ru":"Pelentong","uk":"Pelentong","de":"Pelentong","es":"Pelentong","en":"Pelentong","fr":"Pelentong"}},{"country":"MY","name":"Masai","admin1Code":"MY.01","latitude":1.4907,"longitude":103.8788,"translations":{"pt":"Masai","it":"Masai","ru":"Masai","uk":"Masai","de":"Masai","es":"Masai","en":"Masai","fr":"Masai"}},{"country":"MY","name":"Johor bahru","admin1Code":"MY.01","latitude":1.4655,"longitude":103.7578,"translations":{"pt":"Johor bahru","it":"Johor bahru","ru":"Джохор-бару","uk":"Джохор-бару","de":"Johor bahru","es":"Johor bahru","en":"Johor bahru","fr":"Johor bahru"}},{"country":"MY","name":"Gelang patah","admin1Code":"MY.01","latitude":1.4484,"longitude":103.5873,"translations":{"pt":"Gelang patah","it":"Gelang patah","ru":"Gelang patah","uk":"Gelang patah","de":"Gelang patah","es":"Gelang patah","en":"Gelang patah","fr":"Gelang patah"}},{"country":"MY","name":"Pengerang","admin1Code":"MY.01","latitude":1.3651,"longitude":104.1118,"translations":{"pt":"Pengerang","it":"Pengerang","ru":"Pengerang","uk":"Pengerang","de":"Pengerang","es":"Pengerang","en":"Pengerang","fr":"Pengerang"}},{"country":"MY","name":"Kluang","admin1Code":"MY.01","latitude":2.03046,"longitude":103.31689,"translations":{"pt":"Kluang","it":"Kluang","ru":"Kluang","uk":"Kluang","de":"Kluang","es":"Kluang","en":"Kluang","fr":"Kluang"}},{"country":"MY","name":"Yong peng","admin1Code":"MY.01","latitude":2.0136,"longitude":103.0659,"translations":{"pt":"Yong peng","it":"Yong peng","ru":"Yong peng","uk":"Yong peng","de":"Yong peng","es":"Yong peng","en":"Yong peng","fr":"Yong peng"}},{"country":"MY","name":"Mersing","admin1Code":"MY.01","latitude":2.4312,"longitude":103.8405,"translations":{"pt":"Mersing","it":"Mersing","ru":"Mersing","uk":"Mersing","de":"Mersing","es":"Mersing","en":"Mersing","fr":"Mersing"}},{"country":"MY","name":"Segamat","admin1Code":"MY.01","latitude":2.5148,"longitude":102.8158,"translations":{"pt":"Segamat","it":"Segamat","ru":"Segamat","uk":"Segamat","de":"Segamat","es":"Segamat","en":"Segamat","fr":"Segamat"}},{"country":"MY","name":"Tangkak","admin1Code":"MY.01","latitude":2.2673,"longitude":102.5453,"translations":{"pt":"Tangkak","it":"Tangkak","ru":"Tangkak","uk":"Tangkak","de":"Tangkak","es":"Tangkak","en":"Tangkak","fr":"Tangkak"}},{"country":"MY","name":"Gerisek","admin1Code":"MY.01","latitude":2.2097,"longitude":102.7095,"translations":{"pt":"Gerisek","it":"Gerisek","ru":"Gerisek","uk":"Gerisek","de":"Gerisek","es":"Gerisek","en":"Gerisek","fr":"Gerisek"}},{"country":"MY","name":"Pagoh","admin1Code":"MY.01","latitude":2.1495,"longitude":102.7704,"translations":{"pt":"Pagoh","it":"Pagoh","ru":"Pagoh","uk":"Pagoh","de":"Pagoh","es":"Pagoh","en":"Pagoh","fr":"Pagoh"}},{"country":"MY","name":"Muar town","admin1Code":"MY.01","latitude":2.0442,"longitude":102.5689,"translations":{"pt":"Muar town","it":"Muar town","ru":"Муар","uk":"Muar town","de":"Muar town","es":"Muar town","en":"Muar town","fr":"Muar town"}},{"country":"MY","name":"Бакри","admin1Code":"MY.01","latitude":2.0441,"longitude":102.6527,"translations":{"pt":"Bakry","it":"Bakry","ru":"Бакри","uk":"Бакри","de":"Bakry","es":"Bakry","en":"Бакри","fr":"Bakry"}},{"country":"MY","name":"Labis","admin1Code":"MY.01","latitude":2.385,"longitude":103.021,"translations":{"pt":"Labis","it":"Labis","ru":"Labis","uk":"Labis","de":"Labis","es":"Labis","en":"Labis","fr":"Labis"}},{"country":"MY","name":"Куала-селангор","admin1Code":"MY.12","latitude":3.35,"longitude":101.25,"translations":{"pt":"Kuala-selanhor","it":"Kuala-selanhor","ru":"Куала-селангор","uk":"Куала-селангор","de":"Kuala-selanhor","es":"Kuala-selanhor","en":"Куала-селангор","fr":"Kuala-selanhor"}},{"country":"MY","name":"Bestari jaya","admin1Code":"MY.12","latitude":3.38333,"longitude":101.41667,"translations":{"pt":"Bestari jaya","it":"Bestari jaya","ru":"Bestari jaya","uk":"Bestari jaya","de":"Bestari jaya","es":"Bestari jaya","en":"Bestari jaya","fr":"Bestari jaya"}},{"country":"MY","name":"Batu arang","admin1Code":"MY.12","latitude":3.31667,"longitude":101.46667,"translations":{"pt":"Batu arang","it":"Batu arang","ru":"Batu arang","uk":"Batu arang","de":"Batu arang","es":"Batu arang","en":"Batu arang","fr":"Batu arang"}},{"country":"MY","name":"Kapar","admin1Code":"MY.12","latitude":3.13333,"longitude":101.38333,"translations":{"pt":"Kapar","it":"Kapar","ru":"Kapar","uk":"Kapar","de":"Kapar","es":"Kapar","en":"Kapar","fr":"Kapar"}},{"country":"MY","name":"Shah alam","admin1Code":"MY.12","latitude":3.08507,"longitude":101.53281,"translations":{"pt":"Shah alam","it":"Shah alam","ru":"Шах-алам","uk":"Шах-алам","de":"Shah alam","es":"Shah alam","en":"Shah alam","fr":"Shah alam"}},{"country":"MY","name":"Klang","admin1Code":"MY.12","latitude":3.03667,"longitude":101.44333,"translations":{"pt":"Klang","it":"Klang","ru":"Кланг","uk":"Кланг","de":"Klang","es":"Klang","en":"Klang","fr":"Kelang"}},{"country":"MY","name":"Cangkat jong","admin1Code":"MY.07","latitude":3.9851,"longitude":101.1237,"translations":{"pt":"Cangkat jong","it":"Cangkat jong","ru":"Cangkat jong","uk":"Cangkat jong","de":"Cangkat jong","es":"Cangkat jong","en":"Cangkat jong","fr":"Cangkat jong"}},{"country":"MY","name":"Sungkai","admin1Code":"MY.07","latitude":4.0,"longitude":101.31667,"translations":{"pt":"Sungkai","it":"Sungkai","ru":"Сунгкай","uk":"Sungkai","de":"Sungkai","es":"Sungkai","en":"Sungkai","fr":"Sungkai"}},{"country":"MY","name":"Cukai","admin1Code":"MY.13","latitude":4.25,"longitude":103.41667,"translations":{"pt":"Cukai","it":"Cukai","ru":"Cukai","uk":"Cukai","de":"Cukai","es":"Cukai","en":"Cukai","fr":"Cukai"}},{"country":"MY","name":"Kuala lipis","admin1Code":"MY.06","latitude":4.1842,"longitude":102.0468,"translations":{"pt":"Kuala lipis","it":"Kuala lipis","ru":"Kuala lipis","uk":"Kuala lipis","de":"Kuala lipis","es":"Kuala lipis","en":"Kuala lipis","fr":"Kuala lipis"}},{"country":"MY","name":"Val dor","admin1Code":"MY.09","latitude":5.25198,"longitude":100.49046,"translations":{"pt":"Val dor","it":"Val dor","ru":"Val dor","uk":"Val dor","de":"Val dor","es":"Val dor","en":"Val dor","fr":"Val dor"}},{"country":"MY","name":"Papar","admin1Code":"MY.16","latitude":5.73333,"longitude":115.93333,"translations":{"pt":"Papar","it":"Papar","ru":"Papar","uk":"Papar","de":"Papar","es":"Papar","en":"Papar","fr":"Papar"}},{"country":"MY","name":"Kuala penyu","admin1Code":"MY.16","latitude":5.5714,"longitude":115.5984,"translations":{"pt":"Kuala penyu","it":"Kuala penyu","ru":"Kuala penyu","uk":"Kuala penyu","de":"Kuala penyu","es":"Kuala penyu","en":"Kuala penyu","fr":"Kuala penyu"}},{"country":"MY","name":"Kota kinabalu","admin1Code":"MY.16","latitude":5.9749,"longitude":116.0724,"translations":{"pt":"Kota kinabalu","it":"Kota kinabalu","ru":"Кота-кинабалу","uk":"Kota kinabalu","de":"Kota kinabalu","es":"Kota kinabalu","en":"Kota kinabalu","fr":"Kota kinabalu"}},{"country":"MY","name":"Donggongon","admin1Code":"MY.16","latitude":5.90702,"longitude":116.10146,"translations":{"pt":"Donggongon","it":"Donggongon","ru":"Donggongon","uk":"Donggongon","de":"Donggongon","es":"Donggongon","en":"Donggongon","fr":"Donggongon"}},{"country":"MY","name":"Putatan","admin1Code":"MY.16","latitude":5.9258,"longitude":116.06094,"translations":{"pt":"Putatan","it":"Putatan","ru":"Putatan","uk":"Putatan","de":"Putatan","es":"Putatan","en":"Putatan","fr":"Putatan"}},{"country":"MY","name":"Kinarut","admin1Code":"MY.16","latitude":5.8231,"longitude":116.0466,"translations":{"pt":"Kinarut","it":"Kinarut","ru":"Kinarut","uk":"Kinarut","de":"Kinarut","es":"Kinarut","en":"Kinarut","fr":"Kinarut"}},{"country":"MY","name":"Tambunan","admin1Code":"MY.16","latitude":5.71667,"longitude":116.4,"translations":{"pt":"Tambunan","it":"Tambunan","ru":"Tambunan","uk":"Tambunan","de":"Tambunan","es":"Tambunan","en":"Tambunan","fr":"Tambunan"}},{"country":"MY","name":"Ranau","admin1Code":"MY.16","latitude":5.9538,"longitude":116.6641,"translations":{"pt":"Ranau","it":"Ranau","ru":"Ranau","uk":"Ranau","de":"Ranau","es":"Ranau","en":"Ranau","fr":"Ranau"}},{"country":"MY","name":"Semporna","admin1Code":"MY.16","latitude":4.48178,"longitude":118.61119,"translations":{"pt":"Semporna","it":"Semporna","ru":"Семпорна","uk":"Semporna","de":"Semporna","es":"Semporna","en":"Semporna","fr":"Semporna"}},{"country":"MY","name":"Labuan","admin1Code":"MY.15","latitude":5.28028,"longitude":115.2475,"translations":{"pt":"Labuan","it":"Labuan","ru":"Виктория","uk":"Labuan","de":"Labuan","es":"Labuan","en":"Labuan","fr":"Labuan"}},{"country":"MY","name":"Sipitang","admin1Code":"MY.16","latitude":5.07903,"longitude":115.54964,"translations":{"pt":"Sipitang","it":"Sipitang","ru":"Sipitang","uk":"Sipitang","de":"Sipitang","es":"Sipitang","en":"Sipitang","fr":"Sipitang"}},{"country":"MY","name":"Beaufort","admin1Code":"MY.16","latitude":5.3473,"longitude":115.7455,"translations":{"pt":"Beaufort","it":"Beaufort","ru":"Beaufort","uk":"Beaufort","de":"Beaufort","es":"Beaufort","en":"Beaufort","fr":"Beaufort"}},{"country":"MY","name":"Lahad datu","admin1Code":"MY.16","latitude":5.02298,"longitude":118.32897,"translations":{"pt":"Lahad datu","it":"Lahad datu","ru":"Лахад-дату","uk":"Lahad datu","de":"Lahad datu","es":"Lahad datu","en":"Lahad datu","fr":"Lahad datu"}},{"country":"MY","name":"Sandakan","admin1Code":"MY.16","latitude":5.8402,"longitude":118.1179,"translations":{"pt":"Sandakan","it":"Sandakan","ru":"Сандакан","uk":"Sandakan","de":"Sandakan","es":"Sandakan","en":"Sandakan","fr":"Sandakan"}},{"country":"MY","name":"Keningau","admin1Code":"MY.16","latitude":5.3378,"longitude":116.1602,"translations":{"pt":"Keningau","it":"Keningau","ru":"Кенингау","uk":"Кенінгау","de":"Keningau","es":"Keningau","en":"Keningau","fr":"Keningau"}},{"country":"MY","name":"Bandar nabawan","admin1Code":"MY.16","latitude":5.0393,"longitude":116.4274,"translations":{"pt":"Bandar nabawan","it":"Bandar nabawan","ru":"Bandar nabawan","uk":"Bandar nabawan","de":"Bandar nabawan","es":"Bandar nabawan","en":"Bandar nabawan","fr":"Bandar nabawan"}},{"country":"MY","name":"Tawau","admin1Code":"MY.16","latitude":4.24482,"longitude":117.89115,"translations":{"pt":"Tawau","it":"Tawau","ru":"Тавау","uk":"Tawau","de":"Tawau","es":"Tawau","en":"Tawau","fr":"Tawau"}},{"country":"MY","name":"Dungun","admin1Code":"MY.13","latitude":4.775,"longitude":103.4162,"translations":{"pt":"Dungun","it":"Dungun","ru":"Dungun","uk":"Dungun","de":"Dungun","es":"Dungun","en":"Dungun","fr":"Dungun"}},{"country":"MY","name":"Пак","admin1Code":"MY.13","latitude":4.6374,"longitude":103.4368,"translations":{"pt":"Pak","it":"Pak","ru":"Пак","uk":"Пак","de":"Pak","es":"Pak","en":"Пак","fr":"Pak"}},{"country":"MY","name":"Kerteh","admin1Code":"MY.13","latitude":4.5141,"longitude":103.4483,"translations":{"pt":"Kerteh","it":"Kerteh","ru":"Kerteh","uk":"Kerteh","de":"Kerteh","es":"Kerteh","en":"Kerteh","fr":"Kerteh"}},{"country":"MY","name":"Gerik","admin1Code":"MY.07","latitude":5.41667,"longitude":101.13333,"translations":{"pt":"Gerik","it":"Gerik","ru":"Gerik","uk":"Gerik","de":"Gerik","es":"Gerik","en":"Gerik","fr":"Gerik"}},{"country":"MY","name":"Lunas","admin1Code":"MY.02","latitude":5.43058,"longitude":100.53012,"translations":{"pt":"Lunas","it":"Lunas","ru":"Lunas","uk":"Lunas","de":"Lunas","es":"Lunas","en":"Lunas","fr":"Lunas"}},{"country":"MY","name":"Kulim","admin1Code":"MY.02","latitude":5.36499,"longitude":100.56177,"translations":{"pt":"Kulim","it":"Kulim","ru":"Kulim","uk":"Kulim","de":"Kulim","es":"Kulim","en":"Kulim","fr":"Kulim"}},{"country":"MY","name":"Selama","admin1Code":"MY.07","latitude":5.2236,"longitude":100.69262,"translations":{"pt":"Selama","it":"Selama","ru":"Selama","uk":"Selama","de":"Selama","es":"Selama","en":"Selama","fr":"Selama"}},{"country":"MY","name":"Bandar baharu","admin1Code":"MY.02","latitude":5.13428,"longitude":100.49549,"translations":{"pt":"Bandar baharu","it":"Bandar baharu","ru":"Bandar baharu","uk":"Bandar baharu","de":"Bandar baharu","es":"Bandar baharu","en":"Bandar baharu","fr":"Bandar baharu"}},{"country":"MY","name":"Bagan serai","admin1Code":"MY.07","latitude":5.0108,"longitude":100.54101,"translations":{"pt":"Bagan serai","it":"Bagan serai","ru":"Bagan serai","uk":"Bagan serai","de":"Bagan serai","es":"Bagan serai","en":"Bagan serai","fr":"Bagan serai"}},{"country":"MY","name":"Padang serai","admin1Code":"MY.02","latitude":5.51307,"longitude":100.55356,"translations":{"pt":"Padang serai","it":"Padang serai","ru":"Padang serai","uk":"Padang serai","de":"Padang serai","es":"Padang serai","en":"Padang serai","fr":"Padang serai"}},{"country":"MY","name":"Bedong","admin1Code":"MY.02","latitude":5.72743,"longitude":100.50876,"translations":{"pt":"Bedong","it":"Bedong","ru":"Bedong","uk":"Bedong","de":"Bedong","es":"Bedong","en":"Bedong","fr":"Bedong"}},{"country":"MY","name":"Kampung kupang","admin1Code":"MY.02","latitude":5.63638,"longitude":100.84517,"translations":{"pt":"Kampung kupang","it":"Kampung kupang","ru":"Kampung kupang","uk":"Kampung kupang","de":"Kampung kupang","es":"Kampung kupang","en":"Kampung kupang","fr":"Kampung kupang"}},{"country":"MY","name":"Pulai","admin1Code":"MY.02","latitude":5.65489,"longitude":100.89541,"translations":{"pt":"Pulai","it":"Pulai","ru":"Pulai","uk":"Pulai","de":"Pulai","es":"Pulai","en":"Pulai","fr":"Pulai"}},{"country":"MY","name":"Jeli","admin1Code":"MY.03","latitude":5.7,"longitude":101.83333,"translations":{"pt":"Jeli","it":"Jeli","ru":"Jeli","uk":"Jeli","de":"Jeli","es":"Jeli","en":"Jeli","fr":"Jeli"}},{"country":"MY","name":"Siburan","admin1Code":"MY.11","latitude":1.36667,"longitude":110.4,"translations":{"pt":"Siburan","it":"Siburan","ru":"Siburan","uk":"Siburan","de":"Siburan","es":"Siburan","en":"Siburan","fr":"Siburan"}},{"country":"MY","name":"Tebedu","admin1Code":"MY.11","latitude":1.02656,"longitude":110.36331,"translations":{"pt":"Tebedu","it":"Tebedu","ru":"Tebedu","uk":"Tebedu","de":"Tebedu","es":"Tebedu","en":"Tebedu","fr":"Tebedu"}},{"country":"MY","name":"Bau","admin1Code":"MY.11","latitude":1.41667,"longitude":110.15,"translations":{"pt":"Bau","it":"Bau","ru":"Bau","uk":"Bau","de":"Bau","es":"Bau","en":"Bau","fr":"Bau"}},{"country":"MY","name":"Simpang empat","admin1Code":"MY.07","latitude":4.95,"longitude":100.63333,"translations":{"pt":"Simpang empat","it":"Simpang empat","ru":"Simpang empat","uk":"Simpang empat","de":"Simpang empat","es":"Simpang empat","en":"Simpang empat","fr":"Simpang empat"}},{"country":"MY","name":"Kamunting","admin1Code":"MY.07","latitude":4.88333,"longitude":100.73333,"translations":{"pt":"Kamunting","it":"Kamunting","ru":"Kamunting","uk":"Kamunting","de":"Kamunting","es":"Kamunting","en":"Kamunting","fr":"Kamunting"}},{"country":"MY","name":"Batu kurau","admin1Code":"MY.07","latitude":4.96667,"longitude":100.8,"translations":{"pt":"Batu kurau","it":"Batu kurau","ru":"Batu kurau","uk":"Batu kurau","de":"Batu kurau","es":"Batu kurau","en":"Batu kurau","fr":"Batu kurau"}},{"country":"MY","name":"Taiping","admin1Code":"MY.07","latitude":4.85,"longitude":100.73333,"translations":{"pt":"Taiping","it":"Taiping","ru":"Тайпин","uk":"Taiping","de":"Taiping","es":"Taiping","en":"Taiping","fr":"Taiping"}},{"country":"MY","name":"Padang rengas","admin1Code":"MY.07","latitude":4.76667,"longitude":100.85,"translations":{"pt":"Padang rengas","it":"Padang rengas","ru":"Padang rengas","uk":"Padang rengas","de":"Padang rengas","es":"Padang rengas","en":"Padang rengas","fr":"Padang rengas"}},{"country":"MY","name":"Kuala kangsar","admin1Code":"MY.07","latitude":4.76667,"longitude":100.93333,"translations":{"pt":"Kuala kangsar","it":"Kuala kangsar","ru":"Куала-кангсар","uk":"Куала-кангсар","de":"Kuala kangsar","es":"Kuala kangsar","en":"Kuala kangsar","fr":"Kuala kangsar"}},{"country":"MY","name":"Chemor","admin1Code":"MY.07","latitude":4.7211,"longitude":101.1189,"translations":{"pt":"Chemor","it":"Chemor","ru":"Chemor","uk":"Chemor","de":"Chemor","es":"Chemor","en":"Chemor","fr":"Chemor"}},{"country":"MY","name":"Ipoh","admin1Code":"MY.07","latitude":4.5841,"longitude":101.0829,"translations":{"pt":"Ipoh","it":"Ipoh","ru":"Ипо","uk":"Іпох","de":"Ipoh","es":"Ipoh","en":"Ipoh","fr":"Ipoh"}},{"country":"MY","name":"Lahat","admin1Code":"MY.07","latitude":4.5388,"longitude":101.0365,"translations":{"pt":"Lahat","it":"Lahat","ru":"Lahat","uk":"Lahat","de":"Lahat","es":"Lahat","en":"Lahat","fr":"Lahat"}},{"country":"MY","name":"Gua musang","admin1Code":"MY.03","latitude":4.88441,"longitude":101.96857,"translations":{"pt":"Gua musang","it":"Gua musang","ru":"Gua musang","uk":"Gua musang","de":"Gua musang","es":"Gua musang","en":"Gua musang","fr":"Gua musang"}},{"country":"MY","name":"Kuala terengganu","admin1Code":"MY.13","latitude":5.3302,"longitude":103.1408,"translations":{"pt":"Kuala terengganu","it":"Kuala terengganu","ru":"Куала-тренгану","uk":"Куала-тренггану","de":"Kuala terengganu","es":"Kuala terengganu","en":"Kuala terengganu","fr":"Kuala terengganu"}},{"country":"MY","name":"Маранг","admin1Code":"MY.13","latitude":5.2056,"longitude":103.2059,"translations":{"pt":"Maranh","it":"Maranh","ru":"Маранг","uk":"Маранг","de":"Maranh","es":"Maranh","en":"Маранг","fr":"Maranh"}},{"country":"MY","name":"Kampung teluk kemang","admin1Code":"MY.05","latitude":2.46146,"longitude":101.85951,"translations":{"pt":"Kampung teluk kemang","it":"Kampung teluk kemang","ru":"Kampung teluk kemang","uk":"Kampung teluk kemang","de":"Kampung teluk kemang","es":"Kampung teluk kemang","en":"Kampung teluk kemang","fr":"Kampung teluk kemang"}},{"country":"MY","name":"Tampin","admin1Code":"MY.05","latitude":2.4701,"longitude":102.2302,"translations":{"pt":"Tampin","it":"Tampin","ru":"Tampin","uk":"Tampin","de":"Tampin","es":"Tampin","en":"Tampin","fr":"Tampin"}},{"country":"MY","name":"Alor gajah","admin1Code":"MY.04","latitude":2.3804,"longitude":102.2089,"translations":{"pt":"Alor gajah","it":"Alor gajah","ru":"Alor gajah","uk":"Alor gajah","de":"Alor gajah","es":"Alor gajah","en":"Alor gajah","fr":"Alor gajah"}},{"country":"MY","name":"Durian tunggal","admin1Code":"MY.04","latitude":2.3125,"longitude":102.2805,"translations":{"pt":"Durian tunggal","it":"Durian tunggal","ru":"Durian tunggal","uk":"Durian tunggal","de":"Durian tunggal","es":"Durian tunggal","en":"Durian tunggal","fr":"Durian tunggal"}},{"country":"MY","name":"Kampung ayer keroh","admin1Code":"MY.04","latitude":2.2654,"longitude":102.2801,"translations":{"pt":"Kampung ayer keroh","it":"Kampung ayer keroh","ru":"Kampung ayer keroh","uk":"Kampung ayer keroh","de":"Kampung ayer keroh","es":"Kampung ayer keroh","en":"Kampung ayer keroh","fr":"Kampung ayer keroh"}},{"country":"MY","name":"Sungai udang","admin1Code":"MY.04","latitude":2.269,"longitude":102.1427,"translations":{"pt":"Sungai udang","it":"Sungai udang","ru":"Sungai udang","uk":"Sungai udang","de":"Sungai udang","es":"Sungai udang","en":"Sungai udang","fr":"Sungai udang"}},{"country":"MY","name":"Malacca","admin1Code":"MY.04","latitude":2.196,"longitude":102.2405,"translations":{"pt":"Malaca","it":"Malacca","ru":"Малакка","uk":"Malacca","de":"Malakka","es":"Malaca","en":"Malacca","fr":"Malacca"}},{"country":"MY","name":"Merlimau","admin1Code":"MY.04","latitude":2.1449,"longitude":102.4251,"translations":{"pt":"Merlimau","it":"Merlimau","ru":"Merlimau","uk":"Merlimau","de":"Merlimau","es":"Merlimau","en":"Merlimau","fr":"Merlimau"}},{"country":"MY","name":"Teluk panglima garang","admin1Code":"MY.12","latitude":2.90796,"longitude":101.46877,"translations":{"pt":"Teluk panglima garang","it":"Teluk panglima garang","ru":"Teluk panglima garang","uk":"Teluk panglima garang","de":"Teluk panglima garang","es":"Teluk panglima garang","en":"Teluk panglima garang","fr":"Teluk panglima garang"}},{"country":"MY","name":"Port klang","admin1Code":"MY.12","latitude":2.99959,"longitude":101.39287,"translations":{"pt":"Port klang","it":"Port klang","ru":"Port klang","uk":"Port klang","de":"Port klang","es":"Port klang","en":"Port klang","fr":"Port klang"}},{"country":"MY","name":"Banting","admin1Code":"MY.12","latitude":2.8136,"longitude":101.50185,"translations":{"pt":"Banting","it":"Banting","ru":"Banting","uk":"Banting","de":"Banting","es":"Banting","en":"Banting","fr":"Banting"}},{"country":"MY","name":"Jenjarum","admin1Code":"MY.12","latitude":2.8724,"longitude":101.49484,"translations":{"pt":"Jenjarum","it":"Jenjarum","ru":"Jenjarum","uk":"Jenjarum","de":"Jenjarum","es":"Jenjarum","en":"Jenjarum","fr":"Jenjarum"}},{"country":"MY","name":"Bangi","admin1Code":"MY.12","latitude":2.9,"longitude":101.78333,"translations":{"pt":"Bangi","it":"Bangi","ru":"Bangi","uk":"Bangi","de":"Bangi","es":"Bangi","en":"Bangi","fr":"Bangi"}},{"country":"MY","name":"Semenyih","admin1Code":"MY.12","latitude":2.9516,"longitude":101.843,"translations":{"pt":"Semenyih","it":"Semenyih","ru":"Semenyih","uk":"Semenyih","de":"Semenyih","es":"Semenyih","en":"Semenyih","fr":"Semenyih"}},{"country":"MY","name":"Seremban","admin1Code":"MY.05","latitude":2.7297,"longitude":101.9381,"translations":{"pt":"Seremban","it":"Seremban","ru":"Серембан","uk":"Серембан","de":"Seremban","es":"Seremban","en":"Seremban","fr":"Seremban"}},{"country":"MY","name":"Port dickson","admin1Code":"MY.05","latitude":2.52462,"longitude":101.79651,"translations":{"pt":"Port dickson","it":"Port dickson","ru":"Port dickson","uk":"Port dickson","de":"Port dickson","es":"Port dickson","en":"Port dickson","fr":"Port dickson"}},{"country":"MY","name":"Sepang","admin1Code":"MY.12","latitude":2.6931,"longitude":101.7498,"translations":{"pt":"Sepang","it":"Sepang","ru":"Сепанг","uk":"Sepang","de":"Sepang","es":"Sepang","en":"Sepang","fr":"Sepang"}},{"country":"MY","name":"Senawang","admin1Code":"MY.05","latitude":2.691,"longitude":101.989,"translations":{"pt":"Senawang","it":"Senawang","ru":"Senawang","uk":"Senawang","de":"Senawang","es":"Senawang","en":"Senawang","fr":"Senawang"}},{"country":"MY","name":"Bahau","admin1Code":"MY.05","latitude":2.8079,"longitude":102.4049,"translations":{"pt":"Bahau","it":"Bahau","ru":"Bahau","uk":"Bahau","de":"Bahau","es":"Bahau","en":"Bahau","fr":"Bahau"}},{"country":"MY","name":"Kuala pilah","admin1Code":"MY.05","latitude":2.7389,"longitude":102.2487,"translations":{"pt":"Kuala pilah","it":"Kuala pilah","ru":"Kuala pilah","uk":"Kuala pilah","de":"Kuala pilah","es":"Kuala pilah","en":"Kuala pilah","fr":"Kuala pilah"}},{"country":"MY","name":"Rembau","admin1Code":"MY.05","latitude":2.5897,"longitude":102.0913,"translations":{"pt":"Rembau","it":"Rembau","ru":"Rembau","uk":"Rembau","de":"Rembau","es":"Rembau","en":"Rembau","fr":"Rembau"}},{"country":"MY","name":"Batu anam","admin1Code":"MY.01","latitude":2.5825,"longitude":102.711,"translations":{"pt":"Batu anam","it":"Batu anam","ru":"Batu anam","uk":"Batu anam","de":"Batu anam","es":"Batu anam","en":"Batu anam","fr":"Batu anam"}},{"country":"MY","name":"Rompin","admin1Code":"MY.05","latitude":2.7083,"longitude":102.5047,"translations":{"pt":"Rompin","it":"Rompin","ru":"Rompin","uk":"Rompin","de":"Rompin","es":"Rompin","en":"Rompin","fr":"Rompin"}},{"country":"MY","name":"Gemas","admin1Code":"MY.05","latitude":2.5832,"longitude":102.6117,"translations":{"pt":"Gemas","it":"Gemas","ru":"Gemas","uk":"Gemas","de":"Gemas","es":"Gemas","en":"Gemas","fr":"Gemas"}},{"country":"MY","name":"Пекан","admin1Code":"MY.06","latitude":3.4836,"longitude":103.3996,"translations":{"pt":"Pekan","it":"Pekan","ru":"Пекан","uk":"Пекан","de":"Pekan","es":"Pekan","en":"Пекан","fr":"Pekan"}},{"country":"MY","name":"Mentakab","admin1Code":"MY.06","latitude":3.4854,"longitude":102.3484,"translations":{"pt":"Mentakab","it":"Mentakab","ru":"Mentakab","uk":"Mentakab","de":"Mentakab","es":"Mentakab","en":"Mentakab","fr":"Mentakab"}},{"country":"MY","name":"Temerluh","admin1Code":"MY.06","latitude":3.4506,"longitude":102.4176,"translations":{"pt":"Temerluh","it":"Temerluh","ru":"Temerluh","uk":"Temerluh","de":"Temerluh","es":"Temerluh","en":"Temerluh","fr":"Temerluh"}},{"country":"MY","name":"Kampung teluk air tawar","admin1Code":"MY.09","latitude":5.48333,"longitude":100.38333,"translations":{"pt":"Kampung teluk air tawar","it":"Kampung teluk air tawar","ru":"Kampung teluk air tawar","uk":"Kampung teluk air tawar","de":"Kampung teluk air tawar","es":"Kampung teluk air tawar","en":"Kampung teluk air tawar","fr":"Kampung teluk air tawar"}},{"country":"MY","name":"Batu feringgi","admin1Code":"MY.09","latitude":5.4709,"longitude":100.24529,"translations":{"pt":"Batu feringgi","it":"Batu feringgi","ru":"Batu feringgi","uk":"Batu feringgi","de":"Batu feringgi","es":"Batu feringgi","en":"Batu feringgi","fr":"Batu feringgi"}},{"country":"MY","name":"Butterworth","admin1Code":"MY.09","latitude":5.3991,"longitude":100.36382,"translations":{"pt":"Butterworth","it":"Butterworth","ru":"Баттерворт","uk":"Butterworth","de":"Butterworth","es":"Butterworth","en":"Butterworth","fr":"Butterworth"}},{"country":"MY","name":"Perai","admin1Code":"MY.09","latitude":5.38333,"longitude":100.38333,"translations":{"pt":"Perai","it":"Perai","ru":"Perai","uk":"Perai","de":"Perai","es":"Perai","en":"Perai","fr":"Perai"}},{"country":"MY","name":"Bukit mertajam","admin1Code":"MY.09","latitude":5.36301,"longitude":100.4667,"translations":{"pt":"Bukit mertajam","it":"Bukit mertajam","ru":"Букит-мертаджам","uk":"Букіт-мертаджам","de":"Bukit mertajam","es":"Bukit mertajam","en":"Bukit mertajam","fr":"Bukit mertajam"}},{"country":"MY","name":"Nibong tebal","admin1Code":"MY.09","latitude":5.16586,"longitude":100.47793,"translations":{"pt":"Nibong tebal","it":"Nibong tebai","ru":"Нибонг-тебал","uk":"Нібонг-тебал","de":"Nibong tebal","es":"Nibong tebal","en":"Nibong tebal","fr":"Nibong tebal"}},{"country":"MY","name":"Parit buntar","admin1Code":"MY.07","latitude":5.12671,"longitude":100.49316,"translations":{"pt":"Parit buntar","it":"Parit buntar","ru":"Parit buntar","uk":"Parit buntar","de":"Parit buntar","es":"Parit buntar","en":"Parit buntar","fr":"Parit buntar"}},{"country":"MY","name":"Kuala kurau","admin1Code":"MY.07","latitude":5.01821,"longitude":100.42824,"translations":{"pt":"Kuala kurau","it":"Kuala kurau","ru":"Kuala kurau","uk":"Kuala kurau","de":"Kuala kurau","es":"Kuala kurau","en":"Kuala kurau","fr":"Kuala kurau"}},{"country":"MY","name":"Tasek gelugor","admin1Code":"MY.09","latitude":5.48032,"longitude":100.49849,"translations":{"pt":"Tasek gelugor","it":"Tasek gelugor","ru":"Tasek gelugor","uk":"Tasek gelugor","de":"Tasek gelugor","es":"Tasek gelugor","en":"Tasek gelugor","fr":"Tasek gelugor"}},{"country":"MY","name":"Balik pulau","admin1Code":"MY.09","latitude":5.34916,"longitude":100.23938,"translations":{"pt":"Balik pulau","it":"Balik pulau","ru":"Balik pulau","uk":"Balik pulau","de":"Balik pulau","es":"Balik pulau","en":"Balik pulau","fr":"Balik pulau"}},{"country":"MY","name":"Bayan lepas","admin1Code":"MY.09","latitude":5.29992,"longitude":100.26052,"translations":{"pt":"Bayan lepas","it":"Bayan lepas","ru":"Bayan lepas","uk":"Bayan lepas","de":"Bayan lepas","es":"Bayan lepas","en":"Bayan lepas","fr":"Bayan lepas"}},{"country":"MY","name":"George town","admin1Code":"MY.09","latitude":5.41123,"longitude":100.33543,"translations":{"pt":"Penang","it":"George town","ru":"Джорджтаун","uk":"Джорджтаун","de":"George town","es":"George town","en":"George town","fr":"George town"}},{"country":"MY","name":"Ulu yam","admin1Code":"MY.12","latitude":3.4537,"longitude":101.6413,"translations":{"pt":"Ulu yam","it":"Ulu yam","ru":"Ulu yam","uk":"Ulu yam","de":"Ulu yam","es":"Ulu yam","en":"Ulu yam","fr":"Ulu yam"}},{"country":"MY","name":"Serendah","admin1Code":"MY.12","latitude":3.3646,"longitude":101.6041,"translations":{"pt":"Serendah","it":"Serendah","ru":"Serendah","uk":"Serendah","de":"Serendah","es":"Serendah","en":"Serendah","fr":"Serendah"}},{"country":"MY","name":"Rawang","admin1Code":"MY.12","latitude":3.3213,"longitude":101.5767,"translations":{"pt":"Rawang","it":"Rawang","ru":"Rawang","uk":"Rawang","de":"Rawang","es":"Rawang","en":"Rawang","fr":"Rawang"}},{"country":"MY","name":"Sungai buloh","admin1Code":"MY.12","latitude":3.21,"longitude":101.561,"translations":{"pt":"Sungai buloh","it":"Sungai buloh","ru":"Sungai buloh","uk":"Sungai buloh","de":"Sungai buloh","es":"Sungai buloh","en":"Sungai buloh","fr":"Sungai buloh"}},{"country":"MY","name":"Petaling jaya","admin1Code":"MY.12","latitude":3.10726,"longitude":101.60671,"translations":{"pt":"Petaling jaya","it":"Petaling jaya","ru":"Петалинг-джая","uk":"Petaling jaya","de":"Petaling jaya","es":"Petaling jaya","en":"Petaling jaya","fr":"Petaling jaya"}},{"country":"MY","name":"Kuala lumpur","admin1Code":"MY.14","latitude":3.1412,"longitude":101.68653,"translations":{"pt":"Kuala lumpur","it":"Kuala lumpur","ru":"Куала-лумпур","uk":"Куала-лумпур","de":"Kuala lumpur","es":"Kuala lumpur","en":"Kuala lumpur","fr":"Kuala lumpur"}},{"country":"MY","name":"Setapak","admin1Code":"MY.12","latitude":3.207,"longitude":101.727,"translations":{"pt":"Setapak","it":"Setapak","ru":"Setapak","uk":"Setapak","de":"Setapak","es":"Setapak","en":"Setapak","fr":"Setapak"}},{"country":"MY","name":"Batu caves","admin1Code":"MY.12","latitude":3.238,"longitude":101.682,"translations":{"pt":"Batu caves","it":"Batu caves","ru":"Batu caves","uk":"Batu caves","de":"Batu caves","es":"Batu caves","en":"Batu caves","fr":"Batu caves"}},{"country":"MY","name":"Ampang","admin1Code":"MY.14","latitude":3.15,"longitude":101.76667,"translations":{"pt":"Ampang","it":"Ampang","ru":"Ampang","uk":"Ampang","de":"Ampang","es":"Ampang","en":"Ampang","fr":"Ampang"}},{"country":"MY","name":"Hulu langat","admin1Code":"MY.12","latitude":3.1137,"longitude":101.8142,"translations":{"pt":"Hulu langat","it":"Hulu langat","ru":"Hulu langat","uk":"Hulu langat","de":"Hulu langat","es":"Hulu langat","en":"Hulu langat","fr":"Hulu langat"}},{"country":"MY","name":"Hutan melintang","admin1Code":"MY.07","latitude":3.8766,"longitude":100.9328,"translations":{"pt":"Hutan melintang","it":"Hutan melintang","ru":"Hutan melintang","uk":"Hutan melintang","de":"Hutan melintang","es":"Hutan melintang","en":"Hutan melintang","fr":"Hutan melintang"}},{"country":"MY","name":"Sungai besar","admin1Code":"MY.12","latitude":3.6746,"longitude":100.9867,"translations":{"pt":"Sungai besar","it":"Sungai besar","ru":"Sungai besar","uk":"Sungai besar","de":"Sungai besar","es":"Sungai besar","en":"Sungai besar","fr":"Sungai besar"}},{"country":"MY","name":"Куантан","admin1Code":"MY.06","latitude":3.8077,"longitude":103.326,"translations":{"pt":"Kuantan","it":"Kuantan","ru":"Куантан","uk":"Куантан","de":"Kuantan","es":"Kuantan","en":"Куантан","fr":"Kuantan"}},{"country":"MY","name":"Sungai siput","admin1Code":"MY.07","latitude":4.3945,"longitude":101.1947,"translations":{"pt":"Sungai siput","it":"Sungai siput","ru":"Sungai siput","uk":"Sungai siput","de":"Sungai siput","es":"Sungai siput","en":"Sungai siput","fr":"Sungai siput"}},{"country":"MY","name":"Batu gajah","admin1Code":"MY.07","latitude":4.46916,"longitude":101.04107,"translations":{"pt":"Batu gajah","it":"Batu gajah","ru":"Batu gajah","uk":"Batu gajah","de":"Batu gajah","es":"Batu gajah","en":"Batu gajah","fr":"Batu gajah"}},{"country":"MY","name":"Kampar","admin1Code":"MY.07","latitude":4.3,"longitude":101.15,"translations":{"pt":"Kampar","it":"Kampar","ru":"Kampar","uk":"Kampar","de":"Kampar","es":"Kampar","en":"Kampar","fr":"Kampar"}},{"country":"MY","name":"Tapah road","admin1Code":"MY.07","latitude":4.16667,"longitude":101.2,"translations":{"pt":"Tapah road","it":"Tapah road","ru":"Tapah road","uk":"Tapah road","de":"Tapah road","es":"Tapah road","en":"Tapah road","fr":"Tapah road"}},{"country":"MY","name":"Bidur","admin1Code":"MY.07","latitude":4.11667,"longitude":101.28333,"translations":{"pt":"Bidur","it":"Bidur","ru":"Bidur","uk":"Bidur","de":"Bidur","es":"Bidur","en":"Bidur","fr":"Bidur"}},{"country":"MY","name":"Mukah","admin1Code":"MY.11","latitude":2.89435,"longitude":112.09145,"translations":{"pt":"Mukah","it":"Mukah","ru":"Mukah","uk":"Mukah","de":"Mukah","es":"Mukah","en":"Mukah","fr":"Mukah"}},{"country":"MY","name":"Tatau","admin1Code":"MY.11","latitude":2.88333,"longitude":112.85,"translations":{"pt":"Tatau","it":"Tatau","ru":"Tatau","uk":"Tatau","de":"Tatau","es":"Tatau","en":"Tatau","fr":"Tatau"}},{"country":"MY","name":"Parit","admin1Code":"MY.07","latitude":4.48333,"longitude":100.91667,"translations":{"pt":"Parit","it":"Parit","ru":"Parit","uk":"Parit","de":"Parit","es":"Parit","en":"Parit","fr":"Parit"}},{"country":"MY","name":"Lumut","admin1Code":"MY.07","latitude":4.2323,"longitude":100.6298,"translations":{"pt":"Lumut","it":"Lumut","ru":"Lumut","uk":"Lumut","de":"Lumut","es":"Lumut","en":"Lumut","fr":"Lumut"}},{"country":"MY","name":"Sitiawan","admin1Code":"MY.07","latitude":4.2168,"longitude":100.6996,"translations":{"pt":"Sitiawan","it":"Sitiawan","ru":"Sitiawan","uk":"Sitiawan","de":"Sitiawan","es":"Sitiawan","en":"Sitiawan","fr":"Sitiawan"}},{"country":"MY","name":"Teluk anson","admin1Code":"MY.07","latitude":4.02219,"longitude":101.02083,"translations":{"pt":"Teluk anson","it":"Teluk anson","ru":"Teluk anson","uk":"Teluk anson","de":"Teluk anson","es":"Teluk anson","en":"Teluk anson","fr":"Teluk anson"}},{"country":"MY","name":"Gurun","admin1Code":"MY.02","latitude":5.81717,"longitude":100.47381,"translations":{"pt":"Gurun","it":"Gurun","ru":"Gurun","uk":"Gurun","de":"Gurun","es":"Gurun","en":"Gurun","fr":"Gurun"}},{"country":"MY","name":"Yan besar","admin1Code":"MY.02","latitude":5.7989,"longitude":100.37264,"translations":{"pt":"Yan besar","it":"Yan besar","ru":"Yan besar","uk":"Yan besar","de":"Yan besar","es":"Yan besar","en":"Yan besar","fr":"Yan besar"}},{"country":"MY","name":"Sungai petani","admin1Code":"MY.02","latitude":5.647,"longitude":100.48772,"translations":{"pt":"Sungai petani","it":"Sungai petani","ru":"Sungai petani","uk":"Sungai petani","de":"Sungai petani","es":"Sungai petani","en":"Sungai petani","fr":"Sungai petani"}},{"country":"MY","name":"Kepala batas","admin1Code":"MY.09","latitude":5.51707,"longitude":100.4265,"translations":{"pt":"Kepala batas","it":"Kepala batas","ru":"Kepala batas","uk":"Kepala batas","de":"Kepala batas","es":"Kepala batas","en":"Kepala batas","fr":"Kepala batas"}},{"country":"MY","name":"Pasir puteh","admin1Code":"MY.03","latitude":5.83333,"longitude":102.4,"translations":{"pt":"Pasir puteh","it":"Pasir puteh","ru":"Pasir puteh","uk":"Pasir puteh","de":"Pasir puteh","es":"Pasir puteh","en":"Pasir puteh","fr":"Pasir puteh"}},{"country":"MY","name":"Tanah merah","admin1Code":"MY.03","latitude":5.8,"longitude":102.15,"translations":{"pt":"Tanah merah","it":"Tanah merah","ru":"Tanah merah","uk":"Tanah merah","de":"Tanah merah","es":"Tanah merah","en":"Tanah merah","fr":"Tanah merah"}},{"country":"MY","name":"Kuala krai","admin1Code":"MY.03","latitude":5.5313,"longitude":102.19925,"translations":{"pt":"Kuala krai","it":"Kuala krai","ru":"Kuala krai","uk":"Kuala krai","de":"Kuala krai","es":"Kuala krai","en":"Kuala krai","fr":"Kuala krai"}},{"country":"MY","name":"Kuching","admin1Code":"MY.11","latitude":1.55,"longitude":110.33333,"translations":{"pt":"Kuching","it":"Kuching","ru":"Кучинг","uk":"Кучинг","de":"Kuching","es":"Kuching","en":"Kuching","fr":"Kuching"}},{"country":"MY","name":"Simunjan","admin1Code":"MY.11","latitude":1.38333,"longitude":110.75,"translations":{"pt":"Simunjan","it":"Simunjan","ru":"Simunjan","uk":"Simunjan","de":"Simunjan","es":"Simunjan","en":"Simunjan","fr":"Simunjan"}},{"country":"MY","name":"Sri aman","admin1Code":"MY.11","latitude":1.24722,"longitude":111.45278,"translations":{"pt":"Sri aman","it":"Sri aman","ru":"Sri aman","uk":"Sri aman","de":"Sri aman","es":"Sri aman","en":"Sri aman","fr":"Sri aman"}},{"country":"MY","name":"Sarikei","admin1Code":"MY.11","latitude":2.11667,"longitude":111.51667,"translations":{"pt":"Sarikei","it":"Sarikei","ru":"Sarikei","uk":"Sarikei","de":"Sarikei","es":"Sarikei","en":"Sarikei","fr":"Sarikei"}},{"country":"MY","name":"Maradong","admin1Code":"MY.11","latitude":2.08333,"longitude":111.61667,"translations":{"pt":"Maradong","it":"Maradong","ru":"Maradong","uk":"Maradong","de":"Maradong","es":"Maradong","en":"Maradong","fr":"Maradong"}},{"country":"MY","name":"Julau","admin1Code":"MY.11","latitude":2.01667,"longitude":111.91667,"translations":{"pt":"Julau","it":"Julau","ru":"Julau","uk":"Julau","de":"Julau","es":"Julau","en":"Julau","fr":"Julau"}},{"country":"MY","name":"Сибу","admin1Code":"MY.11","latitude":2.3,"longitude":111.81667,"translations":{"pt":"Sybu","it":"Sybu","ru":"Сибу","uk":"Сибу","de":"Sybu","es":"Sybu","en":"Сибу","fr":"Sybu"}},{"country":"MY","name":"Pakan","admin1Code":"MY.11","latitude":1.88333,"longitude":111.68333,"translations":{"pt":"Pakan","it":"Pakan","ru":"Pakan","uk":"Pakan","de":"Pakan","es":"Pakan","en":"Pakan","fr":"Pakan"}},{"country":"MY","name":"Kangar","admin1Code":"MY.08","latitude":6.4414,"longitude":100.19862,"translations":{"pt":"Kangar","it":"Kangar","ru":"Кангар","uk":"Кангар","de":"Kangar","es":"Kangar","en":"Kangar","fr":"Kangar"}},{"country":"MY","name":"Changlun","admin1Code":"MY.02","latitude":6.43422,"longitude":100.43133,"translations":{"pt":"Changlun","it":"Changlun","ru":"Changlun","uk":"Changlun","de":"Changlun","es":"Changlun","en":"Changlun","fr":"Changlun"}},{"country":"MY","name":"Jitra","admin1Code":"MY.02","latitude":6.26812,"longitude":100.42167,"translations":{"pt":"Jitra","it":"Jitra","ru":"Jitra","uk":"Jitra","de":"Jitra","es":"Jitra","en":"Jitra","fr":"Jitra"}},{"country":"MY","name":"Kuala kedah","admin1Code":"MY.02","latitude":6.1,"longitude":100.3,"translations":{"pt":"Kuala kedah","it":"Kuala kedah","ru":"Kuala kedah","uk":"Куала-кедах","de":"Kuala kedah","es":"Kuala kedah","en":"Kuala kedah","fr":"Kuala kedah"}},{"country":"MY","name":"Alor star","admin1Code":"MY.02","latitude":6.12104,"longitude":100.36014,"translations":{"pt":"Alor star","it":"Alor star","ru":"Алор-сетар","uk":"Алор-стар","de":"Alor star","es":"Alor star","en":"Alor star","fr":"Alor star"}},{"country":"MY","name":"Tokai","admin1Code":"MY.02","latitude":6.02867,"longitude":100.40691,"translations":{"pt":"Tokai","it":"Tokai","ru":"Tokai","uk":"Tokai","de":"Tokai","es":"Tokai","en":"Tokai","fr":"Tokai"}},{"country":"MY","name":"Pokok sena","admin1Code":"MY.02","latitude":6.17055,"longitude":100.51885,"translations":{"pt":"Pokok sena","it":"Pokok sena","ru":"Pokok sena","uk":"Pokok sena","de":"Pokok sena","es":"Pokok sena","en":"Pokok sena","fr":"Pokok sena"}},{"country":"MY","name":"Wakaf bharu","admin1Code":"MY.03","latitude":6.11667,"longitude":102.2,"translations":{"pt":"Wakaf bharu","it":"Wakaf bharu","ru":"Wakaf bharu","uk":"Wakaf bharu","de":"Wakaf bharu","es":"Wakaf bharu","en":"Wakaf bharu","fr":"Wakaf bharu"}},{"country":"MY","name":"Pasir mas","admin1Code":"MY.03","latitude":6.04934,"longitude":102.13987,"translations":{"pt":"Pasir mas","it":"Pasir mas","ru":"Pasir mas","uk":"Pasir mas","de":"Pasir mas","es":"Pasir mas","en":"Pasir mas","fr":"Pasir mas"}},{"country":"MY","name":"Kota bharu","admin1Code":"MY.03","latitude":6.12361,"longitude":102.24333,"translations":{"pt":"Kota bharu","it":"Kota bharu","ru":"Кота-бару","uk":"Кота-бару","de":"Kota bahru","es":"Kota bharu","en":"Kota bharu","fr":"Kota bahru"}},{"country":"MY","name":"Kudat","admin1Code":"MY.16","latitude":6.88732,"longitude":116.82364,"translations":{"pt":"Kudat","it":"Kudat","ru":"Kudat","uk":"Kudat","de":"Kudat","es":"Kudat","en":"Kudat","fr":"Kudat"}},{"country":"MY","name":"Saratok","admin1Code":"MY.11","latitude":1.73333,"longitude":111.33333,"translations":{"pt":"Saratok","it":"Saratok","ru":"Saratok","uk":"Сараток","de":"Saratok","es":"Saratok","en":"Saratok","fr":"Saratok"}},{"country":"MY","name":"Daro","admin1Code":"MY.11","latitude":2.51667,"longitude":111.43333,"translations":{"pt":"Daro","it":"Daro","ru":"Daro","uk":"Daro","de":"Daro","es":"Daro","en":"Daro","fr":"Daro"}},{"country":"MY","name":"Engkilili","admin1Code":"MY.11","latitude":1.13864,"longitude":111.66665,"translations":{"pt":"Engkilili","it":"Engkilili","ru":"Engkilili","uk":"Engkilili","de":"Engkilili","es":"Engkilili","en":"Engkilili","fr":"Engkilili"}},{"country":"MY","name":"Betong","admin1Code":"MY.11","latitude":1.4,"longitude":111.51667,"translations":{"pt":"Betong","it":"Betong","ru":"Бетонг","uk":"Бетонг","de":"Betong","es":"Betong","en":"Betong","fr":"Betong"}},{"country":"MY","name":"Dalat","admin1Code":"MY.11","latitude":2.66667,"longitude":112.08333,"translations":{"pt":"Dalat","it":"Dalat","ru":"Dalat","uk":"Dalat","de":"Dalat","es":"Dalat","en":"Dalat","fr":"Dalat"}},{"country":"MY","name":"Kanowit","admin1Code":"MY.11","latitude":2.1,"longitude":112.15,"translations":{"pt":"Kanowit","it":"Kanowit","ru":"Kanowit","uk":"Kanowit","de":"Kanowit","es":"Kanowit","en":"Kanowit","fr":"Kanowit"}},{"country":"MY","name":"Lundu","admin1Code":"MY.11","latitude":1.67439,"longitude":109.85171,"translations":{"pt":"Lundu","it":"Lundu","ru":"Lundu","uk":"Lundu","de":"Lundu","es":"Lundu","en":"Lundu","fr":"Lundu"}},{"country":"MY","name":"Капит","admin1Code":"MY.11","latitude":1.99546,"longitude":112.93254,"translations":{"pt":"Kapyt","it":"Kapyt","ru":"Капит","uk":"Капит","de":"Kapyt","es":"Kapyt","en":"Капит","fr":"Kapyt"}},{"country":"MY","name":"Niah","admin1Code":"MY.11","latitude":3.86203,"longitude":113.71521,"translations":{"pt":"Niah","it":"Niah","ru":"Niah","uk":"Niah","de":"Niah","es":"Niah","en":"Niah","fr":"Niah"}},{"country":"MY","name":"Belaga","admin1Code":"MY.11","latitude":2.7,"longitude":113.78333,"translations":{"pt":"Belaga","it":"Belaga","ru":"Belaga","uk":"Belaga","de":"Belaga","es":"Belaga","en":"Belaga","fr":"Belaga"}},{"country":"MY","name":"Бинтулу","admin1Code":"MY.11","latitude":3.16667,"longitude":113.03333,"translations":{"pt":"Byntulu","it":"Byntulu","ru":"Бинтулу","uk":"Бинтулу","de":"Byntulu","es":"Byntulu","en":"Бинтулу","fr":"Byntulu"}},{"country":"MY","name":"Sebauh","admin1Code":"MY.11","latitude":3.11667,"longitude":113.26667,"translations":{"pt":"Sebauh","it":"Sebauh","ru":"Sebauh","uk":"Sebauh","de":"Sebauh","es":"Sebauh","en":"Sebauh","fr":"Sebauh"}},{"country":"MY","name":"Lawas","admin1Code":"MY.11","latitude":4.8604,"longitude":115.409,"translations":{"pt":"Lawas","it":"Lawas","ru":"Lawas","uk":"Lawas","de":"Lawas","es":"Lawas","en":"Lawas","fr":"Lawas"}},{"country":"MY","name":"Лимбанг","admin1Code":"MY.11","latitude":4.75477,"longitude":115.01011,"translations":{"pt":"Lymbanh","it":"Lymbanh","ru":"Лимбанг","uk":"Лимбанг","de":"Lymbanh","es":"Lymbanh","en":"Лимбанг","fr":"Lymbanh"}},{"country":"MY","name":"Claudetown","admin1Code":"MY.11","latitude":4.18333,"longitude":114.31667,"translations":{"pt":"Claudetown","it":"Claudetown","ru":"Claudetown","uk":"Claudetown","de":"Claudetown","es":"Claudetown","en":"Claudetown","fr":"Claudetown"}},{"country":"MY","name":"Beluru","admin1Code":"MY.11","latitude":3.98333,"longitude":114.1,"translations":{"pt":"Beluru","it":"Beluru","ru":"Beluru","uk":"Beluru","de":"Beluru","es":"Beluru","en":"Beluru","fr":"Beluru"}},{"country":"MY","name":"Мири","admin1Code":"MY.11","latitude":4.39928,"longitude":113.99163,"translations":{"pt":"Myry","it":"Myry","ru":"Мири","uk":"Мири","de":"Myry","es":"Myry","en":"Мири","fr":"Myry"}},{"country":"MY","name":"Ulu tiram","admin1Code":"MY.01","latitude":1.6,"longitude":103.81667,"translations":{"pt":"Ulu tiram","it":"Ulu tiram","ru":"Ulu tiram","uk":"Ulu tiram","de":"Ulu tiram","es":"Ulu tiram","en":"Ulu tiram","fr":"Ulu tiram"}},{"country":"MY","name":"Ulu kelang","admin1Code":"MY.12","latitude":3.18,"longitude":101.773,"translations":{"pt":"Ulu kelang","it":"Ulu kelang","ru":"Ulu kelang","uk":"Ulu kelang","de":"Ulu kelang","es":"Ulu kelang","en":"Ulu kelang","fr":"Ulu kelang"}},{"country":"MY","name":"Tanjung sepat","admin1Code":"MY.12","latitude":2.6579,"longitude":101.5629,"translations":{"pt":"Tanjung sepat","it":"Tanjung sepat","ru":"Tanjung sepat","uk":"Tanjung sepat","de":"Tanjung sepat","es":"Tanjung sepat","en":"Tanjung sepat","fr":"Tanjung sepat"}},{"country":"MY","name":"Sungai lalang","admin1Code":"MY.02","latitude":5.6998,"longitude":100.51449,"translations":{"pt":"Sungai lalang","it":"Sungai lalang","ru":"Sungai lalang","uk":"Sungai lalang","de":"Sungai lalang","es":"Sungai lalang","en":"Sungai lalang","fr":"Sungai lalang"}},{"country":"MY","name":"Sungai dua","admin1Code":"MY.09","latitude":5.44266,"longitude":100.42972,"translations":{"pt":"Sungai dua","it":"Sungai dua","ru":"Sungai dua","uk":"Sungai dua","de":"Sungai dua","es":"Sungai dua","en":"Sungai dua","fr":"Sungai dua"}},{"country":"MY","name":"Seri kembangan","admin1Code":"MY.12","latitude":3.03333,"longitude":101.71667,"translations":{"pt":"Seri kembangan","it":"Seri kembangan","ru":"Seri kembangan","uk":"Seri kembangan","de":"Seri kembangan","es":"Seri kembangan","en":"Seri kembangan","fr":"Seri kembangan"}},{"country":"MY","name":"Serian","admin1Code":"MY.11","latitude":1.16667,"longitude":110.56667,"translations":{"pt":"Serian","it":"Serian","ru":"Serian","uk":"Serian","de":"Serian","es":"Serian","en":"Serian","fr":"Serian"}},{"country":"MY","name":"Seputeh","admin1Code":"MY.14","latitude":3.11667,"longitude":101.68333,"translations":{"pt":"Seputeh","it":"Seputeh","ru":"Seputeh","uk":"Seputeh","de":"Seputeh","es":"Seputeh","en":"Seputeh","fr":"Seputeh"}},{"country":"MY","name":"Sentul","admin1Code":"MY.14","latitude":3.18333,"longitude":101.68333,"translations":{"pt":"Sentul","it":"Sentul","ru":"Sentul","uk":"Sentul","de":"Sentul","es":"Sentul","en":"Sentul","fr":"Sentul"}},{"country":"MY","name":"Relau","admin1Code":"MY.09","latitude":5.33096,"longitude":100.28296,"translations":{"pt":"Relau","it":"Relau","ru":"Relau","uk":"Relau","de":"Relau","es":"Relau","en":"Relau","fr":"Relau"}},{"country":"MY","name":"Puchong","admin1Code":"MY.12","latitude":3.0,"longitude":101.61667,"translations":{"pt":"Puchong","it":"Puchong","ru":"Puchong","uk":"Puchong","de":"Puchong","es":"Puchong","en":"Puchong","fr":"Puchong"}},{"country":"MY","name":"Permatang kuching","admin1Code":"MY.09","latitude":5.46339,"longitude":100.38144,"translations":{"pt":"Permatang kuching","it":"Permatang kuching","ru":"Permatang kuching","uk":"Permatang kuching","de":"Permatang kuching","es":"Permatang kuching","en":"Permatang kuching","fr":"Permatang kuching"}},{"country":"MY","name":"Peringat","admin1Code":"MY.03","latitude":6.03333,"longitude":102.28333,"translations":{"pt":"Peringat","it":"Peringat","ru":"Peringat","uk":"Peringat","de":"Peringat","es":"Peringat","en":"Peringat","fr":"Peringat"}},{"country":"MY","name":"Ladang seri kundang","admin1Code":"MY.12","latitude":3.2856,"longitude":101.519,"translations":{"pt":"Ladang seri kundang","it":"Ladang seri kundang","ru":"Ladang seri kundang","uk":"Ladang seri kundang","de":"Ladang seri kundang","es":"Ladang seri kundang","en":"Ladang seri kundang","fr":"Ladang seri kundang"}},{"country":"MY","name":"Pantai remis","admin1Code":"MY.07","latitude":4.4557,"longitude":100.6288,"translations":{"pt":"Pantai remis","it":"Pantai remis","ru":"Pantai remis","uk":"Pantai remis","de":"Pantai remis","es":"Pantai remis","en":"Pantai remis","fr":"Pantai remis"}},{"country":"MY","name":"Padang besar","admin1Code":"MY.02","latitude":6.38333,"longitude":100.3,"translations":{"pt":"Padang besar","it":"Padang besar","ru":"Padang besar","uk":"Padang besar","de":"Padang besar","es":"Padang besar","en":"Padang besar","fr":"Padang besar"}},{"country":"MY","name":"Lukut","admin1Code":"MY.05","latitude":2.5703,"longitude":101.833,"translations":{"pt":"Lukut","it":"Lukut","ru":"Lukut","uk":"Lukut","de":"Lukut","es":"Lukut","en":"Lukut","fr":"Lukut"}},{"country":"MY","name":"Kubang semang","admin1Code":"MY.09","latitude":5.40375,"longitude":100.45745,"translations":{"pt":"Kubang semang","it":"Kubang semang","ru":"Kubang semang","uk":"Kubang semang","de":"Kubang semang","es":"Kubang semang","en":"Kubang semang","fr":"Kubang semang"}},{"country":"MY","name":"Куанг","admin1Code":"MY.12","latitude":3.2594,"longitude":101.5541,"translations":{"pt":"Kuanh","it":"Kuanh","ru":"Куанг","uk":"Куанг","de":"Kuanh","es":"Kuanh","en":"Куанг","fr":"Kuanh"}},{"country":"MY","name":"Kuala ketil","admin1Code":"MY.02","latitude":5.6,"longitude":100.65,"translations":{"pt":"Kuala ketil","it":"Kuala ketil","ru":"Kuala ketil","uk":"Kuala ketil","de":"Kuala ketil","es":"Kuala ketil","en":"Kuala ketil","fr":"Kuala ketil"}},{"country":"MY","name":"Kepong","admin1Code":"MY.14","latitude":3.21398,"longitude":101.64018,"translations":{"pt":"Kepong","it":"Kepong","ru":"Kepong","uk":"Kepong","de":"Kepong","es":"Kepong","en":"Kepong","fr":"Kepong"}},{"country":"MY","name":"Klebang besar","admin1Code":"MY.04","latitude":2.2186,"longitude":102.1995,"translations":{"pt":"Klebang besar","it":"Klebang besar","ru":"Klebang besar","uk":"Klebang besar","de":"Klebang besar","es":"Klebang besar","en":"Klebang besar","fr":"Klebang besar"}},{"country":"MY","name":"Kampung kangkar teberau","admin1Code":"MY.01","latitude":1.532,"longitude":103.7549,"translations":{"pt":"Kampung kangkar teberau","it":"Kampung kangkar teberau","ru":"Kampung kangkar teberau","uk":"Kampung kangkar teberau","de":"Kampung kangkar teberau","es":"Kampung kangkar teberau","en":"Kampung kangkar teberau","fr":"Kampung kangkar teberau"}},{"country":"MY","name":"Kampung tanjung minyak","admin1Code":"MY.04","latitude":2.2666,"longitude":102.2004,"translations":{"pt":"Kampung tanjung minyak","it":"Kampung tanjung minyak","ru":"Kampung tanjung minyak","uk":"Kampung tanjung minyak","de":"Kampung tanjung minyak","es":"Kampung tanjung minyak","en":"Kampung tanjung minyak","fr":"Kampung tanjung minyak"}},{"country":"MY","name":"Kampung tanjung karang","admin1Code":"MY.12","latitude":3.4242,"longitude":101.1849,"translations":{"pt":"Kampung tanjung karang","it":"Kampung tanjung karang","ru":"Kampung tanjung karang","uk":"Kampung tanjung karang","de":"Kampung tanjung karang","es":"Kampung tanjung karang","en":"Kampung tanjung karang","fr":"Kampung tanjung karang"}},{"country":"MY","name":"Kampung sungai kajang","admin1Code":"MY.12","latitude":3.4161,"longitude":101.173,"translations":{"pt":"Kampung sungai kajang","it":"Kampung sungai kajang","ru":"Kampung sungai kajang","uk":"Kampung sungai kajang","de":"Kampung sungai kajang","es":"Kampung sungai kajang","en":"Kampung sungai kajang","fr":"Kampung sungai kajang"}},{"country":"MY","name":"Kampung sungai glugur","admin1Code":"MY.09","latitude":5.36966,"longitude":100.31353,"translations":{"pt":"Kampung sungai glugur","it":"Kampung sungai glugur","ru":"Kampung sungai glugur","uk":"Kampung sungai glugur","de":"Kampung sungai glugur","es":"Kampung sungai glugur","en":"Kampung sungai glugur","fr":"Kampung sungai glugur"}},{"country":"MY","name":"Kampung sungai ara","admin1Code":"MY.09","latitude":5.32699,"longitude":100.27348,"translations":{"pt":"Kampung sungai ara","it":"Kampung sungai ara","ru":"Kampung sungai ara","uk":"Kampung sungai ara","de":"Kampung sungai ara","es":"Kampung sungai ara","en":"Kampung sungai ara","fr":"Kampung sungai ara"}},{"country":"MY","name":"Kampung simpang renggam","admin1Code":"MY.01","latitude":1.8278,"longitude":103.3,"translations":{"pt":"Kampung simpang renggam","it":"Kampung simpang renggam","ru":"Kampung simpang renggam","uk":"Kampung simpang renggam","de":"Kampung simpang renggam","es":"Kampung simpang renggam","en":"Kampung simpang renggam","fr":"Kampung simpang renggam"}},{"country":"MY","name":"Sidam","admin1Code":"MY.02","latitude":5.53333,"longitude":100.56667,"translations":{"pt":"Sidam","it":"Sidam","ru":"Sidam","uk":"Sidam","de":"Sidam","es":"Sidam","en":"Sidam","fr":"Sidam"}},{"country":"MY","name":"Kampung selang","admin1Code":"MY.01","latitude":2.35,"longitude":102.876,"translations":{"pt":"Kampung selang","it":"Kampung selang","ru":"Kampung selang","uk":"Kampung selang","de":"Kampung selang","es":"Kampung selang","en":"Kampung selang","fr":"Kampung selang"}},{"country":"MY","name":"Pendang","admin1Code":"MY.02","latitude":5.99516,"longitude":100.47885,"translations":{"pt":"Pendang","it":"Pendang","ru":"Pendang","uk":"Pendang","de":"Pendang","es":"Pendang","en":"Pendang","fr":"Pendang"}},{"country":"MY","name":"Kampong pangkal kalong","admin1Code":"MY.03","latitude":5.91667,"longitude":102.21667,"translations":{"pt":"Kampong pangkal kalong","it":"Kampong pangkal kalong","ru":"Kampong pangkal kalong","uk":"Kampong pangkal kalong","de":"Kampong pangkal kalong","es":"Kampong pangkal kalong","en":"Kampong pangkal kalong","fr":"Kampong pangkal kalong"}},{"country":"MY","name":"Kampung minyak beku","admin1Code":"MY.01","latitude":1.7954,"longitude":102.8971,"translations":{"pt":"Kampung minyak beku","it":"Kampung minyak beku","ru":"Kampung minyak beku","uk":"Kampung minyak beku","de":"Kampung minyak beku","es":"Kampung minyak beku","en":"Kampung minyak beku","fr":"Kampung minyak beku"}},{"country":"MY","name":"Kampong masjid tanah","admin1Code":"MY.04","latitude":2.35,"longitude":102.11667,"translations":{"pt":"Kampong masjid tanah","it":"Kampong masjid tanah","ru":"Kampong masjid tanah","uk":"Kampong masjid tanah","de":"Kampong masjid tanah","es":"Kampong masjid tanah","en":"Kampong masjid tanah","fr":"Kampong masjid tanah"}},{"country":"MY","name":"Kampung machap baru","admin1Code":"MY.04","latitude":2.3829,"longitude":102.3311,"translations":{"pt":"Kampung machap baru","it":"Kampung machap baru","ru":"Kampung machap baru","uk":"Kampung machap baru","de":"Kampung machap baru","es":"Kampung machap baru","en":"Kampung machap baru","fr":"Kampung machap baru"}},{"country":"MY","name":"Kampung kerubong","admin1Code":"MY.04","latitude":2.2958,"longitude":102.2537,"translations":{"pt":"Kampung kerubong","it":"Kampung kerubong","ru":"Kampung kerubong","uk":"Kampung kerubong","de":"Kampung kerubong","es":"Kampung kerubong","en":"Kampung kerubong","fr":"Kampung kerubong"}},{"country":"MY","name":"Kampong kadok","admin1Code":"MY.03","latitude":6.0,"longitude":102.25,"translations":{"pt":"Kampong kadok","it":"Kampong kadok","ru":"Kampong kadok","uk":"Kampong kadok","de":"Kampong kadok","es":"Kampong kadok","en":"Kampong kadok","fr":"Kampong kadok"}},{"country":"MY","name":"Ijok","admin1Code":"MY.12","latitude":3.31667,"longitude":101.4,"translations":{"pt":"Ijok","it":"Ijok","ru":"Ijok","uk":"Ijok","de":"Ijok","es":"Ijok","en":"Ijok","fr":"Ijok"}},{"country":"MY","name":"Kampong dungun","admin1Code":"MY.07","latitude":3.21667,"longitude":101.31667,"translations":{"pt":"Kampong dungun","it":"Kampong dungun","ru":"Kampong dungun","uk":"Kampong dungun","de":"Kampong dungun","es":"Kampong dungun","en":"Kampong dungun","fr":"Kampong dungun"}},{"country":"MY","name":"Kampung cheng","admin1Code":"MY.04","latitude":2.2635,"longitude":102.2179,"translations":{"pt":"Kampung cheng","it":"Kampung cheng","ru":"Kampung cheng","uk":"Kampung cheng","de":"Kampung cheng","es":"Kampung cheng","en":"Kampung cheng","fr":"Kampung cheng"}},{"country":"MY","name":"Kampung bukit baharu","admin1Code":"MY.04","latitude":2.2152,"longitude":102.2851,"translations":{"pt":"Kampung bukit baharu","it":"Kampung bukit baharu","ru":"Kampung bukit baharu","uk":"Kampung bukit baharu","de":"Kampung bukit baharu","es":"Kampung bukit baharu","en":"Kampung bukit baharu","fr":"Kampung bukit baharu"}},{"country":"MY","name":"Kampung baru subang","admin1Code":"MY.12","latitude":3.15,"longitude":101.53333,"translations":{"pt":"Kampung baru subang","it":"Kampung baru subang","ru":"Kampung baru subang","uk":"Kampung baru subang","de":"Kampung baru subang","es":"Kampung baru subang","en":"Kampung baru subang","fr":"Kampung baru subang"}},{"country":"MY","name":"Kampung baharu nilai","admin1Code":"MY.05","latitude":2.8033,"longitude":101.7972,"translations":{"pt":"Kampung baharu nilai","it":"Kampung baharu nilai","ru":"Kampung baharu nilai","uk":"Kampung baharu nilai","de":"Kampung baharu nilai","es":"Kampung baharu nilai","en":"Kampung baharu nilai","fr":"Kampung baharu nilai"}},{"country":"MY","name":"Kampong baharu cheras batu sebelas","admin1Code":"MY.12","latitude":3.05,"longitude":101.76667,"translations":{"pt":"Kampong baharu cheras batu sebelas","it":"Kampong baharu cheras batu sebelas","ru":"Kampong baharu cheras batu sebelas","uk":"Kampong baharu cheras batu sebelas","de":"Kampong baharu cheras batu sebelas","es":"Kampong baharu cheras batu sebelas","en":"Kampong baharu cheras batu sebelas","fr":"Kampong baharu cheras batu sebelas"}},{"country":"MY","name":"Kampung baru balakong","admin1Code":"MY.12","latitude":3.02938,"longitude":101.74714,"translations":{"pt":"Kampung baru balakong","it":"Kampung baru balakong","ru":"Kampung baru balakong","uk":"Kampung baru balakong","de":"Kampung baru balakong","es":"Kampung baru balakong","en":"Kampung baru balakong","fr":"Kampung baru balakong"}},{"country":"MY","name":"Kampung ayer molek","admin1Code":"MY.04","latitude":2.2139,"longitude":102.3278,"translations":{"pt":"Kampung ayer molek","it":"Kampung ayer molek","ru":"Kampung ayer molek","uk":"Kampung ayer molek","de":"Kampung ayer molek","es":"Kampung ayer molek","en":"Kampung ayer molek","fr":"Kampung ayer molek"}},{"country":"MY","name":"Anak bukit","admin1Code":"MY.02","latitude":6.184,"longitude":100.37752,"translations":{"pt":"Anak bukit","it":"Anak bukit","ru":"Anak bukit","uk":"Anak bukit","de":"Anak bukit","es":"Anak bukit","en":"Anak bukit","fr":"Anak bukit"}},{"country":"MY","name":"Jelutong","admin1Code":"MY.09","latitude":5.38998,"longitude":100.31885,"translations":{"pt":"Jelutong","it":"Jelutong","ru":"Jelutong","uk":"Jelutong","de":"Jelutong","es":"Jelutong","en":"Jelutong","fr":"Jelutong"}},{"country":"MY","name":"Jawi","admin1Code":"MY.09","latitude":5.21525,"longitude":100.49211,"translations":{"pt":"Jawi","it":"Jawi","ru":"Jawi","uk":"Jawi","de":"Jawi","es":"Jawi","en":"Jawi","fr":"Jawi"}},{"country":"MY","name":"Cheras","admin1Code":"MY.12","latitude":3.108,"longitude":101.726,"translations":{"pt":"Cheras","it":"Cheras","ru":"Cheras","uk":"Cheras","de":"Cheras","es":"Cheras","en":"Cheras","fr":"Cheras"}},{"country":"MY","name":"Bukit tengah","admin1Code":"MY.09","latitude":5.34605,"longitude":100.43917,"translations":{"pt":"Bukit tengah","it":"Bukit tengah","ru":"Bukit tengah","uk":"Bukit tengah","de":"Bukit tengah","es":"Bukit tengah","en":"Bukit tengah","fr":"Bukit tengah"}},{"country":"MY","name":"Bukit tambun","admin1Code":"MY.09","latitude":5.27179,"longitude":100.4601,"translations":{"pt":"Bukit tambun","it":"Bukit tambun","ru":"Bukit tambun","uk":"Bukit tambun","de":"Bukit tambun","es":"Bukit tambun","en":"Bukit tambun","fr":"Bukit tambun"}},{"country":"MY","name":"Bukit rambai","admin1Code":"MY.04","latitude":2.2594,"longitude":102.1838,"translations":{"pt":"Bukit rambai","it":"Bukit rambai","ru":"Bukit rambai","uk":"Bukit rambai","de":"Bukit rambai","es":"Bukit rambai","en":"Bukit rambai","fr":"Bukit rambai"}},{"country":"MY","name":"Bukit gambir","admin1Code":"MY.01","latitude":2.211,"longitude":102.6546,"translations":{"pt":"Bukit gambir","it":"Bukit gambir","ru":"Bukit gambir","uk":"Bukit gambir","de":"Bukit gambir","es":"Bukit gambir","en":"Bukit gambir","fr":"Bukit gambir"}},{"country":"MY","name":"Bertam","admin1Code":"MY.04","latitude":2.2898,"longitude":102.1928,"translations":{"pt":"Bertam","it":"Bertam","ru":"Bertam","uk":"Bertam","de":"Bertam","es":"Bertam","en":"Bertam","fr":"Bertam"}},{"country":"MY","name":"Bentong town","admin1Code":"MY.06","latitude":3.52229,"longitude":101.90866,"translations":{"pt":"Bentong town","it":"Bentong town","ru":"Bentong town","uk":"Bentong town","de":"Bentong town","es":"Bentong town","en":"Bentong town","fr":"Bentong town"}},{"country":"MY","name":"Kampung batu empat","admin1Code":"MY.01","latitude":1.776,"longitude":103.8736,"translations":{"pt":"Kampung batu empat","it":"Kampung batu empat","ru":"Kampung batu empat","uk":"Kampung batu empat","de":"Kampung batu empat","es":"Kampung batu empat","en":"Kampung batu empat","fr":"Kampung batu empat"}},{"country":"MY","name":"Batu berendam","admin1Code":"MY.04","latitude":2.2487,"longitude":102.246,"translations":{"pt":"Batu berendam","it":"Batu berendam","ru":"Batu berendam","uk":"Batu berendam","de":"Batu berendam","es":"Batu berendam","en":"Batu berendam","fr":"Batu berendam"}},{"country":"MY","name":"Ayer itam","admin1Code":"MY.09","latitude":5.40158,"longitude":100.27815,"translations":{"pt":"Ayer itam","it":"Ayer itam","ru":"Ayer itam","uk":"Ayer itam","de":"Ayer itam","es":"Ayer itam","en":"Ayer itam","fr":"Ayer itam"}},{"country":"MY","name":"Kampung teluk kumbar","admin1Code":"MY.09","latitude":5.28769,"longitude":100.23379,"translations":{"pt":"Kampung teluk kumbar","it":"Kampung teluk kumbar","ru":"Kampung teluk kumbar","uk":"Kampung teluk kumbar","de":"Kampung teluk kumbar","es":"Kampung teluk kumbar","en":"Kampung teluk kumbar","fr":"Kampung teluk kumbar"}},{"country":"MY","name":"Putrajaya","admin1Code":"MY.17","latitude":2.93527,"longitude":101.69112,"translations":{"pt":"Putrajaya","it":"Putrajaya","ru":"Putrajaya","uk":"Putrajaya","de":"Putrajaya","es":"Putrajaya","en":"Putrajaya","fr":"Putrajaya"}},{"country":"MY","name":"Kampung baru ulu melaka","admin1Code":"MY.02","latitude":6.35196,"longitude":99.78791,"translations":{"pt":"Kampung baru ulu melaka","it":"Kampung baru ulu melaka","ru":"Kampung baru ulu melaka","uk":"Kampung baru ulu melaka","de":"Kampung baru ulu melaka","es":"Kampung baru ulu melaka","en":"Kampung baru ulu melaka","fr":"Kampung baru ulu melaka"}},{"country":"MY","name":"Sik","admin1Code":"MY.02","latitude":5.83333,"longitude":100.75,"translations":{"pt":"Sik","it":"Sik","ru":"Sik","uk":"Sik","de":"Sik","es":"Sik","en":"Sik","fr":"Sik"}},{"country":"MY","name":"Kampung alor mengkudu","admin1Code":"MY.02","latitude":6.08838,"longitude":100.39167,"translations":{"pt":"Kampung alor mengkudu","it":"Kampung alor mengkudu","ru":"Kampung alor mengkudu","uk":"Kampung alor mengkudu","de":"Kampung alor mengkudu","es":"Kampung alor mengkudu","en":"Kampung alor mengkudu","fr":"Kampung alor mengkudu"}},{"country":"MY","name":"Kampung hutan arau","admin1Code":"MY.08","latitude":6.42942,"longitude":100.28174,"translations":{"pt":"Kampung hutan arau","it":"Kampung hutan arau","ru":"Kampung hutan arau","uk":"Kampung hutan arau","de":"Kampung hutan arau","es":"Kampung hutan arau","en":"Kampung hutan arau","fr":"Kampung hutan arau"}},{"country":"MY","name":"Glugor","admin1Code":"MY.09","latitude":5.37215,"longitude":100.30708,"translations":{"pt":"Glugor","it":"Glugor","ru":"Glugor","uk":"Glugor","de":"Glugor","es":"Glugor","en":"Glugor","fr":"Glugor"}},{"country":"MY","name":"Teloi kanan","admin1Code":"MY.02","latitude":5.71681,"longitude":100.65819,"translations":{"pt":"Teloi kanan","it":"Teloi kanan","ru":"Teloi kanan","uk":"Teloi kanan","de":"Teloi kanan","es":"Teloi kanan","en":"Teloi kanan","fr":"Teloi kanan"}},{"country":"MY","name":"Kota kuala muda","admin1Code":"MY.02","latitude":5.58822,"longitude":100.37085,"translations":{"pt":"Kota kuala muda","it":"Kota kuala muda","ru":"Kota kuala muda","uk":"Kota kuala muda","de":"Kota kuala muda","es":"Kota kuala muda","en":"Kota kuala muda","fr":"Kota kuala muda"}},{"country":"MY","name":"Ciberjaya","admin1Code":"MY.12","latitude":2.92281,"longitude":101.65718,"translations":{"pt":"Ciberjaya","it":"Ciberjaya","ru":"Ciberjaya","uk":"Ciberjaya","de":"Ciberjaya","es":"Ciberjaya","en":"Ciberjaya","fr":"Ciberjaya"}},{"country":"MY","name":"Bandar labuan","admin1Code":"MY.16","latitude":5.28319,"longitude":115.25371,"translations":{"pt":"Bandar labuan","it":"Bandar labuan","ru":"Bandar labuan","uk":"Bandar labuan","de":"Bandar labuan","es":"Bandar labuan","en":"Bandar labuan","fr":"Bandar labuan"}},{"country":"MY","name":"Bercham","admin1Code":"MY.07","latitude":4.6411,"longitude":101.1393,"translations":{"pt":"Bercham","it":"Bercham","ru":"Bercham","uk":"Bercham","de":"Bercham","es":"Bercham","en":"Bercham","fr":"Bercham"}},{"country":"MY","name":"Kampung manjoi","admin1Code":"MY.07","latitude":4.6192,"longitude":101.0685,"translations":{"pt":"Kampung manjoi","it":"Kampung manjoi","ru":"Kampung manjoi","uk":"Kampung manjoi","de":"Kampung manjoi","es":"Kampung manjoi","en":"Kampung manjoi","fr":"Kampung manjoi"}},{"country":"MY","name":"Perak","admin1Code":"MY.06","latitude":3.8682,"longitude":102.5862,"translations":{"pt":"Perak","it":"Perak","ru":"Perak","uk":"Perak","de":"Perak","es":"Perak","en":"Perak","fr":"Perak"}},{"country":"MY","name":"Bandar tenggara","admin1Code":"MY.01","latitude":1.87,"longitude":103.6158,"translations":{"pt":"Bandar tenggara","it":"Bandar tenggara","ru":"Bandar tenggara","uk":"Bandar tenggara","de":"Bandar tenggara","es":"Bandar tenggara","en":"Bandar tenggara","fr":"Bandar tenggara"}},{"country":"MY","name":"Johor jaya","admin1Code":"MY.01","latitude":1.5392,"longitude":103.8092,"translations":{"pt":"Johor jaya","it":"Johor jaya","ru":"Johor jaya","uk":"Johor jaya","de":"Johor jaya","es":"Johor jaya","en":"Johor jaya","fr":"Johor jaya"}},{"country":"MY","name":"Taman permas jaya","admin1Code":"MY.01","latitude":1.511,"longitude":103.8198,"translations":{"pt":"Taman permas jaya","it":"Taman permas jaya","ru":"Taman permas jaya","uk":"Taman permas jaya","de":"Taman permas jaya","es":"Taman permas jaya","en":"Taman permas jaya","fr":"Taman permas jaya"}},{"country":"MY","name":"Kawasan penempatan ulu sungai benut","admin1Code":"MY.01","latitude":1.7541,"longitude":103.2798,"translations":{"pt":"Kawasan penempatan ulu sungai benut","it":"Kawasan penempatan ulu sungai benut","ru":"Kawasan penempatan ulu sungai benut","uk":"Kawasan penempatan ulu sungai benut","de":"Kawasan penempatan ulu sungai benut","es":"Kawasan penempatan ulu sungai benut","en":"Kawasan penempatan ulu sungai benut","fr":"Kawasan penempatan ulu sungai benut"}},{"country":"MY","name":"Kawasan penempatan ulu benut tiga","admin1Code":"MY.01","latitude":1.7497,"longitude":103.277,"translations":{"pt":"Kawasan penempatan ulu benut tiga","it":"Kawasan penempatan ulu benut tiga","ru":"Kawasan penempatan ulu benut tiga","uk":"Kawasan penempatan ulu benut tiga","de":"Kawasan penempatan ulu benut tiga","es":"Kawasan penempatan ulu benut tiga","en":"Kawasan penempatan ulu benut tiga","fr":"Kawasan penempatan ulu benut tiga"}},{"country":"MY","name":"Kawasan penempatan ulu benut lima","admin1Code":"MY.01","latitude":1.7439,"longitude":103.3207,"translations":{"pt":"Kawasan penempatan ulu benut lima","it":"Kawasan penempatan ulu benut lima","ru":"Kawasan penempatan ulu benut lima","uk":"Kawasan penempatan ulu benut lima","de":"Kawasan penempatan ulu benut lima","es":"Kawasan penempatan ulu benut lima","en":"Kawasan penempatan ulu benut lima","fr":"Kawasan penempatan ulu benut lima"}},{"country":"MY","name":"Bandar tun razak","admin1Code":"MY.06","latitude":2.9029,"longitude":102.8877,"translations":{"pt":"Bandar tun razak","it":"Bandar tun razak","ru":"Bandar tun razak","uk":"Bandar tun razak","de":"Bandar tun razak","es":"Bandar tun razak","en":"Bandar tun razak","fr":"Bandar tun razak"}},{"country":"MY","name":"Sri petaling","admin1Code":"MY.14","latitude":3.06881,"longitude":101.68971,"translations":{"pt":"Sri petaling","it":"Sri petaling","ru":"Sri petaling","uk":"Sri petaling","de":"Sri petaling","es":"Sri petaling","en":"Sri petaling","fr":"Sri petaling"}},{"country":"MY","name":"Seri manjung","admin1Code":"MY.07","latitude":4.1987,"longitude":100.67,"translations":{"pt":"Seri manjung","it":"Seri manjung","ru":"Seri manjung","uk":"Seri manjung","de":"Seri manjung","es":"Seri manjung","en":"Seri manjung","fr":"Seri manjung"}},{"country":"MY","name":"Selayang baru utara","admin1Code":"MY.12","latitude":3.2549,"longitude":101.6668,"translations":{"pt":"Selayang baru utara","it":"Selayang baru utara","ru":"Selayang baru utara","uk":"Selayang baru utara","de":"Selayang baru utara","es":"Selayang baru utara","en":"Selayang baru utara","fr":"Selayang baru utara"}},{"country":"MY","name":"Taman seremban jaya","admin1Code":"MY.05","latitude":2.6831,"longitude":101.97,"translations":{"pt":"Taman seremban jaya","it":"Taman seremban jaya","ru":"Taman seremban jaya","uk":"Taman seremban jaya","de":"Taman seremban jaya","es":"Taman seremban jaya","en":"Taman seremban jaya","fr":"Taman seremban jaya"}},{"country":"MY","name":"Kawasan perindustrian cheng","admin1Code":"MY.04","latitude":2.2618,"longitude":102.2317,"translations":{"pt":"Kawasan perindustrian cheng","it":"Kawasan perindustrian cheng","ru":"Kawasan perindustrian cheng","uk":"Kawasan perindustrian cheng","de":"Kawasan perindustrian cheng","es":"Kawasan perindustrian cheng","en":"Kawasan perindustrian cheng","fr":"Kawasan perindustrian cheng"}},{"country":"MY","name":"Taman pelangi","admin1Code":"MY.01","latitude":2.428,"longitude":102.6801,"translations":{"pt":"Taman pelangi","it":"Taman pelangi","ru":"Taman pelangi","uk":"Taman pelangi","de":"Taman pelangi","es":"Taman pelangi","en":"Taman pelangi","fr":"Taman pelangi"}},{"country":"MY","name":"Taman universiti","admin1Code":"MY.01","latitude":1.5331,"longitude":103.6155,"translations":{"pt":"Taman universiti","it":"Taman universiti","ru":"Taman universiti","uk":"Taman universiti","de":"Taman universiti","es":"Taman universiti","en":"Taman universiti","fr":"Taman universiti"}},{"country":"MY","name":"Kampung jelutong tengah","admin1Code":"MY.01","latitude":1.4714,"longitude":103.5675,"translations":{"pt":"Kampung jelutong tengah","it":"Kampung jelutong tengah","ru":"Kampung jelutong tengah","uk":"Kampung jelutong tengah","de":"Kampung jelutong tengah","es":"Kampung jelutong tengah","en":"Kampung jelutong tengah","fr":"Kampung jelutong tengah"}},{"country":"MY","name":"Subang jaya","admin1Code":"MY.14","latitude":3.04384,"longitude":101.58062,"translations":{"pt":"Subang jaya","it":"Subang jaya","ru":"Subang jaya","uk":"Subang jaya","de":"Subang jaya","es":"Subang jaya","en":"Subang jaya","fr":"Subang jaya"}},{"country":"MY","name":"Iskandar puteri","admin1Code":"MY.01","latitude":1.39324,"longitude":103.62322,"translations":{"pt":"Iskandar puteri","it":"Iskandar puteri","ru":"Iskandar puteri","uk":"Iskandar puteri","de":"Iskandar puteri","es":"Iskandar puteri","en":"Iskandar puteri","fr":"Iskandar puteri"}},{"country":"MY","name":"Putra heights","admin1Code":"MY.12","latitude":2.99361,"longitude":101.57255,"translations":{"pt":"Putra heights","it":"Putra heights","ru":"Putra heights","uk":"Putra heights","de":"Putra heights","es":"Putra heights","en":"Putra heights","fr":"Putra heights"}},{"country":"MY","name":"Kajang","admin1Code":"MY.12","latitude":2.99424,"longitude":101.78875,"translations":{"pt":"Kajang","it":"Kajang","ru":"Kajang","uk":"Kajang","de":"Kajang","es":"Kajang","en":"Kajang","fr":"Kajang"}},{"country":"MY","name":"Starhill","admin1Code":"MY.14","latitude":3.14657,"longitude":101.71023,"translations":{"pt":"Starhill","it":"Starhill","ru":"Starhill","uk":"Starhill","de":"Starhill","es":"Starhill","en":"Starhill","fr":"Starhill"}},{"country":"MY","name":"Sunway city","admin1Code":"MY.12","latitude":3.0693,"longitude":101.6074,"translations":{"pt":"Sunway city","it":"Sunway city","ru":"Sunway city","uk":"Sunway city","de":"Sunway city","es":"Sunway city","en":"Sunway city","fr":"Sunway city"}},{"country":"MY","name":"Bandar puncak alam","admin1Code":"MY.12","latitude":3.2389,"longitude":101.42793,"translations":{"pt":"Bandar puncak alam","it":"Bandar puncak alam","ru":"Bandar puncak alam","uk":"Bandar puncak alam","de":"Bandar puncak alam","es":"Bandar puncak alam","en":"Bandar puncak alam","fr":"Bandar puncak alam"}},{"country":"MY","name":"Kota damansara","admin1Code":"MY.12","latitude":3.15454,"longitude":101.58022,"translations":{"pt":"Kota damansara","it":"Kota damansara","ru":"Kota damansara","uk":"Kota damansara","de":"Kota damansara","es":"Kota damansara","en":"Kota damansara","fr":"Kota damansara"}},{"country":"MY","name":"Damansara damai","admin1Code":"MY.12","latitude":3.19893,"longitude":101.59184,"translations":{"pt":"Damansara damai","it":"Damansara damai","ru":"Damansara damai","uk":"Damansara damai","de":"Damansara damai","es":"Damansara damai","en":"Damansara damai","fr":"Damansara damai"}},{"country":"MY","name":"Kuala nerus","admin1Code":"MY.13","latitude":5.37293,"longitude":103.02053,"translations":{"pt":"Kuala nerus","it":"Kuala nerus","ru":"Kuala nerus","uk":"Kuala nerus","de":"Kuala nerus","es":"Kuala nerus","en":"Kuala nerus","fr":"Kuala nerus"}},{"country":"MY","name":"Sri damansara city","admin1Code":"MY.12","latitude":3.1903,"longitude":101.61061,"translations":{"pt":"Sri damansara city","it":"Sri damansara city","ru":"Sri damansara city","uk":"Sri damansara city","de":"Sri damansara city","es":"Sri damansara city","en":"Sri damansara city","fr":"Sri damansara city"}},{"country":"MY","name":"Selangau","admin1Code":"MY.11","latitude":2.52477,"longitude":112.32543,"translations":{"pt":"Selangau","it":"Selangau","ru":"Selangau","uk":"Selangau","de":"Selangau","es":"Selangau","en":"Selangau","fr":"Selangau"}},{"country":"MY","name":"Taman petaling","admin1Code":"MY.14","latitude":3.19916,"longitude":101.64983,"translations":{"pt":"Taman petaling","it":"Taman petaling","ru":"Taman petaling","uk":"Taman petaling","de":"Taman petaling","es":"Taman petaling","en":"Taman petaling","fr":"Taman petaling"}},{"country":"MY","name":"Elmina","admin1Code":"MY.12","latitude":3.18523,"longitude":101.52461,"translations":{"pt":"Elmina","it":"Elmina","ru":"Elmina","uk":"Elmina","de":"Elmina","es":"Elmina","en":"Elmina","fr":"Elmina"}},{"country":"MY","name":"Denai alam","admin1Code":"MY.12","latitude":3.16027,"longitude":101.51501,"translations":{"pt":"Denai alam","it":"Denai alam","ru":"Denai alam","uk":"Denai alam","de":"Denai alam","es":"Denai alam","en":"Denai alam","fr":"Denai alam"}},{"country":"MY","name":"Tropicana indah","admin1Code":"MY.12","latitude":3.14165,"longitude":101.59089,"translations":{"pt":"Tropicana indah","it":"Tropicana indah","ru":"Tropicana indah","uk":"Tropicana indah","de":"Tropicana indah","es":"Tropicana indah","en":"Tropicana indah","fr":"Tropicana indah"}},{"country":"MY","name":"Greenwood park","admin1Code":"MY.12","latitude":3.23208,"longitude":101.70484,"translations":{"pt":"Greenwood park","it":"Greenwood park","ru":"Greenwood park","uk":"Greenwood park","de":"Greenwood park","es":"Greenwood park","en":"Greenwood park","fr":"Greenwood park"}},{"country":"MY","name":"Taman melati","admin1Code":"MY.14","latitude":3.22124,"longitude":101.72324,"translations":{"pt":"Taman melati","it":"Taman melati","ru":"Taman melati","uk":"Taman melati","de":"Taman melati","es":"Taman melati","en":"Taman melati","fr":"Taman melati"}},{"country":"MY","name":"Ara damansara","admin1Code":"MY.12","latitude":3.11898,"longitude":101.58656,"translations":{"pt":"Ara damansara","it":"Ara damansara","ru":"Ara damansara","uk":"Ara damansara","de":"Ara damansara","es":"Ara damansara","en":"Ara damansara","fr":"Ara damansara"}},{"country":"MY","name":"Desa parkcity","admin1Code":"MY.14","latitude":3.18611,"longitude":101.62875,"translations":{"pt":"Desa parkcity","it":"Desa parkcity","ru":"Desa parkcity","uk":"Desa parkcity","de":"Desa parkcity","es":"Desa parkcity","en":"Desa parkcity","fr":"Desa parkcity"}},{"country":"MY","name":"Gombak setia","admin1Code":"MY.12","latitude":3.24177,"longitude":101.53296,"translations":{"pt":"Gombak setia","it":"Gombak setia","ru":"Gombak setia","uk":"Gombak setia","de":"Gombak setia","es":"Gombak setia","en":"Gombak setia","fr":"Gombak setia"}},{"country":"MY","name":"Mont kiara","admin1Code":"MY.14","latitude":3.16866,"longitude":101.65076,"translations":{"pt":"Mont kiara","it":"Mont kiara","ru":"Mont kiara","uk":"Mont kiara","de":"Mont kiara","es":"Mont kiara","en":"Mont kiara","fr":"Mont kiara"}},{"country":"MY","name":"Oug","admin1Code":"MY.14","latitude":3.07292,"longitude":101.6763,"translations":{"pt":"Oug","it":"Oug","ru":"Oug","uk":"Oug","de":"Oug","es":"Oug","en":"Oug","fr":"Oug"}},{"country":"MY","name":"Taman tun dr ismail","admin1Code":"MY.14","latitude":3.14506,"longitude":101.62617,"translations":{"pt":"Taman tun dr ismail","it":"Taman tun dr ismail","ru":"Taman tun dr ismail","uk":"Taman tun dr ismail","de":"Taman tun dr ismail","es":"Taman tun dr ismail","en":"Taman tun dr ismail","fr":"Taman tun dr ismail"}},{"country":"MY","name":"Bangsar","admin1Code":"MY.14","latitude":3.12945,"longitude":101.67004,"translations":{"pt":"Bangsar","it":"Bangsar","ru":"Bangsar","uk":"Bangsar","de":"Bangsar","es":"Bangsar","en":"Bangsar","fr":"Bangsar"}},{"country":"MY","name":"Seremban 2","admin1Code":"MY.05","latitude":2.68982,"longitude":101.90766,"translations":{"pt":"Seremban 2","it":"Seremban 2","ru":"Seremban 2","uk":"Seremban 2","de":"Seremban 2","es":"Seremban 2","en":"Seremban 2","fr":"Seremban 2"}},{"country":"MY","name":"Bukit indah","admin1Code":"MY.01","latitude":1.47999,"longitude":103.65959,"translations":{"pt":"Bukit indah","it":"Bukit indah","ru":"Bukit indah","uk":"Bukit indah","de":"Bukit indah","es":"Bukit indah","en":"Bukit indah","fr":"Bukit indah"}},{"country":"MY","name":"Wangsa maju","admin1Code":"MY.14","latitude":3.20056,"longitude":101.73972,"translations":{"pt":"Wangsa maju","it":"Wangsa maju","ru":"Wangsa maju","uk":"Wangsa maju","de":"Wangsa maju","es":"Wangsa maju","en":"Wangsa maju","fr":"Wangsa maju"}},{"country":"MY","name":"Shi mao yue","admin1Code":"MY.12","latitude":2.94761,"longitude":101.84695,"translations":{"pt":"Shi mao yue","it":"Shi mao yue","ru":"Shi mao yue","uk":"Shi mao yue","de":"Shi mao yue","es":"Shi mao yue","en":"Shi mao yue","fr":"Shi mao yue"}},{"country":"MY","name":"Kuchai lama","admin1Code":"MY.14","latitude":3.08469,"longitude":101.69086,"translations":{"pt":"Kuchai lama","it":"Kuchai lama","ru":"Kuchai lama","uk":"Kuchai lama","de":"Kuchai lama","es":"Kuchai lama","en":"Kuchai lama","fr":"Kuchai lama"}},{"country":"MY","name":"Bukit gemuroh","admin1Code":"MY.09","latitude":5.29775,"longitude":100.21147,"translations":{"pt":"Bukit gemuroh","it":"Bukit gemuroh","ru":"Bukit gemuroh","uk":"Bukit gemuroh","de":"Bukit gemuroh","es":"Bukit gemuroh","en":"Bukit gemuroh","fr":"Bukit gemuroh"}},{"country":"MY","name":"Taman melawati","admin1Code":"MY.12","latitude":3.21083,"longitude":101.74825,"translations":{"pt":"Taman melawati","it":"Taman melawati","ru":"Taman melawati","uk":"Taman melawati","de":"Taman melawati","es":"Taman melawati","en":"Taman melawati","fr":"Taman melawati"}},{"country":"MY","name":"Perling","admin1Code":"MY.01","latitude":1.48061,"longitude":103.68381,"translations":{"pt":"Perling","it":"Perling","ru":"Perling","uk":"Perling","de":"Perling","es":"Perling","en":"Perling","fr":"Perling"}},{"country":"MY","name":"Mukim pulai","admin1Code":"MY.01","latitude":1.53333,"longitude":103.66667,"translations":{"pt":"Mukim pulai","it":"Mukim pulai","ru":"Mukim pulai","uk":"Mukim pulai","de":"Mukim pulai","es":"Mukim pulai","en":"Mukim pulai","fr":"Mukim pulai"}},{"country":"MY","name":"Bandar mahkota cheras","admin1Code":"MY.12","latitude":3.0542,"longitude":101.79844,"translations":{"pt":"Bandar mahkota cheras","it":"Bandar mahkota cheras","ru":"Bandar mahkota cheras","uk":"Bandar mahkota cheras","de":"Bandar mahkota cheras","es":"Bandar mahkota cheras","en":"Bandar mahkota cheras","fr":"Bandar mahkota cheras"}},{"country":"MY","name":"Paya terubong","admin1Code":"MY.09","latitude":5.37278,"longitude":100.27972,"translations":{"pt":"Paya terubong","it":"Paya terubong","ru":"Paya terubong","uk":"Paya terubong","de":"Paya terubong","es":"Paya terubong","en":"Paya terubong","fr":"Paya terubong"}},{"country":"MY","name":"Bandar tun hussein onn","admin1Code":"MY.12","latitude":3.05469,"longitude":101.75939,"translations":{"pt":"Bandar tun hussein onn","it":"Bandar tun hussein onn","ru":"Bandar tun hussein onn","uk":"Bandar tun hussein onn","de":"Bandar tun hussein onn","es":"Bandar tun hussein onn","en":"Bandar tun hussein onn","fr":"Bandar tun hussein onn"}},{"country":"MY","name":"Bukit beruntung","admin1Code":"MY.12","latitude":3.41558,"longitude":101.55709,"translations":{"pt":"Bukit beruntung","it":"Bukit beruntung","ru":"Bukit beruntung","uk":"Bukit beruntung","de":"Bukit beruntung","es":"Bukit beruntung","en":"Bukit beruntung","fr":"Bukit beruntung"}},{"country":"MY","name":"Sibu jaya","admin1Code":"MY.11","latitude":2.24026,"longitude":111.97135,"translations":{"pt":"Sibu jaya","it":"Sibu jaya","ru":"Sibu jaya","uk":"Sibu jaya","de":"Sibu jaya","es":"Sibu jaya","en":"Sibu jaya","fr":"Sibu jaya"}},{"country":"MY","name":"Petagas","admin1Code":"MY.16","latitude":5.91161,"longitude":116.04991,"translations":{"pt":"Petagas","it":"Petagas","ru":"Petagas","uk":"Petagas","de":"Petagas","es":"Petagas","en":"Petagas","fr":"Petagas"}},{"country":"MY","name":"Setia alam","admin1Code":"MY.12","latitude":3.10155,"longitude":101.45565,"translations":{"pt":"Setia alam","it":"Setia alam","ru":"Setia alam","uk":"Setia alam","de":"Setia alam","es":"Setia alam","en":"Setia alam","fr":"Setia alam"}},{"country":"MY","name":"Taman sri sinar","admin1Code":"MY.14","latitude":3.1868,"longitude":101.65085,"translations":{"pt":"Taman sri sinar","it":"Taman sri sinar","ru":"Taman sri sinar","uk":"Taman sri sinar","de":"Taman sri sinar","es":"Taman sri sinar","en":"Taman sri sinar","fr":"Taman sri sinar"}},{"country":"MY","name":"Bandar kinrara","admin1Code":"MY.12","latitude":3.04926,"longitude":101.64153,"translations":{"pt":"Bandar kinrara","it":"Bandar kinrara","ru":"Bandar kinrara","uk":"Bandar kinrara","de":"Bandar kinrara","es":"Bandar kinrara","en":"Bandar kinrara","fr":"Bandar kinrara"}},{"country":"MY","name":"Bandar bukit raja","admin1Code":"MY.12","latitude":3.08737,"longitude":101.43339,"translations":{"pt":"Bandar bukit raja","it":"Bandar bukit raja","ru":"Bandar bukit raja","uk":"Bandar bukit raja","de":"Bandar bukit raja","es":"Bandar bukit raja","en":"Bandar bukit raja","fr":"Bandar bukit raja"}},{"country":"MY","name":"Pandamaran","admin1Code":"MY.12","latitude":3.01083,"longitude":101.42081,"translations":{"pt":"Pandamaran","it":"Pandamaran","ru":"Pandamaran","uk":"Pandamaran","de":"Pandamaran","es":"Pandamaran","en":"Pandamaran","fr":"Pandamaran"}},{"country":"MY","name":"Sri sendayan city","admin1Code":"MY.05","latitude":2.67375,"longitude":101.8721,"translations":{"pt":"Sri sendayan city","it":"Sri sendayan city","ru":"Sri sendayan city","uk":"Sri sendayan city","de":"Sri sendayan city","es":"Sri sendayan city","en":"Sri sendayan city","fr":"Sri sendayan city"}},{"country":"MY","name":"Country homes city","admin1Code":"MY.12","latitude":3.32752,"longitude":101.53106,"translations":{"pt":"Country homes city","it":"Country homes city","ru":"Country homes city","uk":"Country homes city","de":"Country homes city","es":"Country homes city","en":"Country homes city","fr":"Country homes city"}},{"country":"MY","name":"Alam damai","admin1Code":"MY.14","latitude":3.06028,"longitude":101.7408,"translations":{"pt":"Alam damai","it":"Alam damai","ru":"Alam damai","uk":"Alam damai","de":"Alam damai","es":"Alam damai","en":"Alam damai","fr":"Alam damai"}},{"country":"MY","name":"Ss2","admin1Code":"MY.14","latitude":3.12036,"longitude":101.62246,"translations":{"pt":"Ss2","it":"Ss2","ru":"Ss2","uk":"Ss2","de":"Ss2","es":"Ss2","en":"Ss2","fr":"Ss2"}},{"country":"MY","name":"Sungai jawi","admin1Code":"MY.09","latitude":5.19779,"longitude":100.49244,"translations":{"pt":"Sungai jawi","it":"Sungai jawi","ru":"Sungai jawi","uk":"Sungai jawi","de":"Sungai jawi","es":"Sungai jawi","en":"Sungai jawi","fr":"Sungai jawi"}},{"country":"MY","name":"Saujana utama city","admin1Code":"MY.12","latitude":3.20663,"longitude":101.47729,"translations":{"pt":"Saujana utama city","it":"Saujana utama city","ru":"Saujana utama city","uk":"Saujana utama city","de":"Saujana utama city","es":"Saujana utama city","en":"Saujana utama city","fr":"Saujana utama city"}},{"country":"MY","name":"Bukit rahman putra","admin1Code":"MY.12","latitude":3.21727,"longitude":101.5608,"translations":{"pt":"Bukit rahman putra","it":"Bukit rahman putra","ru":"Bukit rahman putra","uk":"Bukit rahman putra","de":"Bukit rahman putra","es":"Bukit rahman putra","en":"Bukit rahman putra","fr":"Bukit rahman putra"}},{"country":"MY","name":"Setia tropika","admin1Code":"MY.01","latitude":1.54631,"longitude":103.71829,"translations":{"pt":"Setia tropika","it":"Setia tropika","ru":"Setia tropika","uk":"Setia tropika","de":"Setia tropika","es":"Setia tropika","en":"Setia tropika","fr":"Setia tropika"}},{"country":"MY","name":"Puteri lake city","admin1Code":"MY.12","latitude":3.28531,"longitude":101.4741,"translations":{"pt":"Puteri lake city","it":"Puteri lake city","ru":"Puteri lake city","uk":"Puteri lake city","de":"Puteri lake city","es":"Puteri lake city","en":"Puteri lake city","fr":"Puteri lake city"}},{"country":"MY","name":"Desa petaling","admin1Code":"MY.14","latitude":3.08385,"longitude":101.70895,"translations":{"pt":"Desa petaling","it":"Desa petaling","ru":"Desa petaling","uk":"Desa petaling","de":"Desa petaling","es":"Desa petaling","en":"Desa petaling","fr":"Desa petaling"}},{"country":"MY","name":"Bangsar south","admin1Code":"MY.14","latitude":3.10628,"longitude":101.66761,"translations":{"pt":"Bangsar south","it":"Bangsar south","ru":"Bangsar south","uk":"Bangsar south","de":"Bangsar south","es":"Bangsar south","en":"Bangsar south","fr":"Bangsar south"}},{"country":"MY","name":"Titiwangsa","admin1Code":"MY.14","latitude":3.17822,"longitude":101.70312,"translations":{"pt":"Titiwangsa","it":"Titiwangsa","ru":"Titiwangsa","uk":"Titiwangsa","de":"Titiwangsa","es":"Titiwangsa","en":"Titiwangsa","fr":"Titiwangsa"}},{"country":"MY","name":"Horizon hills","admin1Code":"MY.01","latitude":1.45768,"longitude":103.64554,"translations":{"pt":"Horizon hills","it":"Horizon hills","ru":"Horizon hills","uk":"Horizon hills","de":"Horizon hills","es":"Horizon hills","en":"Horizon hills","fr":"Horizon hills"}},{"country":"MY","name":"Bandar putra kulai","admin1Code":"MY.01","latitude":1.64958,"longitude":103.62661,"translations":{"pt":"Bandar putra kulai","it":"Bandar putra kulai","ru":"Bandar putra kulai","uk":"Bandar putra kulai","de":"Bandar putra kulai","es":"Bandar putra kulai","en":"Bandar putra kulai","fr":"Bandar putra kulai"}},{"country":"MY","name":"Scientex park","admin1Code":"MY.01","latitude":1.51219,"longitude":103.9166,"translations":{"pt":"Scientex park","it":"Scientex park","ru":"Scientex park","uk":"Scientex park","de":"Scientex park","es":"Scientex park","en":"Scientex park","fr":"Scientex park"}},{"country":"MY","name":"Seri alam city","admin1Code":"MY.01","latitude":1.50434,"longitude":103.87525,"translations":{"pt":"Seri alam city","it":"Seri alam city","ru":"Seri alam city","uk":"Seri alam city","de":"Seri alam city","es":"Seri alam city","en":"Seri alam city","fr":"Seri alam city"}},{"country":"MY","name":"Felda chini","admin1Code":"MY.06","latitude":3.37457,"longitude":102.94343,"translations":{"pt":"Felda chini","it":"Felda chini","ru":"Felda chini","uk":"Felda chini","de":"Felda chini","es":"Felda chini","en":"Felda chini","fr":"Felda chini"}},{"country":"MY","name":"New salak tinggi city","admin1Code":"MY.12","latitude":2.81232,"longitude":101.73562,"translations":{"pt":"New salak tinggi city","it":"New salak tinggi city","ru":"New salak tinggi city","uk":"New salak tinggi city","de":"New salak tinggi city","es":"New salak tinggi city","en":"New salak tinggi city","fr":"New salak tinggi city"}},{"country":"MY","name":"Bandar utama","admin1Code":"MY.14","latitude":3.14818,"longitude":101.61407,"translations":{"pt":"Bandar utama","it":"Bandar utama","ru":"Bandar utama","uk":"Bandar utama","de":"Bandar utama","es":"Bandar utama","en":"Bandar utama","fr":"Bandar utama"}},{"country":"MY","name":"Bukit jalil","admin1Code":"MY.14","latitude":3.04913,"longitude":101.68036,"translations":{"pt":"Bukit jalil","it":"Bukit jalil","ru":"Bukit jalil","uk":"Bukit jalil","de":"Bukit jalil","es":"Bukit jalil","en":"Bukit jalil","fr":"Bukit jalil"}},{"country":"MY","name":"Taman desa","admin1Code":"MY.14","latitude":3.10591,"longitude":101.68683,"translations":{"pt":"Taman desa","it":"Taman desa","ru":"Taman desa","uk":"Taman desa","de":"Taman desa","es":"Taman desa","en":"Taman desa","fr":"Taman desa"}}]