[{"country":"MG","name":"Toamasina","admin1Code":"MG.31","latitude":-18.1492,"longitude":49.40234,"translations":{"pt":"Toamasina","it":"Toamasina","ru":"Туамасина","uk":"Туамасіна","de":"Toamasina","es":"Toamasina","en":"Toamasina","fr":"Toamasina"}},{"country":"MG","name":"Vondrozo","admin1Code":"MG.25","latitude":-22.81667,"longitude":47.28333,"translations":{"pt":"Vondrozo","it":"Vondrozo","ru":"Vondrozo","uk":"Vondrozo","de":"Vondrozo","es":"Vondrozo","en":"Vondrozo","fr":"Vondrozo"}},{"country":"MG","name":"Vohipeno","admin1Code":"MG.26","latitude":-22.35,"longitude":47.83333,"translations":{"pt":"Vohipeno","it":"Vohipeno","ru":"Vohipeno","uk":"Vohipeno","de":"Vohipeno","es":"Vohipeno","en":"Vohipeno","fr":"Vohipeno"}},{"country":"MG","name":"Vohipaho","admin1Code":"MG.25","latitude":-23.55,"longitude":47.5,"translations":{"pt":"Vohipaho","it":"Vohipaho","ru":"Vohipaho","uk":"Vohipaho","de":"Vohipaho","es":"Vohipaho","en":"Vohipaho","fr":"Vohipaho"}},{"country":"MG","name":"Vohibinany","admin1Code":"MG.31","latitude":-17.35,"longitude":49.03333,"translations":{"pt":"Vohibinany","it":"Vohibinany","ru":"Vohibinany","uk":"Vohibinany","de":"Vohibinany","es":"Vohibinany","en":"Vohibinany","fr":"Vohibinany"}},{"country":"MG","name":"Vavatenina","admin1Code":"MG.32","latitude":-17.46667,"longitude":49.2,"translations":{"pt":"Vavatenina","it":"Vavatenina","ru":"Ваватенина","uk":"Vavatenina","de":"Vavatenina","es":"Vavatenina","en":"Vavatenina","fr":"Vavatenina"}},{"country":"MG","name":"Vatomandry","admin1Code":"MG.31","latitude":-19.33018,"longitude":48.97791,"translations":{"pt":"Vatomandry","it":"Vatomandry","ru":"Vatomandry","uk":"Vatomandry","de":"Vatomandry","es":"Vatomandry","en":"Vatomandry","fr":"Vatomandry"}},{"country":"MG","name":"Vangaindrano","admin1Code":"MG.25","latitude":-23.35,"longitude":47.6,"translations":{"pt":"Vangaindrano","it":"Vangaindrano","ru":"Vangaindrano","uk":"Vangaindrano","de":"Vangaindrano","es":"Vangaindrano","en":"Vangaindrano","fr":"Vangaindrano"}},{"country":"MG","name":"Tsiroanomandidy","admin1Code":"MG.14","latitude":-18.76969,"longitude":46.04653,"translations":{"pt":"Tsiroanomandidy","it":"Tsiroanomandidy","ru":"Tsiroanomandidy","uk":"Tsiroanomandidy","de":"Tsiroanomandidy","es":"Tsiroanomandidy","en":"Tsiroanomandidy","fr":"Tsiroanomandidy"}},{"country":"MG","name":"Tsiombe","admin1Code":"MG.52","latitude":-25.3,"longitude":45.48333,"translations":{"pt":"Tsiombe","it":"Tsiombe","ru":"Tsiombe","uk":"Tsiombe","de":"Tsiombe","es":"Tsiombe","en":"Tsiombe","fr":"Tsiombe"}},{"country":"MG","name":"Tsaratanana","admin1Code":"MG.43","latitude":-16.79706,"longitude":47.65165,"translations":{"pt":"Tsaratanana","it":"Tsaratanana","ru":"Царатанана","uk":"Tsaratanana","de":"Tsaratanana","es":"Tsaratanana","en":"Tsaratanana","fr":"Tsaratanana"}},{"country":"MG","name":"Тулиара","admin1Code":"MG.51","latitude":-23.35,"longitude":43.66667,"translations":{"pt":"Tulyara","it":"Tulyara","ru":"Тулиара","uk":"Туліара","de":"Tulyara","es":"Tulyara","en":"Тулиара","fr":"Tuléar"}},{"country":"MG","name":"Tôlanaro","admin1Code":"MG.53","latitude":-25.03249,"longitude":46.98329,"translations":{"pt":"Tôlanaro","it":"Tôlanaro","ru":"Tôlanaro","uk":"Tôlanaro","de":"Tôlanaro","es":"Tôlanaro","en":"Tôlanaro","fr":"Tôlanaro"}},{"country":"MG","name":"Soavinandriana","admin1Code":"MG.13","latitude":-19.16667,"longitude":46.73333,"translations":{"pt":"Soavinandriana","it":"Soavinandriana","ru":"Soavinandriana","uk":"Soavinandriana","de":"Soavinandriana","es":"Soavinandriana","en":"Soavinandriana","fr":"Soavinandriana"}},{"country":"MG","name":"Soanindrariny","admin1Code":"MG.12","latitude":-19.9,"longitude":47.23333,"translations":{"pt":"Soanindrariny","it":"Soanindrariny","ru":"Soanindrariny","uk":"Soanindrariny","de":"Soanindrariny","es":"Soanindrariny","en":"Soanindrariny","fr":"Soanindrariny"}},{"country":"MG","name":"Soanierana ivongo","admin1Code":"MG.32","latitude":-16.91667,"longitude":49.58333,"translations":{"pt":"Soanierana ivongo","it":"Soanierana ivongo","ru":"Суаниерана-ивунгу","uk":"Soanierana ivongo","de":"Soanierana ivongo","es":"Soanierana ivongo","en":"Soanierana ivongo","fr":"Soanierana ivongo"}},{"country":"MG","name":"Soalala","admin1Code":"MG.41","latitude":-16.1,"longitude":45.31667,"translations":{"pt":"Soalala","it":"Soalala","ru":"Soalala","uk":"Soalala","de":"Soalala","es":"Soalala","en":"Soalala","fr":"Soalala"}},{"country":"MG","name":"Sitampiky","admin1Code":"MG.41","latitude":-16.66667,"longitude":46.1,"translations":{"pt":"Sitampiky","it":"Sitampiky","ru":"Sitampiky","uk":"Sitampiky","de":"Sitampiky","es":"Sitampiky","en":"Sitampiky","fr":"Sitampiky"}},{"country":"MG","name":"Самбава","admin1Code":"MG.72","latitude":-14.26667,"longitude":50.16667,"translations":{"pt":"Sambava","it":"Sambava","ru":"Самбава","uk":"Самбава","de":"Sambava","es":"Sambava","en":"Самбава","fr":"Sambava"}},{"country":"MG","name":"Sakaraha","admin1Code":"MG.51","latitude":-22.9,"longitude":44.53333,"translations":{"pt":"Sakaraha","it":"Sakaraha","ru":"Sakaraha","uk":"Sakaraha","de":"Sakaraha","es":"Sakaraha","en":"Sakaraha","fr":"Sakaraha"}},{"country":"MG","name":"Sahavato","admin1Code":"MG.27","latitude":-20.6,"longitude":48.33333,"translations":{"pt":"Sahavato","it":"Sahavato","ru":"Sahavato","uk":"Sahavato","de":"Sahavato","es":"Sahavato","en":"Sahavato","fr":"Sahavato"}},{"country":"MG","name":"Sadabe","admin1Code":"MG.11","latitude":-18.63333,"longitude":47.7,"translations":{"pt":"Sadabe","it":"Sadabe","ru":"Sadabe","uk":"Sadabe","de":"Sadabe","es":"Sadabe","en":"Sadabe","fr":"Sadabe"}},{"country":"MG","name":"Boriziny","admin1Code":"MG.42","latitude":-15.55,"longitude":47.66667,"translations":{"pt":"Boriziny","it":"Boriziny","ru":"Буризини","uk":"Boriziny","de":"Boriziny","es":"Boriziny","en":"Boriziny","fr":"Boriziny"}},{"country":"MG","name":"Nosy varika","admin1Code":"MG.27","latitude":-20.58333,"longitude":48.53333,"translations":{"pt":"Nosy varika","it":"Nosy-varika","ru":"Nosy varika","uk":"Nosy varika","de":"Nosy varika","es":"Nosy varika","en":"Nosy varika","fr":"Nosy varika"}},{"country":"MG","name":"Morondava","admin1Code":"MG.54","latitude":-20.28869,"longitude":44.31782,"translations":{"pt":"Morondava","it":"Morondava","ru":"Мурундава","uk":"Morondava","de":"Morondava","es":"Morondava","en":"Morondava","fr":"Morondava"}},{"country":"MG","name":"Morombe","admin1Code":"MG.51","latitude":-21.74499,"longitude":43.36055,"translations":{"pt":"Morombe","it":"Morombe","ru":"Morombe","uk":"Morombe","de":"Morombe","es":"Morombe","en":"Morombe","fr":"Morombe"}},{"country":"MG","name":"Moramanga","admin1Code":"MG.33","latitude":-18.94948,"longitude":48.23007,"translations":{"pt":"Moramanga","it":"Moramanga","ru":"Moramanga","uk":"Moramanga","de":"Moramanga","es":"Moramanga","en":"Moramanga","fr":"Moramanga"}},{"country":"MG","name":"Miandrivazo","admin1Code":"MG.54","latitude":-19.52905,"longitude":45.45559,"translations":{"pt":"Miandrivazo","it":"Miandrivazo","ru":"Miandrivazo","uk":"Miandrivazo","de":"Miandrivazo","es":"Miandrivazo","en":"Miandrivazo","fr":"Miandrivazo"}},{"country":"MG","name":"Miandrarivo","admin1Code":"MG.12","latitude":-19.43333,"longitude":46.75,"translations":{"pt":"Miandrarivo","it":"Miandrarivo","ru":"Miandrarivo","uk":"Miandrarivo","de":"Miandrarivo","es":"Miandrarivo","en":"Miandrarivo","fr":"Miandrarivo"}},{"country":"MG","name":"Marovoay","admin1Code":"MG.41","latitude":-16.11064,"longitude":46.64383,"translations":{"pt":"Marovoay","it":"Marovoay","ru":"Марувуай","uk":"Marovoay","de":"Marovoay","es":"Marovoay","en":"Marovoay","fr":"Marovoay"}},{"country":"MG","name":"Marolambo","admin1Code":"MG.31","latitude":-20.05,"longitude":48.11667,"translations":{"pt":"Marolambo","it":"Marolambo","ru":"Marolambo","uk":"Marolambo","de":"Marolambo","es":"Marolambo","en":"Marolambo","fr":"Marolambo"}},{"country":"MG","name":"Маруанцентре","admin1Code":"MG.32","latitude":-15.43527,"longitude":49.73794,"translations":{"pt":"Maruantsentre","it":"Maruantsentre","ru":"Маруанцентре","uk":"Маруанцентре","de":"Maruantsentre","es":"Maruantsentre","en":"Маруанцентре","fr":"Maruantsentre"}},{"country":"MG","name":"Manjakandriana","admin1Code":"MG.11","latitude":-18.91667,"longitude":47.8,"translations":{"pt":"Manjakandriana","it":"Manjakandriana","ru":"Manjakandriana","uk":"Manjakandriana","de":"Manjakandriana","es":"Manjakandriana","en":"Manjakandriana","fr":"Manjakandriana"}},{"country":"MG","name":"Mananjary","admin1Code":"MG.27","latitude":-21.23034,"longitude":48.34173,"translations":{"pt":"Mananjary","it":"Mananjary","ru":"Mananjary","uk":"Mananjary","de":"Mananjary","es":"Mananjary","en":"Mananjary","fr":"Mananjary"}},{"country":"MG","name":"Mananara","admin1Code":"MG.32","latitude":-16.16864,"longitude":49.76622,"translations":{"pt":"Mananara","it":"Mananara","ru":"Mananara","uk":"Mananara","de":"Mananara","es":"Mananara","en":"Mananara","fr":"Mananara"}},{"country":"MG","name":"Манакара","admin1Code":"MG.26","latitude":-22.14862,"longitude":48.01055,"translations":{"pt":"Manakara","it":"Manakara","ru":"Манакара","uk":"Манакара","de":"Manakara","es":"Manakara","en":"Манакара","fr":"Manakara"}},{"country":"MG","name":"Mampikony","admin1Code":"MG.42","latitude":-16.092,"longitude":47.647,"translations":{"pt":"Mampikony","it":"Mampikony","ru":"Mampikony","uk":"Mampikony","de":"Mampikony","es":"Mampikony","en":"Mampikony","fr":"Mampikony"}},{"country":"MG","name":"Maintirano","admin1Code":"MG.44","latitude":-18.06354,"longitude":44.02951,"translations":{"pt":"Maintirano","it":"Maintirano","ru":"Maintirano","uk":"Maintirano","de":"Maintirano","es":"Maintirano","en":"Maintirano","fr":"Maintirano"}},{"country":"MG","name":"Mahanoro","admin1Code":"MG.31","latitude":-19.9,"longitude":48.8,"translations":{"pt":"Mahanoro","it":"Mahanoro","ru":"Mahanoro","uk":"Mahanoro","de":"Mahanoro","es":"Mahanoro","en":"Mahanoro","fr":"Mahanoro"}},{"country":"MG","name":"Mahajanga","admin1Code":"MG.41","latitude":-15.71667,"longitude":46.31667,"translations":{"pt":"Mahajanga","it":"Mahajanga","ru":"Махадзанга","uk":"Махадзанга","de":"Mahajanga","es":"Mahajanga","en":"Mahajanga","fr":"Mahajanga"}},{"country":"MG","name":"Maevatanana","admin1Code":"MG.43","latitude":-16.95,"longitude":46.83333,"translations":{"pt":"Maevatanana","it":"Maevatanana","ru":"Maevatanana","uk":"Maevatanana","de":"Maevatanana","es":"Maevatanana","en":"Maevatanana","fr":"Maevatanana"}},{"country":"MG","name":"Ivato","admin1Code":"MG.11","latitude":-18.8,"longitude":47.48333,"translations":{"pt":"Ivato","it":"Ivato","ru":"Ivato","uk":"Ivato","de":"Ivato","es":"Ivato","en":"Ivato","fr":"Ivato"}},{"country":"MG","name":"Imerintsiatosika","admin1Code":"MG.13","latitude":-18.98333,"longitude":47.31667,"translations":{"pt":"Imerintsiatosika","it":"Imerintsiatosika","ru":"Imerintsiatosika","uk":"Imerintsiatosika","de":"Imerintsiatosika","es":"Imerintsiatosika","en":"Imerintsiatosika","fr":"Imerintsiatosika"}},{"country":"MG","name":"Ikongo","admin1Code":"MG.26","latitude":-21.88333,"longitude":47.43333,"translations":{"pt":"Ikongo","it":"Ikongo","ru":"Ikongo","uk":"Ikongo","de":"Ikongo","es":"Ikongo","en":"Ikongo","fr":"Ikongo"}},{"country":"MG","name":"Ikalamavony","admin1Code":"MG.21","latitude":-21.15,"longitude":46.58333,"translations":{"pt":"Ikalamavony","it":"Ikalamavony","ru":"Ikalamavony","uk":"Ikalamavony","de":"Ikalamavony","es":"Ikalamavony","en":"Ikalamavony","fr":"Ikalamavony"}},{"country":"MG","name":"Ihosy","admin1Code":"MG.24","latitude":-22.40293,"longitude":46.12576,"translations":{"pt":"Ihosy","it":"Ihosy","ru":"Ihosy","uk":"Ihosy","de":"Ihosy","es":"Ihosy","en":"Ihosy","fr":"Ihosy"}},{"country":"MG","name":"Iharan̈a","admin1Code":"MG.72","latitude":-13.35,"longitude":50.0,"translations":{"pt":"Iharan̈a","it":"Iharan̈a","ru":"Iharan̈a","uk":"Iharan̈a","de":"Iharan̈a","es":"Iharan̈a","en":"Iharan̈a","fr":"Iharan̈a"}},{"country":"MG","name":"Ifanadiana","admin1Code":"MG.27","latitude":-21.3,"longitude":47.63333,"translations":{"pt":"Ifanadiana","it":"Ifanadiana","ru":"Ifanadiana","uk":"Ifanadiana","de":"Ifanadiana","es":"Ifanadiana","en":"Ifanadiana","fr":"Ifanadiana"}},{"country":"MG","name":"Fianarantsoa","admin1Code":"MG.21","latitude":-21.45267,"longitude":47.08569,"translations":{"pt":"Fianarantsoa","it":"Fianarantsoa","ru":"Фианаранцуа","uk":"Фіанаранцуа","de":"Fianarantsoa","es":"Fianarantsoa","en":"Fianarantsoa","fr":"Fianarantsoa"}},{"country":"MG","name":"Fenoarivo be","admin1Code":"MG.14","latitude":-18.43333,"longitude":46.56667,"translations":{"pt":"Fenoarivo be","it":"Fenoarivo be","ru":"Fenoarivo be","uk":"Fenoarivo be","de":"Fenoarivo be","es":"Fenoarivo be","en":"Fenoarivo be","fr":"Fenoarivo be"}},{"country":"MG","name":"Fenoarivo atsinanana","admin1Code":"MG.32","latitude":-17.38095,"longitude":49.40826,"translations":{"pt":"Fenoarivo atsinanana","it":"Fenoarivo atsinanana","ru":"Fenoarivo atsinanana","uk":"Fenoarivo atsinanana","de":"Fenoarivo atsinanana","es":"Fenoarivo atsinanana","en":"Fenoarivo atsinanana","fr":"Fenoarivo atsinanana"}},{"country":"MG","name":"Faratsiho","admin1Code":"MG.12","latitude":-19.4,"longitude":46.95,"translations":{"pt":"Faratsiho","it":"Faratsiho","ru":"Faratsiho","uk":"Faratsiho","de":"Faratsiho","es":"Faratsiho","en":"Faratsiho","fr":"Faratsiho"}},{"country":"MG","name":"Farafangana","admin1Code":"MG.25","latitude":-22.82223,"longitude":47.82615,"translations":{"pt":"Farafangana","it":"Farafangana","ru":"Farafangana","uk":"Farafangana","de":"Farafangana","es":"Farafangana","en":"Farafangana","fr":"Farafangana"}},{"country":"MG","name":"Fandriana","admin1Code":"MG.22","latitude":-20.23333,"longitude":47.38333,"translations":{"pt":"Fandriana","it":"Fandriana","ru":"Fandriana","uk":"Fandriana","de":"Fandriana","es":"Fandriana","en":"Fandriana","fr":"Fandriana"}},{"country":"MG","name":"Betroka","admin1Code":"MG.53","latitude":-23.26667,"longitude":46.08333,"translations":{"pt":"Betroka","it":"Betroka","ru":"Betroka","uk":"Betroka","de":"Betroka","es":"Betroka","en":"Betroka","fr":"Betroka"}},{"country":"MG","name":"Betioky","admin1Code":"MG.51","latitude":-23.72065,"longitude":44.38069,"translations":{"pt":"Betioky","it":"Betioky","ru":"Betioky","uk":"Betioky","de":"Betioky","es":"Betioky","en":"Betioky","fr":"Betioky"}},{"country":"MG","name":"Betafo","admin1Code":"MG.12","latitude":-19.83333,"longitude":46.85,"translations":{"pt":"Betafo","it":"Betafo","ru":"Betafo","uk":"Betafo","de":"Betafo","es":"Betafo","en":"Betafo","fr":"Betafo"}},{"country":"MG","name":"Beroroha","admin1Code":"MG.51","latitude":-21.66667,"longitude":45.16667,"translations":{"pt":"Beroroha","it":"Beroroha","ru":"Beroroha","uk":"Beroroha","de":"Beroroha","es":"Beroroha","en":"Beroroha","fr":"Beroroha"}},{"country":"MG","name":"Belon'i tsiribihina","admin1Code":"MG.54","latitude":-19.69787,"longitude":44.54587,"translations":{"pt":"Belon'i tsiribihina","it":"Belon'i tsiribihina","ru":"Belon'i tsiribihina","uk":"Belon'i tsiribihina","de":"Belon'i tsiribihina","es":"Belon'i tsiribihina","en":"Belon'i tsiribihina","fr":"Belo sur tsiribihina"}},{"country":"MG","name":"Beloha","admin1Code":"MG.52","latitude":-25.16667,"longitude":45.05,"translations":{"pt":"Beloha","it":"Beloha","ru":"Beloha","uk":"Beloha","de":"Beloha","es":"Beloha","en":"Beloha","fr":"Beloha"}},{"country":"MG","name":"Bekily","admin1Code":"MG.52","latitude":-24.21667,"longitude":45.31667,"translations":{"pt":"Bekily","it":"Bekily","ru":"Bekily","uk":"Bekily","de":"Bekily","es":"Bekily","en":"Bekily","fr":"Bekily"}},{"country":"MG","name":"Befandriana","admin1Code":"MG.42","latitude":-15.2567,"longitude":48.54249,"translations":{"pt":"Befandriana","it":"Befandriana","ru":"Befandriana","uk":"Befandriana","de":"Befandriana","es":"Befandriana","en":"Befandriana","fr":"Befandriana"}},{"country":"MG","name":"Bealanana","admin1Code":"MG.42","latitude":-14.54329,"longitude":48.74981,"translations":{"pt":"Bealanana","it":"Bealanana","ru":"Bealanana","uk":"Bealanana","de":"Bealanana","es":"Bealanana","en":"Bealanana","fr":"Bealanana"}},{"country":"MG","name":"Arivonimamo","admin1Code":"MG.13","latitude":-19.01667,"longitude":47.18333,"translations":{"pt":"Arivonimamo","it":"Arivonimamo","ru":"Аривунимаму","uk":"Arivonimamo","de":"Arivonimamo","es":"Arivonimamo","en":"Arivonimamo","fr":"Arivonimamo"}},{"country":"MG","name":"Antsohimbondrona","admin1Code":"MG.71","latitude":-13.08333,"longitude":48.85,"translations":{"pt":"Antsohimbondrona","it":"Antsohimbondrona","ru":"Antsohimbondrona","uk":"Antsohimbondrona","de":"Antsohimbondrona","es":"Antsohimbondrona","en":"Antsohimbondrona","fr":"Antsohimbondrona"}},{"country":"MG","name":"Antsohihy","admin1Code":"MG.42","latitude":-14.87959,"longitude":47.98751,"translations":{"pt":"Antsohihy","it":"Antsohihy","ru":"Antsohihy","uk":"Antsohihy","de":"Antsohihy","es":"Antsohihy","en":"Antsohihy","fr":"Antsohihy"}},{"country":"MG","name":"Antsiranana","admin1Code":"MG.71","latitude":-12.31732,"longitude":49.29188,"translations":{"pt":"Antsiranana","it":"Antsiranana","ru":"Анцеранана","uk":"Antsiranana","de":"Antsiranana","es":"Antsiranana","en":"Antsiranana","fr":"Antsiranana"}},{"country":"MG","name":"Анцирабе","admin1Code":"MG.12","latitude":-19.86586,"longitude":47.03333,"translations":{"pt":"Antsyrabe","it":"Antsyrabe","ru":"Анцирабе","uk":"Анцирабе","de":"Antsyrabe","es":"Antsyrabe","en":"Анцирабе","fr":"Antsyrabe"}},{"country":"MG","name":"Antsalova","admin1Code":"MG.44","latitude":-18.66667,"longitude":44.61667,"translations":{"pt":"Antsalova","it":"Antsalova","ru":"Antsalova","uk":"Antsalova","de":"Antsalova","es":"Antsalova","en":"Antsalova","fr":"Antsalova"}},{"country":"MG","name":"Antanifotsy","admin1Code":"MG.12","latitude":-19.65,"longitude":47.31667,"translations":{"pt":"Antanifotsy","it":"Antanifotsy","ru":"Antanifotsy","uk":"Antanifotsy","de":"Antanifotsy","es":"Antanifotsy","en":"Antanifotsy","fr":"Antanifotsy"}},{"country":"MG","name":"Antananarivo","admin1Code":"MG.11","latitude":-18.91368,"longitude":47.53613,"translations":{"pt":"Antananarivo","it":"Antananarivo","ru":"Антананариву","uk":"Антананаріву","de":"Antananarivo","es":"Antananarivo","en":"Antananarivo","fr":"Antananarivo"}},{"country":"MG","name":"Antalaha","admin1Code":"MG.72","latitude":-14.90033,"longitude":50.27876,"translations":{"pt":"Antalaha","it":"Antalaha","ru":"Анталахи","uk":"Antalaha","de":"Antalaha","es":"Antalaha","en":"Antalaha","fr":"Antalaha"}},{"country":"MG","name":"Ankazondandy","admin1Code":"MG.11","latitude":-18.7,"longitude":47.78333,"translations":{"pt":"Ankazondandy","it":"Ankazondandy","ru":"Ankazondandy","uk":"Ankazondandy","de":"Ankazondandy","es":"Ankazondandy","en":"Ankazondandy","fr":"Ankazondandy"}},{"country":"MG","name":"Ankazobe","admin1Code":"MG.11","latitude":-18.31667,"longitude":47.11667,"translations":{"pt":"Ankazobe","it":"Ankazobe","ru":"Ankazobe","uk":"Ankazobe","de":"Ankazobe","es":"Ankazobe","en":"Ankazobe","fr":"Ankazobe"}},{"country":"MG","name":"Ankazoabo","admin1Code":"MG.51","latitude":-22.28333,"longitude":44.51667,"translations":{"pt":"Ankazoabo","it":"Ankazoabo","ru":"Ankazoabo","uk":"Ankazoabo","de":"Ankazoabo","es":"Ankazoabo","en":"Ankazoabo","fr":"Ankazoabo"}},{"country":"MG","name":"Anjozorobe","admin1Code":"MG.11","latitude":-18.4,"longitude":47.86667,"translations":{"pt":"Anjozorobe","it":"Anjozorobe","ru":"Anjozorobe","uk":"Anjozorobe","de":"Anjozorobe","es":"Anjozorobe","en":"Anjozorobe","fr":"Anjozorobe"}},{"country":"MG","name":"Andoany","admin1Code":"MG.71","latitude":-13.39718,"longitude":48.26663,"translations":{"pt":"Andoany","it":"Andoany","ru":"Андуани","uk":"Andoany","de":"Andoany","es":"Andoany","en":"Andoany","fr":"Hell-ville"}},{"country":"MG","name":"Andilamena","admin1Code":"MG.33","latitude":-17.01009,"longitude":48.57313,"translations":{"pt":"Andilamena","it":"Andilamena","ru":"Andilamena","uk":"Andilamena","de":"Andilamena","es":"Andilamena","en":"Andilamena","fr":"Andilamena"}},{"country":"MG","name":"Andapa","admin1Code":"MG.72","latitude":-14.65,"longitude":49.65,"translations":{"pt":"Andapa","it":"Andapa","ru":"Андапа","uk":"Andapa","de":"Andapa","es":"Distrito de andapa","en":"Andapa","fr":"Andapa"}},{"country":"MG","name":"Brickaville","admin1Code":"MG.31","latitude":-18.81667,"longitude":49.06667,"translations":{"pt":"Brickaville","it":"Brickaville","ru":"Брикавиль","uk":"Brickaville","de":"Ampasimanolotra","es":"Brickaville","en":"Brickaville","fr":"Vohibinany"}},{"country":"MG","name":"Amparafaravola","admin1Code":"MG.33","latitude":-17.5876,"longitude":48.22391,"translations":{"pt":"Amparafaravola","it":"Amparafaravola","ru":"Amparafaravola","uk":"Amparafaravola","de":"Amparafaravola","es":"Amparafaravola","en":"Amparafaravola","fr":"Amparafaravola"}},{"country":"MG","name":"Ampanihy","admin1Code":"MG.51","latitude":-24.6937,"longitude":44.74581,"translations":{"pt":"Ampanihy","it":"Ampanihy","ru":"Ampanihy","uk":"Ampanihy","de":"Ampanihy","es":"Ampanihy","en":"Ampanihy","fr":"Ampanihy"}},{"country":"MG","name":"Ampahana","admin1Code":"MG.72","latitude":-14.75,"longitude":50.21667,"translations":{"pt":"Ampahana","it":"Ampahana","ru":"Ampahana","uk":"Ampahana","de":"Ampahana","es":"Ampahana","en":"Ampahana","fr":"Ampahana"}},{"country":"MG","name":"Ambovombe","admin1Code":"MG.52","latitude":-25.17838,"longitude":46.08722,"translations":{"pt":"Ambovombe","it":"Ambovombe","ru":"Ambovombe","uk":"Ambovombe","de":"Ambovombe","es":"Ambovombe","en":"Ambovombe","fr":"Ambovombe"}},{"country":"MG","name":"Ambositra","admin1Code":"MG.22","latitude":-20.53034,"longitude":47.24344,"translations":{"pt":"Ambositra","it":"Ambositra","ru":"Ambositra","uk":"Ambositra","de":"Ambositra","es":"Ambositra","en":"Ambositra","fr":"Ambositra"}},{"country":"MG","name":"Ambohitrolomahitsy","admin1Code":"MG.11","latitude":-18.7,"longitude":47.68333,"translations":{"pt":"Ambohitrolomahitsy","it":"Ambohitrolomahitsy","ru":"Ambohitrolomahitsy","uk":"Ambohitrolomahitsy","de":"Ambohitrolomahitsy","es":"Ambohitrolomahitsy","en":"Ambohitrolomahitsy","fr":"Ambohitrolomahitsy"}},{"country":"MG","name":"Ambohidratrimo","admin1Code":"MG.11","latitude":-18.818,"longitude":47.43382,"translations":{"pt":"Ambohidratrimo","it":"Ambohidratrimo","ru":"Ambohidratrimo","uk":"Ambohidratrimo","de":"Ambohidratrimo","es":"Ambohidratrimo","en":"Ambohidratrimo","fr":"Ambohidratrimo"}},{"country":"MG","name":"Ambodifotatra","admin1Code":"MG.32","latitude":-16.98333,"longitude":49.85,"translations":{"pt":"Ambodifotatra","it":"Ambodifotatra","ru":"Ambodifotatra","uk":"Ambodifotatra","de":"Ambodifotatra","es":"Ambodifotatra","en":"Ambodifotatra","fr":"Ambodifotatra"}},{"country":"MG","name":"Amboasary","admin1Code":"MG.53","latitude":-25.03333,"longitude":46.38333,"translations":{"pt":"Amboasary","it":"Amboasary","ru":"Amboasary","uk":"Amboasary","de":"Amboasary","es":"Amboasary","en":"Amboasary","fr":"Amboasary"}},{"country":"MG","name":"Amboanjo","admin1Code":"MG.26","latitude":-22.0,"longitude":47.85,"translations":{"pt":"Amboanjo","it":"Amboanjo","ru":"Amboanjo","uk":"Amboanjo","de":"Amboanjo","es":"Amboanjo","en":"Amboanjo","fr":"Amboanjo"}},{"country":"MG","name":"Ambilobe","admin1Code":"MG.71","latitude":-13.2,"longitude":49.05,"translations":{"pt":"Ambilobe","it":"Ambilobe","ru":"Ambilobe","uk":"Ambilobe","de":"Ambilobe","es":"Ambilobe","en":"Ambilobe","fr":"Ambilobe"}},{"country":"MG","name":"Амбатундразака","admin1Code":"MG.33","latitude":-17.83333,"longitude":48.41667,"translations":{"pt":"Ambatundrazaka","it":"Ambatundrazaka","ru":"Амбатундразака","uk":"Амбатундразака","de":"Ambatundrazaka","es":"Ambatundrazaka","en":"Амбатундразака","fr":"Ambatundrazaka"}},{"country":"MG","name":"Ambatolampy","admin1Code":"MG.12","latitude":-19.38333,"longitude":47.41667,"translations":{"pt":"Ambatolampy","it":"Ambatolampy","ru":"Амбатулампи","uk":"Ambatolampy","de":"Ambatolampy","es":"Ambatolampy","en":"Ambatolampy","fr":"Ambatolampy"}},{"country":"MG","name":"Ambatofinandrahana","admin1Code":"MG.22","latitude":-20.55284,"longitude":46.80365,"translations":{"pt":"Ambatofinandrahana","it":"Ambatofinandrahana","ru":"Ambatofinandrahana","uk":"Ambatofinandrahana","de":"Ambatofinandrahana","es":"Ambatofinandrahana","en":"Ambatofinandrahana","fr":"Ambatofinandrahana"}},{"country":"MG","name":"Ambato boeny","admin1Code":"MG.41","latitude":-16.46667,"longitude":46.71667,"translations":{"pt":"Ambato boeny","it":"Ambato boeny","ru":"Ambato boeny","uk":"Ambato boeny","de":"Ambato boeny","es":"Ambato boeny","en":"Ambato boeny","fr":"Ambato boeny"}},{"country":"MG","name":"Ambarakaraka","admin1Code":"MG.71","latitude":-13.5,"longitude":48.86667,"translations":{"pt":"Ambarakaraka","it":"Ambarakaraka","ru":"Ambarakaraka","uk":"Ambarakaraka","de":"Ambarakaraka","es":"Ambarakaraka","en":"Ambarakaraka","fr":"Ambarakaraka"}},{"country":"MG","name":"Ambanja","admin1Code":"MG.71","latitude":-13.669,"longitude":48.453,"translations":{"pt":"Ambanja","it":"Ambanja","ru":"Ambanja","uk":"Ambanja","de":"Ambanja","es":"Ambanja","en":"Ambanja","fr":"Ambanja"}},{"country":"MG","name":"Ambalavao","admin1Code":"MG.21","latitude":-21.83333,"longitude":46.93333,"translations":{"pt":"Ambalavao","it":"Ambalavao","ru":"Ambalavao","uk":"Ambalavao","de":"Ambalavao","es":"Ambalavao","en":"Ambalavao","fr":"Ambalavao"}},{"country":"MG","name":"Alarobia","admin1Code":"MG.11","latitude":-18.96667,"longitude":47.73333,"translations":{"pt":"Alarobia","it":"Alarobia","ru":"Alarobia","uk":"Alarobia","de":"Alarobia","es":"Alarobia","en":"Alarobia","fr":"Alarobia"}}]