[{"country":"GU","name":"Tamuning-tumon-harmon village","admin1Code":"GU.TM","latitude":13.48773,"longitude":144.78138,"translations":{"pt":"Tamuning-tumon-harmon village","it":"Tamuning-tumon-harmon village","ru":"Tamuning-tumon-harmon village","uk":"Tamuning-tumon-harmon village","de":"Tamuning-tumon-harmon village","es":"Tamuning-tumon-harmon village","en":"Tamuning-tumon-harmon village","fr":"Tamuning-tumon-harmon village"}},{"country":"GU","name":"Yigo village","admin1Code":"GU.YG","latitude":13.53605,"longitude":144.88855,"translations":{"pt":"Yigo village","it":"Yigo village","ru":"Yigo village","uk":"Yigo village","de":"Yigo village","es":"Yigo village","en":"Yigo village","fr":"Yigo village"}},{"country":"GU","name":"Dededo village","admin1Code":"GU.DD","latitude":13.51777,"longitude":144.8391,"translations":{"pt":"Dededo village","it":"Dededo village","ru":"Dededo village","uk":"Dededo village","de":"Dededo village","es":"Dededo village","en":"Dededo village","fr":"Dededo village"}},{"country":"GU","name":"Hagåtña","admin1Code":"GU.AN","latitude":13.47567,"longitude":144.74886,"translations":{"pt":"Hagåtña","it":"Hagåtña","ru":"Хагатна","uk":"Хагатна","de":"Hagåtña","es":"Agaña","en":"Hagåtña","fr":"Hagåtña"}},{"country":"GU","name":"Mangilao village","admin1Code":"GU.MA","latitude":13.44761,"longitude":144.80109,"translations":{"pt":"Mangilao village","it":"Mangilao village","ru":"Mangilao village","uk":"Mangilao village","de":"Mangilao village","es":"Mangilao village","en":"Mangilao village","fr":"Mangilao village"}},{"country":"GU","name":"Тамунинг","admin1Code":"GU.TM","latitude":13.48754,"longitude":144.78143,"translations":{"pt":"Tamunynh","it":"Tamunynh","ru":"Тамунинг","uk":"Тамунинг","de":"Tamunynh","es":"Maria christina","en":"Тамунинг","fr":"Tamunynh"}}]