[{"country":"UY","name":"Young","admin1Code":"UY.12","latitude":-32.69844,"longitude":-57.62693,"translations":{"pt":"Young","it":"Young","ru":"Янг","uk":"Янг","de":"Young","es":"Young","en":"Young","fr":"Young"}},{"country":"UY","name":"Тринідад","admin1Code":"UY.06","latitude":-33.5165,"longitude":-56.89957,"translations":{"pt":"Trynidad","it":"Trynidad","ru":"Тринидад","uk":"Тринідад","de":"Trynidad","es":"Trynidad","en":"Тринідад","fr":"Trynidad"}},{"country":"UY","name":"Трейнта-і-трес","admin1Code":"UY.19","latitude":-33.23333,"longitude":-54.38333,"translations":{"pt":"Trejnta-i-tres","it":"Trejnta-i-tres","ru":"Трейнта-и-трес","uk":"Трейнта-і-трес","de":"Trejnta-i-tres","es":"Trejnta-i-tres","en":"Трейнта-і-трес","fr":"Trejnta-i-tres"}},{"country":"UY","name":"Tacuarembó","admin1Code":"UY.18","latitude":-31.71694,"longitude":-55.98111,"translations":{"pt":"Tacuarembó","it":"Tacuarembó","ru":"Такуарембо","uk":"Tacuarembó","de":"Tacuarembó","es":"Tacuarembó","en":"Tacuarembó","fr":"Tacuarembó"}},{"country":"UY","name":"Santa lucía","admin1Code":"UY.02","latitude":-34.45333,"longitude":-56.39056,"translations":{"pt":"Santa lucia","it":"Santa lucía","ru":"Санта-лусия","uk":"Санта-лусія","de":"Santa lucía","es":"Santa lucía","en":"Santa lucía","fr":"Santa lucía"}},{"country":"UY","name":"Сан-хосе-де-майо","admin1Code":"UY.16","latitude":-34.3375,"longitude":-56.71361,"translations":{"pt":"San-khose-de-majo","it":"San-khose-de-majo","ru":"Сан-хосе-де-майо","uk":"Сан хосе де майо","de":"San-khose-de-majo","es":"San-khose-de-majo","en":"Сан-хосе-де-майо","fr":"San-khose-de-majo"}},{"country":"UY","name":"San carlos","admin1Code":"UY.09","latitude":-34.79123,"longitude":-54.91824,"translations":{"pt":"San carlos","it":"San carlos","ru":"Сан-карлос","uk":"Сан-карлос","de":"San carlos","es":"San carlos","en":"San carlos","fr":"San carlos"}},{"country":"UY","name":"Salto","admin1Code":"UY.15","latitude":-31.38333,"longitude":-57.96667,"translations":{"pt":"Salto","it":"Salto","ru":"Сальто","uk":"Сальто","de":"Salto","es":"Salto","en":"Salto","fr":"Salto"}},{"country":"UY","name":"Роча","admin1Code":"UY.14","latitude":-34.48333,"longitude":-54.33333,"translations":{"pt":"Rocha","it":"Rocha","ru":"Роча","uk":"Роча","de":"Rocha","es":"Rocha","en":"Роча","fr":"Rocha"}},{"country":"UY","name":"Rivera","admin1Code":"UY.13","latitude":-30.90534,"longitude":-55.55076,"translations":{"pt":"Rivera","it":"Rivera","ru":"Ривера","uk":"Рівера","de":"Rivera","es":"Rivera","en":"Rivera","fr":"Rivera"}},{"country":"UY","name":"Progreso","admin1Code":"UY.02","latitude":-34.66737,"longitude":-56.21758,"translations":{"pt":"Progreso","it":"Progreso","ru":"Прогресо","uk":"Прогресо","de":"Progreso","es":"Progreso","en":"Progreso","fr":"Progreso"}},{"country":"UY","name":"Paysandú","admin1Code":"UY.11","latitude":-32.3171,"longitude":-58.08072,"translations":{"pt":"Paysandú","it":"Paysandú","ru":"Пайсанду","uk":"Пайсанду","de":"Paysandú","es":"Paysandú","en":"Paysandú","fr":"Paysandú"}},{"country":"UY","name":"Paso de carrasco","admin1Code":"UY.02","latitude":-34.86028,"longitude":-56.05222,"translations":{"pt":"Paso de carrasco","it":"Paso de carrasco","ru":"Paso de carrasco","uk":"Paso de carrasco","de":"Paso de carrasco","es":"Paso de carrasco","en":"Paso de carrasco","fr":"Paso de carrasco"}},{"country":"UY","name":"Pando","admin1Code":"UY.02","latitude":-34.71716,"longitude":-55.9584,"translations":{"pt":"Pando","it":"Pando","ru":"Пандо","uk":"Пандо","de":"Pando","es":"Pando","en":"Pando","fr":"Pando"}},{"country":"UY","name":"Montevideo","admin1Code":"UY.10","latitude":-34.90328,"longitude":-56.18816,"translations":{"pt":"Montevidéu","it":"Montevideo","ru":"Монтевидео","uk":"Монтевідео","de":"Montevideo","es":"Montevideo","en":"Montevideo","fr":"Montevideo"}},{"country":"UY","name":"Минас","admin1Code":"UY.08","latitude":-34.37589,"longitude":-55.23771,"translations":{"pt":"Mynas","it":"Mynas","ru":"Минас","uk":"Мінас","de":"Mynas","es":"Mynas","en":"Минас","fr":"Mynas"}},{"country":"UY","name":"Mercedes","admin1Code":"UY.17","latitude":-33.2524,"longitude":-58.03047,"translations":{"pt":"Mercedes","it":"Mercedes","ru":"Мерседес","uk":"Мерседес","de":"Mercedes","es":"Mercedes","en":"Mercedes","fr":"Mercedes"}},{"country":"UY","name":"Melo","admin1Code":"UY.03","latitude":-32.37028,"longitude":-54.1675,"translations":{"pt":"Melo","it":"Melo","ru":"Мел","uk":"Мело","de":"Melo","es":"Melo","en":"Melo","fr":"Melo"}},{"country":"UY","name":"Maldonado","admin1Code":"UY.09","latitude":-34.9,"longitude":-54.95,"translations":{"pt":"Maldonado","it":"Maldonado","ru":"Мальдонадо","uk":"Мальдонадо","de":"Maldonado","es":"Maldonado","en":"Maldonado","fr":"Maldonado"}},{"country":"UY","name":"Las piedras","admin1Code":"UY.02","latitude":-34.7302,"longitude":-56.21915,"translations":{"pt":"Las piedras","it":"Las piedras","ru":"Лас-пьедрас","uk":"Las piedras","de":"Las piedras","es":"Las piedras","en":"Las piedras","fr":"Las piedras"}},{"country":"UY","name":"La paz","admin1Code":"UY.02","latitude":-34.76031,"longitude":-56.2259,"translations":{"pt":"La paz","it":"La paz","ru":"Ла-пас","uk":"Ла-пас","de":"La paz","es":"La paz","en":"La paz","fr":"La paz"}},{"country":"UY","name":"Fray bentos","admin1Code":"UY.12","latitude":-33.11651,"longitude":-58.31067,"translations":{"pt":"Fray bentos","it":"Fray bentos","ru":"Фрай-бентос","uk":"Фрей бентос","de":"Fray bentos","es":"Villa de fray bentos","en":"Fray bentos","fr":"Fray bentos"}},{"country":"UY","name":"Флорида","admin1Code":"UY.07","latitude":-34.09556,"longitude":-56.21417,"translations":{"pt":"Floryda","it":"Floryda","ru":"Флорида","uk":"Флорида","de":"Floryda","es":"Floryda","en":"Флорида","fr":"Floryda"}},{"country":"UY","name":"Дурасно","admin1Code":"UY.05","latitude":-33.38056,"longitude":-56.52361,"translations":{"pt":"Durasno","it":"Durasno","ru":"Дурасно","uk":"Дурасно","de":"Durasno","es":"Durazno","en":"Дурасно","fr":"Durasno"}},{"country":"UY","name":"Dolores","admin1Code":"UY.17","latitude":-33.53009,"longitude":-58.21701,"translations":{"pt":"Dolores","it":"Dolores","ru":"Долорес","uk":"Долорес","de":"Dolores","es":"Dolores","en":"Dolores","fr":"Dolores"}},{"country":"UY","name":"Delta del tigre","admin1Code":"UY.16","latitude":-34.76488,"longitude":-56.3645,"translations":{"pt":"Delta del tigre","it":"Delta del tigre","ru":"Delta del tigre","uk":"Delta del tigre","de":"Delta del tigre","es":"Delta del tigre","en":"Delta del tigre","fr":"Delta del tigre"}},{"country":"UY","name":"Colonia del sacramento","admin1Code":"UY.04","latitude":-34.46262,"longitude":-57.83976,"translations":{"pt":"Colônia do sacramento","it":"Colonia del sacramento","ru":"Колония дель сакраменто","uk":"Колонія-дель-сакраменто","de":"Colonia del sacramento","es":"Colonia del sacramento","en":"Colonia del sacramento","fr":"Colonia del sacramento"}},{"country":"UY","name":"Carmelo","admin1Code":"UY.04","latitude":-34.00023,"longitude":-58.28402,"translations":{"pt":"Carmelo","it":"Carmelo","ru":"Кармело","uk":"Кармело","de":"Carmelo","es":"Carmelo","en":"Carmelo","fr":"Carmelo"}},{"country":"UY","name":"Canelones","admin1Code":"UY.02","latitude":-34.52278,"longitude":-56.27778,"translations":{"pt":"Canelones","it":"Canelones","ru":"Canelones","uk":"Canelones","de":"Canelones","es":"Canelones","en":"Canelones","fr":"Canelones"}},{"country":"UY","name":"Artigas","admin1Code":"UY.01","latitude":-30.4,"longitude":-56.46667,"translations":{"pt":"Artigas","it":"Artigas","ru":"Артигас","uk":"Артигас","de":"Artigas","es":"Artigas","en":"Artigas","fr":"Artigas"}},{"country":"UY","name":"Barros blancos","admin1Code":"UY.02","latitude":-34.7524,"longitude":-56.00259,"translations":{"pt":"Barros blancos","it":"Barros blancos","ru":"Barros blancos","uk":"Barros blancos","de":"Barros blancos","es":"Barros blancos","en":"Barros blancos","fr":"Barros blancos"}}]