[{"country":"SS","name":"Yei","admin1Code":"SS.01","latitude":4.09444,"longitude":30.67639,"translations":{"pt":"Yei","it":"Yei","ru":"Ей","uk":"Yei","de":"Yei","es":"Yei","en":"Yei","fr":"Yei"}},{"country":"SS","name":"Yambio","admin1Code":"SS.10","latitude":4.57083,"longitude":28.39417,"translations":{"pt":"Yambio","it":"Yambio","ru":"Ямбио","uk":"Yambio","de":"Yambio","es":"Yambio","en":"Yambio","fr":"Yambio"}},{"country":"SS","name":"Winejok","admin1Code":"SS.05","latitude":9.01222,"longitude":27.57081,"translations":{"pt":"Winejok","it":"Winejok","ru":"Winejok","uk":"Winejok","de":"Winejok","es":"Winejok","en":"Winejok","fr":"Winejok"}},{"country":"SS","name":"Wau","admin1Code":"SS.09","latitude":7.70111,"longitude":27.98972,"translations":{"pt":"Wau","it":"Wāw","ru":"Вау","uk":"Wau","de":"Waw","es":"Wau","en":"Wau","fr":"Wau"}},{"country":"SS","name":"Aweil","admin1Code":"SS.05","latitude":8.76194,"longitude":27.39194,"translations":{"pt":"Aweil","it":"Aweil","ru":"Aweil","uk":"Aweil","de":"Aweil","es":"Aweil","en":"Aweil","fr":"Aweil"}},{"country":"SS","name":"Торит","admin1Code":"SS.02","latitude":4.41177,"longitude":32.57046,"translations":{"pt":"Toryt","it":"Toryt","ru":"Торит","uk":"Торит","de":"Toryt","es":"Toryt","en":"Торит","fr":"Toryt"}},{"country":"SS","name":"Tonj","admin1Code":"SS.08","latitude":7.27389,"longitude":28.6775,"translations":{"pt":"Tonj","it":"Tonj","ru":"Тондж","uk":"Тондж","de":"Tonj","es":"Tonj","en":"Tonj","fr":"Tonj"}},{"country":"SS","name":"Rumbek","admin1Code":"SS.04","latitude":6.80619,"longitude":29.67742,"translations":{"pt":"Rumbek","it":"Rumbek","ru":"Румбеке","uk":"Rumbek","de":"Rumbik","es":"Rumbek","en":"Rumbek","fr":"Rumbek"}},{"country":"SS","name":"Malakal","admin1Code":"SS.07","latitude":9.53342,"longitude":31.66049,"translations":{"pt":"Malakal","it":"Malakal","ru":"Малакаль","uk":"Малакаль","de":"Malakal","es":"Malakal","en":"Malakal","fr":"Malakal"}},{"country":"SS","name":"Leer","admin1Code":"SS.06","latitude":8.30306,"longitude":30.14056,"translations":{"pt":"Leer","it":"Leer","ru":"Лир","uk":"Лір","de":"Leer","es":"Leer","en":"Leer","fr":"Leer"}},{"country":"SS","name":"Kuacjok","admin1Code":"SS.08","latitude":8.30278,"longitude":27.98,"translations":{"pt":"Kuacjok","it":"Kuacjok","ru":"Kuacjok","uk":"Kuacjok","de":"Kuacjok","es":"Kuacjok","en":"Kuacjok","fr":"Kuacjok"}},{"country":"SS","name":"Kafia kingi","admin1Code":"SS.09","latitude":9.27345,"longitude":24.41701,"translations":{"pt":"Kafia kingi","it":"Kafia kingi","ru":"Кафия-кинги","uk":"Kafia kingi","de":"Kafia kingi","es":"Kafia kingi","en":"Kafia kingi","fr":"Kafia kingi"}},{"country":"SS","name":"Juba","admin1Code":"SS.01","latitude":4.85165,"longitude":31.58247,"translations":{"pt":"Juba","it":"Juba","ru":"Джуба","uk":"Juba","de":"Juba","es":"Juba","en":"Juba","fr":"Djouba"}},{"country":"SS","name":"Gogrial","admin1Code":"SS.08","latitude":8.53324,"longitude":28.10037,"translations":{"pt":"Gogrial","it":"Gogrial","ru":"Гогриале","uk":"Gogrial","de":"Gogrial","es":"Gogrial","en":"Gogrial","fr":"Gogrial"}},{"country":"SS","name":"Parjok","admin1Code":"SS.02","latitude":3.86512,"longitude":32.48212,"translations":{"pt":"Parjok","it":"Parjok","ru":"Parjok","uk":"Parjok","de":"Parjok","es":"Parjok","en":"Parjok","fr":"Parjok"}},{"country":"SS","name":"Бор","admin1Code":"SS.03","latitude":6.20889,"longitude":31.55861,"translations":{"pt":"Bor","it":"Bor","ru":"Бор","uk":"Бор","de":"Bor","es":"Bor","en":"Бор","fr":"Bor"}}]