[{"country":"BO","name":"Yacuiba","admin1Code":"BO.09","latitude":-22.01643,"longitude":-63.67753,"translations":{"pt":"Yacuiba","it":"Yacuiba","ru":"Якуиба","uk":"Yacuiba","de":"Yacuiba","es":"Yacuíba","en":"Yacuiba","fr":"Yacuiba"}},{"country":"BO","name":"Warnes","admin1Code":"BO.08","latitude":-17.5163,"longitude":-63.16778,"translations":{"pt":"Warnes","it":"Warnes","ru":"Warnes","uk":"Warnes","de":"Warnes","es":"Warnes","en":"Warnes","fr":"Warnes"}},{"country":"BO","name":"Vinto","admin1Code":"BO.02","latitude":-17.39141,"longitude":-66.31681,"translations":{"pt":"Vinto","it":"Vinto","ru":"Винто","uk":"Вінто","de":"Vinto","es":"Vinto","en":"Vinto","fr":"Vinto"}},{"country":"BO","name":"Вильясон","admin1Code":"BO.07","latitude":-22.08659,"longitude":-65.59422,"translations":{"pt":"Vyl'jason","it":"Vyl'jason","ru":"Вильясон","uk":"Вильясон","de":"Vyl'jason","es":"Vyl'jason","en":"Вильясон","fr":"Vyl'jason"}},{"country":"BO","name":"Villa yapacaní","admin1Code":"BO.08","latitude":-17.4,"longitude":-63.83333,"translations":{"pt":"Villa yapacaní","it":"Villa yapacaní","ru":"Villa yapacaní","uk":"Villa yapacaní","de":"Villa yapacaní","es":"Villa yapacaní","en":"Villa yapacaní","fr":"Villa yapacaní"}},{"country":"BO","name":"Villa montes","admin1Code":"BO.09","latitude":-21.26235,"longitude":-63.46903,"translations":{"pt":"Villa montes","it":"Villa montes","ru":"Вилья-монтес","uk":"Вілья-монтес","de":"Villa montes","es":"Villa montes","en":"Villa montes","fr":"Villa montes"}},{"country":"BO","name":"Viacha","admin1Code":"BO.04","latitude":-16.65,"longitude":-68.3,"translations":{"pt":"Viacha","it":"Viacha","ru":"Viacha","uk":"Viacha","de":"Viacha","es":"Viacha","en":"Viacha","fr":"Viacha"}},{"country":"BO","name":"Tupiza","admin1Code":"BO.07","latitude":-21.44345,"longitude":-65.71875,"translations":{"pt":"Tupiza","it":"Tupiza","ru":"Туписа","uk":"Тупіса","de":"Tupiza","es":"Tupiza","en":"Tupiza","fr":"Tupiza"}},{"country":"BO","name":"La santisima trinidad","admin1Code":"BO.03","latitude":-14.83333,"longitude":-64.9,"translations":{"pt":"Trinidad","it":"Trinidad","ru":"Тринидад","uk":"Тринідад","de":"Trinidad","es":"Trinidad","en":"La santisima trinidad","fr":"Trinidad"}},{"country":"BO","name":"Tiquipaya","admin1Code":"BO.02","latitude":-17.33801,"longitude":-66.21579,"translations":{"pt":"Tiquipaya","it":"Tiquipaya","ru":"Tiquipaya","uk":"Tiquipaya","de":"Tiquipaya","es":"Tiquipaya","en":"Tiquipaya","fr":"Tiquipaya"}},{"country":"BO","name":"Tarija","admin1Code":"BO.09","latitude":-21.53549,"longitude":-64.72956,"translations":{"pt":"Tarija","it":"Tarija","ru":"Тариха","uk":"Таріха","de":"Tarija","es":"Tarija","en":"Tarija","fr":"Tarija"}},{"country":"BO","name":"Sucre","admin1Code":"BO.01","latitude":-19.03332,"longitude":-65.26274,"translations":{"pt":"Sucre","it":"Sucre","ru":"Сукре","uk":"Сукре","de":"Sucre","es":"Sucre","en":"Sucre","fr":"Sucre"}},{"country":"BO","name":"Sipe sipe","admin1Code":"BO.02","latitude":-17.45419,"longitude":-66.35737,"translations":{"pt":"Sipe sipe","it":"Sipe sipe","ru":"Sipe sipe","uk":"Sipe sipe","de":"Sipe sipe","es":"Sipe sipe","en":"Sipe sipe","fr":"Sipe sipe"}},{"country":"BO","name":"El torno","admin1Code":"BO.08","latitude":-18.00014,"longitude":-63.38712,"translations":{"pt":"El torno","it":"El torno","ru":"El torno","uk":"El torno","de":"El torno","es":"El torno","en":"El torno","fr":"El torno"}},{"country":"BO","name":"Santa cruz de la sierra","admin1Code":"BO.08","latitude":-17.78629,"longitude":-63.18117,"translations":{"pt":"Santa cruz da serra","it":"Santa cruz de la sierra","ru":"Санта-крус-де-ла-сиерра","uk":"Santa cruz de la sierra","de":"Santa cruz de la sierra","es":"Santa cruz de la sierra","en":"Santa cruz de la sierra","fr":"Santa cruz"}},{"country":"BO","name":"San ignacio de velasco","admin1Code":"BO.08","latitude":-16.37767,"longitude":-60.96472,"translations":{"pt":"San ignacio de velasco","it":"San ignacio de velasco","ru":"San ignacio de velasco","uk":"San ignacio de velasco","de":"San ignacio de velasco","es":"San ignacio de velasco","en":"San ignacio de velasco","fr":"San ignacio de velasco"}},{"country":"BO","name":"Sacaba","admin1Code":"BO.02","latitude":-17.39799,"longitude":-66.03825,"translations":{"pt":"Sacaba","it":"Sacaba","ru":"Сакаба","uk":"Сакаба","de":"Sacaba","es":"Sacaba","en":"Sacaba","fr":"Sacaba"}},{"country":"BO","name":"Riberalta","admin1Code":"BO.03","latitude":-11.01026,"longitude":-66.05257,"translations":{"pt":"Riberalta","it":"Riberalta","ru":"Риберальта","uk":"Riberalta","de":"Riberalta","es":"Riberalta","en":"Riberalta","fr":"Riberalta"}},{"country":"BO","name":"Quillacollo","admin1Code":"BO.02","latitude":-17.39228,"longitude":-66.27838,"translations":{"pt":"Quillacollo","it":"Quillacollo","ru":"Кильякольо","uk":"Кіяколо","de":"Quillacollo","es":"Quillacollo","en":"Quillacollo","fr":"Quillacollo"}},{"country":"BO","name":"Punata","admin1Code":"BO.02","latitude":-17.54234,"longitude":-65.83472,"translations":{"pt":"Punata","it":"Punata","ru":"Пуната","uk":"Пуната","de":"Punata","es":"Punata","en":"Punata","fr":"Punata"}},{"country":"BO","name":"Potosí","admin1Code":"BO.07","latitude":-19.58361,"longitude":-65.75306,"translations":{"pt":"Potosí","it":"Potosí","ru":"Потоси","uk":"Потосі","de":"Potosí","es":"Potosí","en":"Potosí","fr":"Potosí"}},{"country":"BO","name":"Oruro","admin1Code":"BO.05","latitude":-17.98333,"longitude":-67.15,"translations":{"pt":"Oruro","it":"Oruro","ru":"Оруро","uk":"Оруро","de":"Oruro","es":"Oruro","en":"Oruro","fr":"Oruro"}},{"country":"BO","name":"Монтеро","admin1Code":"BO.08","latitude":-17.33874,"longitude":-63.25093,"translations":{"pt":"Montero","it":"Montero","ru":"Монтеро","uk":"Монтеро","de":"Montero","es":"Montero","en":"Монтеро","fr":"Montero"}},{"country":"BO","name":"Mizque","admin1Code":"BO.02","latitude":-17.94101,"longitude":-65.34016,"translations":{"pt":"Mizque","it":"Mizque","ru":"Mizque","uk":"Міске","de":"Mizque","es":"Mizque","en":"Mizque","fr":"Mizque"}},{"country":"BO","name":"Llallagua","admin1Code":"BO.07","latitude":-18.42494,"longitude":-66.57778,"translations":{"pt":"Llallagua","it":"Llallagua","ru":"Llallagua","uk":"Llallagua","de":"Llallagua","es":"Llallagua","en":"Llallagua","fr":"Llallagua"}},{"country":"BO","name":"La paz","admin1Code":"BO.04","latitude":-16.5,"longitude":-68.15,"translations":{"pt":"La paz","it":"La paz","ru":"Ла-пас","uk":"Ла-пас","de":"La paz","es":"La paz","en":"La paz","fr":"La paz"}},{"country":"BO","name":"Laja","admin1Code":"BO.04","latitude":-16.53333,"longitude":-68.38333,"translations":{"pt":"Laja","it":"Laja","ru":"Laja","uk":"Laja","de":"Laja","es":"Laja","en":"Laja","fr":"Laja"}},{"country":"BO","name":"Huanuni","admin1Code":"BO.05","latitude":-18.289,"longitude":-66.83583,"translations":{"pt":"Huanuni","it":"Huanuni","ru":"Уануни","uk":"Huanuni","de":"Huanuni","es":"Huanuni","en":"Huanuni","fr":"Huanuni"}},{"country":"BO","name":"Guayaramerín","admin1Code":"BO.03","latitude":-10.8258,"longitude":-65.3581,"translations":{"pt":"Guayaramerín","it":"Guayaramerín","ru":"Гуаярамерин","uk":"Гуаярамерін","de":"Guayaramerín","es":"Guayaramerín","en":"Guayaramerín","fr":"Guayaramerín"}},{"country":"BO","name":"Cotoca","admin1Code":"BO.08","latitude":-17.81667,"longitude":-63.05,"translations":{"pt":"Cotoca","it":"Cotoca","ru":"Cotoca","uk":"Cotoca","de":"Cotoca","es":"Cotoca","en":"Cotoca","fr":"Cotoca"}},{"country":"BO","name":"Colcapirhua","admin1Code":"BO.02","latitude":-17.3857,"longitude":-66.23814,"translations":{"pt":"Colcapirhua","it":"Colcapirhua","ru":"Колькапируа","uk":"Колкапіруа","de":"Colcapirhua","es":"Colcapirhua","en":"Colcapirhua","fr":"Colcapirhua"}},{"country":"BO","name":"Cochabamba","admin1Code":"BO.02","latitude":-17.3895,"longitude":-66.1568,"translations":{"pt":"Cochabamba","it":"Cochabamba","ru":"Кочабамба","uk":"Кочабамба","de":"Cochabamba","es":"Cochabamba","en":"Cochabamba","fr":"Cochabamba"}},{"country":"BO","name":"Cobija","admin1Code":"BO.06","latitude":-11.02671,"longitude":-68.76918,"translations":{"pt":"Cobija","it":"Cobija","ru":"Кобиха","uk":"Кобіха","de":"Cobija","es":"Cobija","en":"Cobija","fr":"Cobija"}},{"country":"BO","name":"Caranavi","admin1Code":"BO.04","latitude":-15.83403,"longitude":-67.56586,"translations":{"pt":"Caranavi","it":"Caranavi","ru":"Caranavi","uk":"Caranavi","de":"Caranavi","es":"Caranavi","en":"Caranavi","fr":"Caranavi"}},{"country":"BO","name":"Камири","admin1Code":"BO.08","latitude":-20.04063,"longitude":-63.52396,"translations":{"pt":"Kamyry","it":"Kamyry","ru":"Камири","uk":"Камири","de":"Kamyry","es":"Kamyry","en":"Камири","fr":"Kamyry"}},{"country":"BO","name":"Bermejo","admin1Code":"BO.09","latitude":-22.73206,"longitude":-64.33724,"translations":{"pt":"Bermejo","it":"Bermejo","ru":"Bermejo","uk":"Bermejo","de":"Bermejo","es":"Bermejo","en":"Bermejo","fr":"Bermejo"}},{"country":"BO","name":"Achocalla","admin1Code":"BO.04","latitude":-16.57386,"longitude":-68.15112,"translations":{"pt":"Achocalla","it":"Achocalla","ru":"Achocalla","uk":"Achocalla","de":"Achocalla","es":"Achocalla","en":"Achocalla","fr":"Achocalla"}},{"country":"BO","name":"Ascención de guarayos","admin1Code":"BO.08","latitude":-15.89299,"longitude":-63.18855,"translations":{"pt":"Ascención de guarayos","it":"Ascención de guarayos","ru":"Ascención de guarayos","uk":"Ascención de guarayos","de":"Ascención de guarayos","es":"Ascención de guarayos","en":"Ascención de guarayos","fr":"Ascención de guarayos"}},{"country":"BO","name":"San borja","admin1Code":"BO.03","latitude":-14.85195,"longitude":-66.74954,"translations":{"pt":"San borja","it":"San borja","ru":"San borja","uk":"Сан-борха","de":"San borja","es":"San borja","en":"San borja","fr":"San borja"}}]