[{"country":"LV","name":"Valmiera","admin1Code":"LV.31","latitude":57.54108,"longitude":25.42751,"translations":{"pt":"Valmiera","it":"Valmiera","ru":"Валмиера","uk":"Валмієра","de":"Valmiera","es":"Valmiera","en":"Valmiera","fr":"Valmiera"}},{"country":"LV","name":"Ventspils","admin1Code":"LV.32","latitude":57.39485,"longitude":21.56121,"translations":{"pt":"Ventspils","it":"Ventspils","ru":"Вентспилс","uk":"Ventspils","de":"Ventspils","es":"Ventspils","en":"Ventspils","fr":"Ventspils"}},{"country":"LV","name":"Tukums","admin1Code":"LV.29","latitude":56.96764,"longitude":23.15554,"translations":{"pt":"Tukums","it":"Tukums","ru":"Тукумс","uk":"Тукумс","de":"Tukums","es":"Tukums","en":"Tukums","fr":"Tukums"}},{"country":"LV","name":"Salaspils","admin1Code":"LV.C3","latitude":56.86014,"longitude":24.36544,"translations":{"pt":"Salaspils","it":"Salaspils","ru":"Саласпилс","uk":"Саласпілс","de":"Salaspils","es":"Salaspils","en":"Salaspils","fr":"Salaspils"}},{"country":"LV","name":"Riga","admin1Code":"LV.25","latitude":56.946,"longitude":24.10589,"translations":{"pt":"Riga","it":"Riga","ru":"Рига","uk":"Рига","de":"Riga","es":"Riga","en":"Riga","fr":"Riga"}},{"country":"LV","name":"Rēzekne","admin1Code":"LV.23","latitude":56.51028,"longitude":27.34,"translations":{"pt":"Rezekne","it":"Rēzekne","ru":"Резекне","uk":"Резекне","de":"Rēzekne","es":"Rēzekne","en":"Rēzekne","fr":"Rezekne"}},{"country":"LV","name":"Ogre","admin1Code":"LV.21","latitude":56.8162,"longitude":24.61401,"translations":{"pt":"Ogre","it":"Ogre","ru":"Огре","uk":"Ogre","de":"Ogre","es":"Ogre","en":"Ogre","fr":"Ogre"}},{"country":"LV","name":"Liepāja","admin1Code":"LV.16","latitude":56.50474,"longitude":21.01085,"translations":{"pt":"Liepāja","it":"Liepāja","ru":"Лиепая","uk":"Лієпая","de":"Liepāja","es":"Liepāja","en":"Liepāja","fr":"Liepaja"}},{"country":"LV","name":"Jūrmala","admin1Code":"LV.13","latitude":56.968,"longitude":23.77038,"translations":{"pt":"Jūrmala","it":"Jūrmala","ru":"Юрмала","uk":"Jūrmala","de":"Riga-strand","es":"Jūrmala","en":"Jūrmala","fr":"Jurmala"}},{"country":"LV","name":"Jelgava","admin1Code":"LV.11","latitude":56.65,"longitude":23.71278,"translations":{"pt":"Jelgava","it":"Jelgava","ru":"Елгава","uk":"Jelgava","de":"Mitau","es":"Jelgava","en":"Jelgava","fr":"Jelgava"}},{"country":"LV","name":"Jēkabpils","admin1Code":"LV.10","latitude":56.49903,"longitude":25.85735,"translations":{"pt":"Jēkabpils","it":"Jēkabpils","ru":"Екабпилс","uk":"Єкабпілс","de":"Jēkabpils","es":"Jēkabpils","en":"Jēkabpils","fr":"Jēkabpils"}},{"country":"LV","name":"Daugavpils","admin1Code":"LV.06","latitude":55.88333,"longitude":26.53333,"translations":{"pt":"Daugavpils","it":"Daugavpils","ru":"Даугавпилс","uk":"Даугавпілс","de":"Dünaburg","es":"Daugavpils","en":"Daugavpils","fr":"Daugavpils"}},{"country":"LV","name":"Mārupe","admin1Code":"LV.95","latitude":56.90544,"longitude":24.05113,"translations":{"pt":"Mārupe","it":"Mārupe","ru":"Mārupe","uk":"Mārupe","de":"Mārupe","es":"Mārupe","en":"Mārupe","fr":"Mārupe"}},{"country":"LV","name":"Dārzciems","admin1Code":"LV.25","latitude":56.94563,"longitude":24.17459,"translations":{"pt":"Dārzciems","it":"Dārzciems","ru":"Dārzciems","uk":"Dārzciems","de":"Dārzciems","es":"Dārzciems","en":"Dārzciems","fr":"Dārzciems"}}]