[{"country":"SY","name":"Ябруд","admin1Code":"SY.08","latitude":33.96921,"longitude":36.65729,"translations":{"pt":"Jabrud","it":"Jabrud","ru":"Ябруд","uk":"Ябруд","de":"Jabrud","es":"Jabrud","en":"Ябруд","fr":"Jabrud"}},{"country":"SY","name":"Ţayyibat al imām","admin1Code":"SY.10","latitude":35.26592,"longitude":36.71219,"translations":{"pt":"Ţayyibat al imām","it":"Ţayyibat al imām","ru":"Ţayyibat al imām","uk":"Ţayyibat al imām","de":"Ţayyibat al imām","es":"Ţayyibat al imām","en":"Ţayyibat al imām","fr":"Ţayyibat al imām"}},{"country":"SY","name":"Tartous","admin1Code":"SY.14","latitude":34.88902,"longitude":35.88659,"translations":{"pt":"Tartous","it":"Tartus","ru":"Тартус","uk":"Тартус","de":"Tartus","es":"Tartous","en":"Tartous","fr":"Tartous"}},{"country":"SY","name":"Tall rif‘at","admin1Code":"SY.09","latitude":36.47229,"longitude":37.09471,"translations":{"pt":"Tall rif‘at","it":"Tall rif‘at","ru":"Tall rif‘at","uk":"Tall rif‘at","de":"Tall rif‘at","es":"Tall rif‘at","en":"Tall rif‘at","fr":"Tall rif‘at"}},{"country":"SY","name":"Tallkalakh","admin1Code":"SY.11","latitude":34.66842,"longitude":36.25995,"translations":{"pt":"Tallkalakh","it":"Tallkalakh","ru":"Tallkalakh","uk":"Tallkalakh","de":"Tallkalakh","es":"Tallkalakh","en":"Tallkalakh","fr":"Tallkalakh"}},{"country":"SY","name":"Tallbīsah","admin1Code":"SY.11","latitude":34.84072,"longitude":36.73092,"translations":{"pt":"Tallbīsah","it":"Tallbīsah","ru":"Tallbīsah","uk":"Tallbīsah","de":"Tallbīsah","es":"Tallbīsah","en":"Tallbīsah","fr":"Tallbīsah"}},{"country":"SY","name":"Тафас","admin1Code":"SY.06","latitude":32.73709,"longitude":36.06654,"translations":{"pt":"Tafas","it":"Tafas","ru":"Тафас","uk":"Тафас","de":"Tafas","es":"Tafas","en":"Тафас","fr":"Tafas"}},{"country":"SY","name":"Palmyra","admin1Code":"SY.11","latitude":34.5624,"longitude":38.28402,"translations":{"pt":"Palmira","it":"Palmira","ru":"Пальмира","uk":"Palmyra","de":"Palmyra","es":"Palmira","en":"Palmyra","fr":"Palmyre"}},{"country":"SY","name":"Tādif","admin1Code":"SY.09","latitude":36.34814,"longitude":37.5309,"translations":{"pt":"Tādif","it":"Tādif","ru":"Tādif","uk":"Tādif","de":"Tādif","es":"Tādif","en":"Tādif","fr":"Tādif"}},{"country":"SY","name":"Суран","admin1Code":"SY.10","latitude":35.29193,"longitude":36.74848,"translations":{"pt":"Suran","it":"Suran","ru":"Суран","uk":"Суран","de":"Suran","es":"Suran","en":"Суран","fr":"Suran"}},{"country":"SY","name":"Sabikhan","admin1Code":"SY.07","latitude":34.85305,"longitude":40.59987,"translations":{"pt":"Sabikhan","it":"Sabikhan","ru":"Sabikhan","uk":"Sabikhan","de":"Sabikhan","es":"Sabikhan","en":"Sabikhan","fr":"Sabikhan"}},{"country":"SY","name":"Шейх-мискин","admin1Code":"SY.06","latitude":32.82666,"longitude":36.16052,"translations":{"pt":"Shejkh-myskyn","it":"Shejkh-myskyn","ru":"Шейх-мискин","uk":"Шейх-мискин","de":"Shejkh-myskyn","es":"Shejkh-myskyn","en":"Шейх-мискин","fr":"Shejkh-myskyn"}},{"country":"SY","name":"Saraqib","admin1Code":"SY.12","latitude":35.86447,"longitude":36.80591,"translations":{"pt":"Saraqib","it":"Saraqib","ru":"Saraqib","uk":"Saraqib","de":"Saraqib","es":"Saraqib","en":"Saraqib","fr":"Saraqib"}},{"country":"SY","name":"Salqīn","admin1Code":"SY.12","latitude":36.13865,"longitude":36.45244,"translations":{"pt":"Salqīn","it":"Salqīn","ru":"Salqīn","uk":"Salqīn","de":"Salqīn","es":"Salqīn","en":"Salqīn","fr":"Salqīn"}},{"country":"SY","name":"Salamiyah","admin1Code":"SY.10","latitude":35.01127,"longitude":37.05324,"translations":{"pt":"Salamiyah","it":"Salamiyah","ru":"Salamiyah","uk":"Salamiyah","de":"Salamiyah","es":"Salamiyah","en":"Salamiyah","fr":"Salamiyah"}},{"country":"SY","name":"Şāfītā","admin1Code":"SY.14","latitude":34.82099,"longitude":36.11773,"translations":{"pt":"Şāfītā","it":"Şāfītā","ru":"Şāfītā","uk":"Şāfītā","de":"Şāfītā","es":"Şāfītā","en":"Şāfītā","fr":"Şāfītā"}},{"country":"SY","name":"Qaţanā","admin1Code":"SY.08","latitude":33.43757,"longitude":36.07888,"translations":{"pt":"Qaţanā","it":"Qaţanā","ru":"Qaţanā","uk":"Qaţanā","de":"Qaţanā","es":"Qaţanā","en":"Qaţanā","fr":"Qaţanā"}},{"country":"SY","name":"Джасим","admin1Code":"SY.06","latitude":32.99125,"longitude":36.06093,"translations":{"pt":"Dzhasym","it":"Dzhasym","ru":"Джасим","uk":"Джасим","de":"Dzhasym","es":"Dzhasym","en":"Джасим","fr":"Dzhasym"}},{"country":"SY","name":"Qārah","admin1Code":"SY.08","latitude":34.15558,"longitude":36.74284,"translations":{"pt":"Qārah","it":"Qārah","ru":"Qārah","uk":"Qārah","de":"Qārah","es":"Qārah","en":"Qārah","fr":"Qārah"}},{"country":"SY","name":"Kabbasin","admin1Code":"SY.09","latitude":36.43274,"longitude":37.56857,"translations":{"pt":"Kabbasin","it":"Kabbasin","ru":"Kabbasin","uk":"Kabbasin","de":"Kabbasin","es":"Kabbasin","en":"Kabbasin","fr":"Kabbasin"}},{"country":"SY","name":"Nubl","admin1Code":"SY.09","latitude":36.37867,"longitude":36.99294,"translations":{"pt":"Nubl","it":"Nubl","ru":"Nubl","uk":"Nubl","de":"Nubl","es":"Nubl","en":"Nubl","fr":"Nubl"}},{"country":"SY","name":"Maşyāf","admin1Code":"SY.10","latitude":35.0653,"longitude":36.3406,"translations":{"pt":"Maşyāf","it":"Maşyāf","ru":"Maşyāf","uk":"Maşyāf","de":"Maşyāf","es":"Maşyāf","en":"Maşyāf","fr":"Maşyāf"}},{"country":"SY","name":"Manbidsch","admin1Code":"SY.09","latitude":36.52815,"longitude":37.95495,"translations":{"pt":"Manbidsch","it":"Manbidsch","ru":"Манбидж","uk":"Манбідж","de":"Manbidsch","es":"Manbiy","en":"Manbidsch","fr":"Manbidsch"}},{"country":"SY","name":"Ma‘arratmişrīn","admin1Code":"SY.12","latitude":36.01152,"longitude":36.67183,"translations":{"pt":"Ma‘arratmişrīn","it":"Ma‘arratmişrīn","ru":"Ma‘arratmişrīn","uk":"Ma‘arratmişrīn","de":"Ma‘arratmişrīn","es":"Ma‘arratmişrīn","en":"Ma‘arratmişrīn","fr":"Ma‘arratmişrīn"}},{"country":"SY","name":"Khan shaykhun","admin1Code":"SY.12","latitude":35.44208,"longitude":36.65095,"translations":{"pt":"Khan shaykhun","it":"Khan shaykhun","ru":"Khan shaykhun","uk":"Khan shaykhun","de":"Khan shaykhun","es":"Khan shaykhun","en":"Khan shaykhun","fr":"Khan shaykhun"}},{"country":"SY","name":"Kafr zaytā","admin1Code":"SY.10","latitude":35.37425,"longitude":36.6033,"translations":{"pt":"Kafr zaytā","it":"Kafr zaytā","ru":"Kafr zaytā","uk":"Kafr zaytā","de":"Kafr zaytā","es":"Kafr zaytā","en":"Kafr zaytā","fr":"Kafr zaytā"}},{"country":"SY","name":"Kafr takhārīm","admin1Code":"SY.12","latitude":36.1168,"longitude":36.51522,"translations":{"pt":"Kafr takhārīm","it":"Kafr takhārīm","ru":"Kafr takhārīm","uk":"Kafr takhārīm","de":"Kafr takhārīm","es":"Kafr takhārīm","en":"Kafr takhārīm","fr":"Kafr takhārīm"}},{"country":"SY","name":"Kafranbel","admin1Code":"SY.12","latitude":35.61376,"longitude":36.56449,"translations":{"pt":"Kafranbel","it":"Kafranbel","ru":"Kafranbel","uk":"Кафранбель","de":"Kafranbel","es":"Kafranbel","en":"Kafranbel","fr":"Kafranbel"}},{"country":"SY","name":"Kafr lāhā","admin1Code":"SY.11","latitude":34.89469,"longitude":36.49582,"translations":{"pt":"Kafr lāhā","it":"Kafr lāhā","ru":"Kafr lāhā","uk":"Kafr lāhā","de":"Kafr lāhā","es":"Kafr lāhā","en":"Kafr lāhā","fr":"Kafr lāhā"}},{"country":"SY","name":"Jisr ash shughūr","admin1Code":"SY.12","latitude":35.81418,"longitude":36.31983,"translations":{"pt":"Jisr ash shughūr","it":"Jisr ash shughūr","ru":"Jisr ash shughūr","uk":"Jisr ash shughūr","de":"Jisr ash shughūr","es":"Jisr ash shughūr","en":"Jisr ash shughūr","fr":"Jisr ash shughūr"}},{"country":"SY","name":"Jayrūd","admin1Code":"SY.08","latitude":33.80709,"longitude":36.73861,"translations":{"pt":"Jayrūd","it":"Jayrūd","ru":"Jayrūd","uk":"Jayrūd","de":"Jayrūd","es":"Jayrūd","en":"Jayrūd","fr":"Jayrūd"}},{"country":"SY","name":"Jarābulus","admin1Code":"SY.09","latitude":36.8175,"longitude":38.01111,"translations":{"pt":"Jarābulus","it":"Jarābulus","ru":"Jarābulus","uk":"Jarābulus","de":"Jarābulus","es":"Jarābulus","en":"Jarābulus","fr":"Jarābulus"}},{"country":"SY","name":"Jableh","admin1Code":"SY.02","latitude":35.36211,"longitude":35.92759,"translations":{"pt":"Jableh","it":"Jableh","ru":"Джабла","uk":"Джебла","de":"Dschabla","es":"Jableh","en":"Jableh","fr":"Jablé"}},{"country":"SY","name":"Irbin","admin1Code":"SY.08","latitude":33.53719,"longitude":36.36635,"translations":{"pt":"Irbin","it":"Irbin","ru":"Irbin","uk":"Irbin","de":"Irbin","es":"Irbin","en":"Irbin","fr":"Irbin"}},{"country":"SY","name":"Inkhil","admin1Code":"SY.06","latitude":33.01809,"longitude":36.12828,"translations":{"pt":"Inkhil","it":"Inkhil","ru":"Inkhil","uk":"Inkhil","de":"Inkhil","es":"Inkhil","en":"Inkhil","fr":"Inkhil"}},{"country":"SY","name":"Idlib","admin1Code":"SY.12","latitude":35.93062,"longitude":36.63393,"translations":{"pt":"Idlib","it":"Idlib","ru":"Идлиб","uk":"Ідліб","de":"Idlib","es":"Idlib","en":"Idlib","fr":"Idlib"}},{"country":"SY","name":"Homs","admin1Code":"SY.11","latitude":34.72682,"longitude":36.72339,"translations":{"pt":"Homs","it":"Homs","ru":"Хомс","uk":"Хомс","de":"Homs","es":"Homs","en":"Homs","fr":"Homs"}},{"country":"SY","name":"Ḩarastā","admin1Code":"SY.08","latitude":33.55869,"longitude":36.36515,"translations":{"pt":"Ḩarastā","it":"Ḩarastā","ru":"Ḩarastā","uk":"Ḩarastā","de":"Ḩarastā","es":"Ḩarastā","en":"Ḩarastā","fr":"Ḩarastā"}},{"country":"SY","name":"Hama","admin1Code":"SY.10","latitude":35.13179,"longitude":36.75783,"translations":{"pt":"Hama","it":"Hama","ru":"Хама","uk":"Гама","de":"Hama","es":"Hama","en":"Hama","fr":"Hama"}},{"country":"SY","name":"Ḩalfāyā","admin1Code":"SY.10","latitude":35.26014,"longitude":36.60581,"translations":{"pt":"Ḩalfāyā","it":"Ḩalfāyā","ru":"Ḩalfāyā","uk":"Ḩalfāyā","de":"Ḩalfāyā","es":"Ḩalfāyā","en":"Ḩalfāyā","fr":"Ḩalfāyā"}},{"country":"SY","name":"Aleppo","admin1Code":"SY.09","latitude":36.20124,"longitude":37.16117,"translations":{"pt":"Alepo","it":"Aleppo","ru":"Халеб","uk":"Алеппо","de":"Aleppo","es":"Alepo","en":"Aleppo","fr":"Alep"}},{"country":"SY","name":"Douma","admin1Code":"SY.08","latitude":33.57175,"longitude":36.4027,"translations":{"pt":"Douma","it":"Douma","ru":"Дума","uk":"Douma","de":"Douma","es":"Douma","en":"Douma","fr":"Douma"}},{"country":"SY","name":"Damascus","admin1Code":"SY.13","latitude":33.5102,"longitude":36.29128,"translations":{"pt":"Damasco","it":"Damasco","ru":"Дамаск","uk":"Дамаск","de":"Damaskus","es":"Damasco","en":"Damascus","fr":"Damas"}},{"country":"SY","name":"Dayr ḩāfir","admin1Code":"SY.09","latitude":36.15694,"longitude":37.70778,"translations":{"pt":"Dayr ḩāfir","it":"Dayr ḩāfir","ru":"Dayr ḩāfir","uk":"Dayr ḩāfir","de":"Dayr ḩāfir","es":"Dayr ḩāfir","en":"Dayr ḩāfir","fr":"Dayr ḩāfir"}},{"country":"SY","name":"Dayr az zawr","admin1Code":"SY.07","latitude":35.33588,"longitude":40.14084,"translations":{"pt":"Dayr az zawr","it":"Deir el-zor","ru":"Дейр-эз-зор","uk":"Дейр-ез-зор","de":"Dayr az zawr","es":"Dayr az zawr","en":"Dayr az zawr","fr":"Dayr az zawr"}},{"country":"SY","name":"Ad darbāsīyah","admin1Code":"SY.01","latitude":37.07279,"longitude":40.65199,"translations":{"pt":"Ad darbāsīyah","it":"Ad darbāsīyah","ru":"Ad darbāsīyah","uk":"Ad darbāsīyah","de":"Ad darbāsīyah","es":"Ad darbāsīyah","en":"Ad darbāsīyah","fr":"Ad darbāsīyah"}},{"country":"SY","name":"Дарайе","admin1Code":"SY.08","latitude":33.45835,"longitude":36.23256,"translations":{"pt":"Daraje","it":"Daraje","ru":"Дарайе","uk":"Дарайе","de":"Daraje","es":"Daraje","en":"Дарайе","fr":"Daraje"}},{"country":"SY","name":"Деръа","admin1Code":"SY.06","latitude":32.61889,"longitude":36.10213,"translations":{"pt":"Derъa","it":"Derъa","ru":"Даръа","uk":"Деръа","de":"Derъa","es":"Derъa","en":"Деръа","fr":"Derъa"}},{"country":"SY","name":"Burj islam","admin1Code":"SY.02","latitude":35.67396,"longitude":35.80259,"translations":{"pt":"Burj islam","it":"Burj islam","ru":"Burj islam","uk":"Burj islam","de":"Burj islam","es":"Burj islam","en":"Burj islam","fr":"Bourj islam"}},{"country":"SY","name":"Binnish","admin1Code":"SY.12","latitude":35.95664,"longitude":36.7138,"translations":{"pt":"Binnish","it":"Binnish","ru":"Binnish","uk":"Binnish","de":"Binnish","es":"Binnish","en":"Binnish","fr":"Binnish"}},{"country":"SY","name":"Batabo","admin1Code":"SY.09","latitude":36.13447,"longitude":36.73979,"translations":{"pt":"Batabo","it":"Batabo","ru":"Batabo","uk":"Batabo","de":"Batabo","es":"Batabo","en":"Batabo","fr":"Batabo"}},{"country":"SY","name":"Baniyas","admin1Code":"SY.14","latitude":35.18188,"longitude":35.94871,"translations":{"pt":"Baniyas","it":"Baniyas","ru":"Банияс","uk":"Баніяс","de":"Baniyas","es":"Baniyas","en":"Baniyas","fr":"Banias"}},{"country":"SY","name":"Az zabadānī","admin1Code":"SY.08","latitude":33.72488,"longitude":36.1005,"translations":{"pt":"Az zabadānī","it":"Az zabadānī","ru":"Az zabadānī","uk":"Az zabadānī","de":"Az zabadānī","es":"Az zabadānī","en":"Az zabadānī","fr":"Az zabadānī"}},{"country":"SY","name":"Azaz","admin1Code":"SY.09","latitude":36.58662,"longitude":37.04628,"translations":{"pt":"Azaz","it":"Azaz","ru":"Азаз","uk":"Azaz","de":"Azaz","es":"Azaz","en":"Azaz","fr":"Azaz"}},{"country":"SY","name":"Айн-эль-араб","admin1Code":"SY.09","latitude":36.89095,"longitude":38.35347,"translations":{"pt":"Ajn-эl'-arab","it":"Ajn-эl'-arab","ru":"Айн-эль-араб","uk":"Айн-эль-араб","de":"Ajn-эl'-arab","es":"Ajn-эl'-arab","en":"Айн-эль-араб","fr":"Ajn-эl'-arab"}},{"country":"SY","name":"At tall","admin1Code":"SY.08","latitude":33.61033,"longitude":36.3107,"translations":{"pt":"At tall","it":"At tall","ru":"At tall","uk":"At tall","de":"At tall","es":"At tall","en":"At tall","fr":"At tall"}},{"country":"SY","name":"Ath thawrah","admin1Code":"SY.04","latitude":35.83758,"longitude":38.54828,"translations":{"pt":"Ath thawrah","it":"Ath thawrah","ru":"Ath thawrah","uk":"Ath thawrah","de":"Ath thawrah","es":"Ath thawrah","en":"Ath thawrah","fr":"Ath thawrah"}},{"country":"SY","name":"As-suwayda","admin1Code":"SY.05","latitude":32.70896,"longitude":36.56951,"translations":{"pt":"As-suwayda","it":"As-suwayda","ru":"Эс-сувейда","uk":"Ес-сувейда","de":"As-suwayda","es":"As-suwayda","en":"As-suwayda","fr":"Soueïda"}},{"country":"SY","name":"Эс-санамейн","admin1Code":"SY.06","latitude":33.07186,"longitude":36.18316,"translations":{"pt":"Эs-sanamejn","it":"Эs-sanamejn","ru":"Эс-санамейн","uk":"Эс-санамейн","de":"Эs-sanamejn","es":"Эs-sanamejn","en":"Эс-санамейн","fr":"Эs-sanamejn"}},{"country":"SY","name":"As safīrah","admin1Code":"SY.09","latitude":36.07696,"longitude":37.37251,"translations":{"pt":"As safīrah","it":"As safīrah","ru":"As safīrah","uk":"As safīrah","de":"As safīrah","es":"As safīrah","en":"As safīrah","fr":"As safīrah"}},{"country":"SY","name":"Ar rastan","admin1Code":"SY.11","latitude":34.92667,"longitude":36.73241,"translations":{"pt":"Ar rastan","it":"Ar rastan","ru":"Ar rastan","uk":"Ar rastan","de":"Ar rastan","es":"Ar rastan","en":"Ar rastan","fr":"Ar rastan"}},{"country":"SY","name":"Rakka","admin1Code":"SY.04","latitude":35.95283,"longitude":39.00788,"translations":{"pt":"Rakka","it":"Rakka","ru":"Ар-ракка","uk":"Rakka","de":"Ar-raqqah","es":"Raqqa","en":"Rakka","fr":"Rakka"}},{"country":"SY","name":"An nabk","admin1Code":"SY.08","latitude":34.02403,"longitude":36.72848,"translations":{"pt":"An nabk","it":"An nabk","ru":"An nabk","uk":"An nabk","de":"An nabk","es":"An nabk","en":"An nabk","fr":"An nabk"}},{"country":"SY","name":"‘āmūdā","admin1Code":"SY.01","latitude":37.10417,"longitude":40.93,"translations":{"pt":"‘āmūdā","it":"‘āmūdā","ru":"‘āmūdā","uk":"‘āmūdā","de":"‘āmūdā","es":"‘āmūdā","en":"‘āmūdā","fr":"‘āmūdā"}},{"country":"SY","name":"Al quţayfah","admin1Code":"SY.08","latitude":33.73848,"longitude":36.60071,"translations":{"pt":"Al quţayfah","it":"Al quţayfah","ru":"Al quţayfah","uk":"Al quţayfah","de":"Al quţayfah","es":"Al quţayfah","en":"Al quţayfah","fr":"Al quţayfah"}},{"country":"SY","name":"Аль-кусайра","admin1Code":"SY.11","latitude":34.5078,"longitude":36.58029,"translations":{"pt":"Al'-kusajra","it":"Al'-kusajra","ru":"Аль-кусайра","uk":"Аль-кусайра","de":"Al'-kusajra","es":"Al'-kusajra","en":"Аль-кусайра","fr":"Al'-kusajra"}},{"country":"SY","name":"Quneitra","admin1Code":"SY.03","latitude":33.12595,"longitude":35.82461,"translations":{"pt":"Quneitra","it":"Quneitra","ru":"Эль-кунейтра","uk":"Ель-кунейтра","de":"Kuneitra","es":"Quneitra","en":"Quneitra","fr":"Qouneitra"}},{"country":"SY","name":"Quayatein","admin1Code":"SY.11","latitude":34.22956,"longitude":37.24066,"translations":{"pt":"Quayatein","it":"Quayatein","ru":"Quayatein","uk":"Quayatein","de":"Quayatein","es":"Quayatein","en":"Quayatein","fr":"Quayatein"}},{"country":"SY","name":"Al mayādīn","admin1Code":"SY.07","latitude":35.01982,"longitude":40.45154,"translations":{"pt":"Al mayādīn","it":"Al mayādīn","ru":"Al mayādīn","uk":"Al mayādīn","de":"Al mayādīn","es":"Al mayādīn","en":"Al mayādīn","fr":"Al mayādīn"}},{"country":"SY","name":"Latakia","admin1Code":"SY.02","latitude":35.53168,"longitude":35.79011,"translations":{"pt":"Lataquia","it":"Latakia","ru":"Латакия","uk":"Латакія","de":"Latakia","es":"Latakia","en":"Latakia","fr":"Lattaquié"}},{"country":"SY","name":"Al kiswah","admin1Code":"SY.08","latitude":33.3581,"longitude":36.2419,"translations":{"pt":"Al kiswah","it":"Al kiswah","ru":"Al kiswah","uk":"Al kiswah","de":"Al kiswah","es":"Al kiswah","en":"Al kiswah","fr":"Al kiswah"}},{"country":"SY","name":"Al ḩasakah","admin1Code":"SY.01","latitude":36.50237,"longitude":40.74772,"translations":{"pt":"Al ḩasakah","it":"Al ḩasakah","ru":"Al ḩasakah","uk":"Al ḩasakah","de":"Al ḩasakah","es":"Al ḩasakah","en":"Al ḩasakah","fr":"Al ḩasakah"}},{"country":"SY","name":"Al ḩirāk","admin1Code":"SY.06","latitude":32.74948,"longitude":36.30582,"translations":{"pt":"Al ḩirāk","it":"Al ḩirāk","ru":"Al ḩirāk","uk":"Al ḩirāk","de":"Al ḩirāk","es":"Al ḩirāk","en":"Al ḩirāk","fr":"Al ḩirāk"}},{"country":"SY","name":"Al bāb","admin1Code":"SY.09","latitude":36.37051,"longitude":37.5157,"translations":{"pt":"Al bāb","it":"Al bāb","ru":"Al bāb","uk":"Al bāb","de":"Al bāb","es":"Al bāb","en":"Al bāb","fr":"Al bāb"}},{"country":"SY","name":"Afrin","admin1Code":"SY.09","latitude":36.51194,"longitude":36.86954,"translations":{"pt":"Afrin","it":"Afrin","ru":"Afrin","uk":"Afrin","de":"Afrin","es":"Afrin","en":"Afrin","fr":"Afrin"}},{"country":"SY","name":"Ad dānā","admin1Code":"SY.12","latitude":36.21254,"longitude":36.76998,"translations":{"pt":"Ad dānā","it":"Ad dānā","ru":"Ad dānā","uk":"Ad dānā","de":"Ad dānā","es":"Ad dānā","en":"Ad dānā","fr":"Ad dānā"}},{"country":"SY","name":"Абу-камаль","admin1Code":"SY.07","latitude":34.45226,"longitude":40.91854,"translations":{"pt":"Abu-kamal'","it":"Abu-kamal'","ru":"Абу-камаль","uk":"Абу-камаль","de":"Abu-kamal'","es":"Abu-kamal'","en":"Абу-камаль","fr":"Abu-kamal'"}},{"country":"SY","name":"Hajīn","admin1Code":"SY.07","latitude":34.69508,"longitude":40.83138,"translations":{"pt":"Hajīn","it":"Hajīn","ru":"Hajīn","uk":"Hajīn","de":"Hajīn","es":"Hajīn","en":"Hajīn","fr":"Hajīn"}}]