[{"country":"GE","name":"Zugdidi","admin1Code":"GE.71","latitude":42.5088,"longitude":41.87088,"translations":{"pt":"Zugdidi","it":"Zugdidi","ru":"Зугдиди","uk":"Zugdidi","de":"Sugdidi","es":"Zugdidi","en":"Zugdidi","fr":"Zugdidi"}},{"country":"GE","name":"Zestaponi","admin1Code":"GE.66","latitude":42.10752,"longitude":43.03291,"translations":{"pt":"Zestaponi","it":"Zestaponi","ru":"Зестафони","uk":"Zestaponi","de":"Zestaponi","es":"Zestaponi","en":"Zestaponi","fr":"Zestaponi"}},{"country":"GE","name":"Ts'khinvali","admin1Code":"GE.73","latitude":42.22764,"longitude":43.96861,"translations":{"pt":"Ts'khinvali","it":"Ts'khinvali","ru":"Цхинвали","uk":"Ts'khinvali","de":"Ts'khinvali","es":"Ts'khinvali","en":"Ts'khinvali","fr":"Ts'khinvali"}},{"country":"GE","name":"Tkuarchal","admin1Code":"GE.02","latitude":42.84035,"longitude":41.68007,"translations":{"pt":"Tkuarchal","it":"Tkuarchal","ru":"Ткуарчал","uk":"Tkuarchal","de":"Tkuarchal","es":"Tkuarchal","en":"Tkuarchal","fr":"Tkuarchal"}},{"country":"GE","name":"Telavi","admin1Code":"GE.67","latitude":41.91978,"longitude":45.47315,"translations":{"pt":"Telavi","it":"Telavi","ru":"Телави","uk":"Telavi","de":"Telawi","es":"Telavi","en":"Telavi","fr":"Telavi"}},{"country":"GE","name":"Tbilisi","admin1Code":"GE.51","latitude":41.69411,"longitude":44.83368,"translations":{"pt":"Tiblíssi","it":"Tbilisi","ru":"Тбилиси","uk":"Тбілісі","de":"Tiflis","es":"Tiflis","en":"Tbilisi","fr":"Tbilissi"}},{"country":"GE","name":"Sukhumi","admin1Code":"GE.02","latitude":43.00697,"longitude":40.9893,"translations":{"pt":"Sukhumi","it":"Sukhumi","ru":"Сухум","uk":"Sukhumi","de":"Sochumi","es":"Sujumi","en":"Sukhumi","fr":"Soukhoumi"}},{"country":"GE","name":"Senaki","admin1Code":"GE.71","latitude":42.27077,"longitude":42.06334,"translations":{"pt":"Senaki","it":"Senaki","ru":"Сенаки","uk":"Senaki","de":"Senaki","es":"Senaki","en":"Senaki","fr":"Senaki"}},{"country":"GE","name":"Samtredia","admin1Code":"GE.66","latitude":42.1537,"longitude":42.33517,"translations":{"pt":"Samtredia","it":"Samtredia","ru":"Самтредиа","uk":"Samtredia","de":"Samtredia","es":"Samtredia","en":"Samtredia","fr":"Samtredia"}},{"country":"GE","name":"Rustavi","admin1Code":"GE.68","latitude":41.56271,"longitude":44.9787,"translations":{"pt":"Rustavi","it":"Rustavi","ru":"Рустави","uk":"Rustavi","de":"Rustawi","es":"Rustavi","en":"Rustavi","fr":"Roustavi"}},{"country":"GE","name":"Поти","admin1Code":"GE.71","latitude":42.14272,"longitude":41.67384,"translations":{"pt":"Poty","it":"Poty","ru":"Поти","uk":"Поти","de":"Poty","es":"Poty","en":"Поти","fr":"Poty"}},{"country":"GE","name":"Och'amch'ire","admin1Code":"GE.02","latitude":42.71232,"longitude":41.46863,"translations":{"pt":"Och'amch'ire","it":"Och'amch'ire","ru":"Очамчира","uk":"Очамчіре","de":"Och'amch'ire","es":"Och'amch'ire","en":"Och'amch'ire","fr":"Och'amch'ire"}},{"country":"GE","name":"Marneuli","admin1Code":"GE.68","latitude":41.48758,"longitude":44.79845,"translations":{"pt":"Marneuli","it":"Marneuli","ru":"Марнеули","uk":"Marneuli","de":"Marneuli","es":"Marneuli","en":"Marneuli","fr":"Marneuli"}},{"country":"GE","name":"Kutaisi","admin1Code":"GE.66","latitude":42.26791,"longitude":42.69459,"translations":{"pt":"Kutaisi","it":"Kutaisi","ru":"Кутаиси","uk":"Кутаїсі","de":"Kutaissi","es":"Kutaisi","en":"Kutaisi","fr":"Koutaïssi"}},{"country":"GE","name":"K'obulet'i","admin1Code":"GE.04","latitude":41.83283,"longitude":41.77823,"translations":{"pt":"K'obulet'i","it":"K'obulet'i","ru":"Кобулети","uk":"Кобулеті","de":"K'obulet'i","es":"K'obulet'i","en":"K'obulet'i","fr":"K'obulet'i"}},{"country":"GE","name":"Khashuri","admin1Code":"GE.73","latitude":41.99733,"longitude":43.59905,"translations":{"pt":"Khashuri","it":"Khashuri","ru":"Хашури","uk":"Хашурі","de":"Khashuri","es":"Jashuri","en":"Khashuri","fr":"Khachouri"}},{"country":"GE","name":"Gori","admin1Code":"GE.73","latitude":41.98422,"longitude":44.11578,"translations":{"pt":"Gori","it":"Gori","ru":"Гори","uk":"Gori","de":"Gori","es":"Gori","en":"Gori","fr":"Gori"}},{"country":"GE","name":"Batumi","admin1Code":"GE.04","latitude":41.64228,"longitude":41.63392,"translations":{"pt":"Batumi","it":"Batumi","ru":"Батуми","uk":"Батумі","de":"Batumi","es":"Batum","en":"Batumi","fr":"Batoumi"}},{"country":"GE","name":"Akhalts'ikhe","admin1Code":"GE.72","latitude":41.63901,"longitude":42.98262,"translations":{"pt":"Akhalts'ikhe","it":"Akhalts'ikhe","ru":"Ахалцихе","uk":"Ахалціхе","de":"Akhalts'ikhe","es":"Ajaltsije","en":"Akhalts'ikhe","fr":"Akhaltsikhé"}},{"country":"GE","name":"Новый афон","admin1Code":"GE.02","latitude":43.08056,"longitude":40.83833,"translations":{"pt":"Novыj afon","it":"Novыj afon","ru":"Новый афон","uk":"Новый афон","de":"Novыj afon","es":"Novыj afon","en":"Новый афон","fr":"Novыj afon"}},{"country":"GE","name":"Tsqaltubo","admin1Code":"GE.66","latitude":42.32858,"longitude":42.59808,"translations":{"pt":"Tsqaltubo","it":"Tsqaltubo","ru":"Цхалтубо","uk":"Tsqaltubo","de":"Tsqaltubo","es":"Tsqaltubo","en":"Tsqaltubo","fr":"Tsqaltubo"}}]