[{"country":"RW","name":"Рвамагана","admin1Code":"RW.11","latitude":-1.9487,"longitude":30.4347,"translations":{"pt":"Rvamahana","it":"Rvamahana","ru":"Рвамагана","uk":"Рвамагана","de":"Rvamahana","es":"Rvamahana","en":"Рвамагана","fr":"Rvamahana"}},{"country":"RW","name":"Ruhengeri","admin1Code":"RW.13","latitude":-1.49984,"longitude":29.63497,"translations":{"pt":"Ruhengeri","it":"Ruhengeri","ru":"Рухенгери","uk":"Ruhengeri","de":"Ruhengeri","es":"Ruhengeri","en":"Ruhengeri","fr":"Ruhengeri"}},{"country":"RW","name":"Ruhango","admin1Code":"RW.15","latitude":-2.2246,"longitude":29.79088,"translations":{"pt":"Ruhango","it":"Ruhango","ru":"Ruhango","uk":"Ruhango","de":"Ruhango","es":"Ruhango","en":"Ruhango","fr":"Ruhango"}},{"country":"RW","name":"Mugina","admin1Code":"RW.15","latitude":-2.1057,"longitude":29.9417,"translations":{"pt":"Mugina","it":"Mugina","ru":"Mugina","uk":"Mugina","de":"Mugina","es":"Mugina","en":"Mugina","fr":"Mugina"}},{"country":"RW","name":"Nzega","admin1Code":"RW.15","latitude":-2.479,"longitude":29.5564,"translations":{"pt":"Nzega","it":"Nzega","ru":"Nzega","uk":"Nzega","de":"Nzega","es":"Nzega","en":"Nzega","fr":"Nzega"}},{"country":"RW","name":"Kirimbi","admin1Code":"RW.14","latitude":-2.26469,"longitude":29.19644,"translations":{"pt":"Kirimbi","it":"Kirimbi","ru":"Kirimbi","uk":"Kirimbi","de":"Kirimbi","es":"Kirimbi","en":"Kirimbi","fr":"Kirimbi"}},{"country":"RW","name":"Kigali","admin1Code":"RW.12","latitude":-1.94995,"longitude":30.05885,"translations":{"pt":"Kigali","it":"Kigali","ru":"Кигали","uk":"Кігалі","de":"Kigali","es":"Kigali","en":"Kigali","fr":"Kigali"}},{"country":"RW","name":"Kibuye","admin1Code":"RW.14","latitude":-2.06028,"longitude":29.34778,"translations":{"pt":"Kibuye","it":"Kibuye","ru":"Кибуе","uk":"Kibuye","de":"Kibuye","es":"Kibuye","en":"Kibuye","fr":"Kibuye"}},{"country":"RW","name":"Кибунго","admin1Code":"RW.11","latitude":-2.1597,"longitude":30.5427,"translations":{"pt":"Kybunho","it":"Kybunho","ru":"Кибунго","uk":"Кибунго","de":"Kybunho","es":"Kybunho","en":"Кибунго","fr":"Kybunho"}},{"country":"RW","name":"Gitarama","admin1Code":"RW.15","latitude":-2.07444,"longitude":29.75667,"translations":{"pt":"Gitarama","it":"Gitarama","ru":"Гитараме","uk":"Gitarama","de":"Gitarama","es":"Gitarama","en":"Gitarama","fr":"Gitarama"}},{"country":"RW","name":"Gikongoro","admin1Code":"RW.15","latitude":-2.46397,"longitude":29.57389,"translations":{"pt":"Gikongoro","it":"Gikongoro","ru":"Gikongoro","uk":"Gikongoro","de":"Gikongoro","es":"Gikongoro","en":"Gikongoro","fr":"Gikongoro"}},{"country":"RW","name":"Сиангугу","admin1Code":"RW.14","latitude":-2.4846,"longitude":28.9075,"translations":{"pt":"Syanhuhu","it":"Syanhuhu","ru":"Сиангугу","uk":"Сиангугу","de":"Syanhuhu","es":"Syanhuhu","en":"Сиангугу","fr":"Syanhuhu"}},{"country":"RW","name":"Shangi","admin1Code":"RW.14","latitude":-2.4036,"longitude":29.0059,"translations":{"pt":"Shangi","it":"Shangi","ru":"Shangi","uk":"Shangi","de":"Shangi","es":"Shangi","en":"Shangi","fr":"Shangi"}},{"country":"RW","name":"Kirambo","admin1Code":"RW.14","latitude":-2.3155,"longitude":29.1415,"translations":{"pt":"Kirambo","it":"Kirambo","ru":"Kirambo","uk":"Kirambo","de":"Kirambo","es":"Kirambo","en":"Kirambo","fr":"Kirambo"}},{"country":"RW","name":"Karengera","admin1Code":"RW.14","latitude":-2.5169,"longitude":29.0326,"translations":{"pt":"Karengera","it":"Karengera","ru":"Karengera","uk":"Karengera","de":"Karengera","es":"Karengera","en":"Karengera","fr":"Karengera"}},{"country":"RW","name":"Gisenyi","admin1Code":"RW.14","latitude":-1.70278,"longitude":29.25639,"translations":{"pt":"Gisenyi","it":"Gisenyi","ru":"Гисеньи","uk":"Gisenyi","de":"Gisenyi","es":"Gisenyi","en":"Gisenyi","fr":"Gisenyi"}},{"country":"RW","name":"Bushekeri","admin1Code":"RW.14","latitude":-2.4195,"longitude":29.0908,"translations":{"pt":"Bushekeri","it":"Bushekeri","ru":"Bushekeri","uk":"Bushekeri","de":"Bushekeri","es":"Bushekeri","en":"Bushekeri","fr":"Bushekeri"}},{"country":"RW","name":"Byumba","admin1Code":"RW.13","latitude":-1.5763,"longitude":30.0675,"translations":{"pt":"Byumba","it":"Byumba","ru":"Биумба","uk":"Byumba","de":"Byumba","es":"Byumba","en":"Byumba","fr":"Byumba"}},{"country":"RW","name":"Butare","admin1Code":"RW.15","latitude":-2.59667,"longitude":29.73944,"translations":{"pt":"Butare","it":"Butare","ru":"Бутаре","uk":"Butare","de":"Butare","es":"Butare","en":"Butare","fr":"Butare"}},{"country":"RW","name":"Bugarama","admin1Code":"RW.14","latitude":-2.6924,"longitude":29.0077,"translations":{"pt":"Bugarama","it":"Bugarama","ru":"Bugarama","uk":"Bugarama","de":"Bugarama","es":"Bugarama","en":"Bugarama","fr":"Bugarama"}},{"country":"RW","name":"Rangiro","admin1Code":"RW.14","latitude":-2.4045,"longitude":29.1606,"translations":{"pt":"Rangiro","it":"Rangiro","ru":"Rangiro","uk":"Rangiro","de":"Rangiro","es":"Rangiro","en":"Rangiro","fr":"Rangiro"}},{"country":"RW","name":"Kora","admin1Code":"RW.14","latitude":-1.6101,"longitude":29.445,"translations":{"pt":"Kora","it":"Kora","ru":"Kora","uk":"Kora","de":"Kora","es":"Kora","en":"Kora","fr":"Kora"}},{"country":"RW","name":"Mukamira","admin1Code":"RW.14","latitude":-1.61112,"longitude":29.49687,"translations":{"pt":"Mukamira","it":"Mukamira","ru":"Mukamira","uk":"Mukamira","de":"Mukamira","es":"Mukamira","en":"Mukamira","fr":"Mukamira"}},{"country":"RW","name":"Mukingo","admin1Code":"RW.13","latitude":-1.5394,"longitude":29.5558,"translations":{"pt":"Mukingo","it":"Mukingo","ru":"Mukingo","uk":"Mukingo","de":"Mukingo","es":"Mukingo","en":"Mukingo","fr":"Mukingo"}},{"country":"RW","name":"Kayonza","admin1Code":"RW.11","latitude":-1.9509,"longitude":30.5205,"translations":{"pt":"Kayonza","it":"Kayonza","ru":"Kayonza","uk":"Kayonza","de":"Kayonza","es":"Kayonza","en":"Kayonza","fr":"Kayonza"}},{"country":"RW","name":"Macuba","admin1Code":"RW.14","latitude":-2.2933,"longitude":29.1877,"translations":{"pt":"Macuba","it":"Macuba","ru":"Macuba","uk":"Macuba","de":"Macuba","es":"Macuba","en":"Macuba","fr":"Macuba"}},{"country":"RW","name":"Karambi","admin1Code":"RW.14","latitude":-2.31695,"longitude":29.24413,"translations":{"pt":"Karambi","it":"Karambi","ru":"Karambi","uk":"Karambi","de":"Karambi","es":"Karambi","en":"Karambi","fr":"Karambi"}},{"country":"RW","name":"Kagano","admin1Code":"RW.14","latitude":-2.3429,"longitude":29.0912,"translations":{"pt":"Kagano","it":"Kagano","ru":"Kagano","uk":"Kagano","de":"Kagano","es":"Kagano","en":"Kagano","fr":"Kagano"}},{"country":"RW","name":"Nyabitekeli","admin1Code":"RW.14","latitude":-2.3541,"longitude":29.0298,"translations":{"pt":"Nyabitekeli","it":"Nyabitekeli","ru":"Nyabitekeli","uk":"Nyabitekeli","de":"Nyabitekeli","es":"Nyabitekeli","en":"Nyabitekeli","fr":"Nyabitekeli"}},{"country":"RW","name":"Cyato","admin1Code":"RW.14","latitude":-2.3871,"longitude":29.1929,"translations":{"pt":"Cyato","it":"Cyato","ru":"Cyato","uk":"Cyato","de":"Cyato","es":"Cyato","en":"Cyato","fr":"Cyato"}},{"country":"RW","name":"Bushenge","admin1Code":"RW.14","latitude":-2.4421,"longitude":28.9824,"translations":{"pt":"Bushenge","it":"Bushenge","ru":"Bushenge","uk":"Bushenge","de":"Bushenge","es":"Bushenge","en":"Bushenge","fr":"Bushenge"}},{"country":"RW","name":"Nyanza","admin1Code":"RW.15","latitude":-2.35187,"longitude":29.75089,"translations":{"pt":"Nyanza","it":"Nyanza","ru":"Nyanza","uk":"Nyanza","de":"Nyanza","es":"Nyanza","en":"Nyanza","fr":"Nyanza"}},{"country":"RW","name":"Nyamata","admin1Code":"RW.11","latitude":-2.20419,"longitude":30.14494,"translations":{"pt":"Nyamata","it":"Nyamata","ru":"Nyamata","uk":"Nyamata","de":"Nyamata","es":"Nyamata","en":"Nyamata","fr":"Nyamata"}},{"country":"RW","name":"Gihombo","admin1Code":"RW.14","latitude":-2.21896,"longitude":29.2343,"translations":{"pt":"Gihombo","it":"Gihombo","ru":"Gihombo","uk":"Gihombo","de":"Gihombo","es":"Gihombo","en":"Gihombo","fr":"Gihombo"}},{"country":"RW","name":"Mahembe","admin1Code":"RW.14","latitude":-2.2386,"longitude":29.2929,"translations":{"pt":"Mahembe","it":"Mahembe","ru":"Mahembe","uk":"Mahembe","de":"Mahembe","es":"Mahembe","en":"Mahembe","fr":"Mahembe"}},{"country":"RW","name":"Bugaragara","admin1Code":"RW.11","latitude":-1.29289,"longitude":30.40766,"translations":{"pt":"Bugaragara","it":"Bugaragara","ru":"Bugaragara","uk":"Bugaragara","de":"Bugaragara","es":"Bugaragara","en":"Bugaragara","fr":"Bugaragara"}},{"country":"RW","name":"Kamuhanda / ruyenzi","admin1Code":"RW.15","latitude":-1.96571,"longitude":29.98462,"translations":{"pt":"Kamuhanda / ruyenzi","it":"Kamuhanda / ruyenzi","ru":"Kamuhanda / ruyenzi","uk":"Kamuhanda / ruyenzi","de":"Kamuhanda / ruyenzi","es":"Kamuhanda / ruyenzi","en":"Kamuhanda / ruyenzi","fr":"Kamuhanda / ruyenzi"}},{"country":"RW","name":"Umutara","admin1Code":"RW.11","latitude":-1.29547,"longitude":30.32297,"translations":{"pt":"Umutara","it":"Umutara","ru":"Umutara","uk":"Umutara","de":"Umutara","es":"Umutara","en":"Umutara","fr":"Umutara"}}]