[{"country":"CU","name":"Yara","admin1Code":"CU.09","latitude":20.27465,"longitude":-76.95132,"translations":{"pt":"Yara","it":"Yara","ru":"Yara","uk":"Yara","de":"Yara","es":"Yara","en":"Yara","fr":"Yara"}},{"country":"CU","name":"Yaguajay","admin1Code":"CU.14","latitude":22.32691,"longitude":-79.23567,"translations":{"pt":"Yaguajay","it":"Yaguajay","ru":"Yaguajay","uk":"Yaguajay","de":"Yaguajay","es":"Yaguajay","en":"Yaguajay","fr":"Yaguajay"}},{"country":"CU","name":"Viñales","admin1Code":"CU.01","latitude":22.61892,"longitude":-83.70694,"translations":{"pt":"Viñales","it":"Viñales","ru":"Виньялес","uk":"Viñales","de":"Viñales","es":"Viñales","en":"Viñales","fr":"Viñales"}},{"country":"CU","name":"Víbora park","admin1Code":"CU.02","latitude":23.08105,"longitude":-82.35448,"translations":{"pt":"Víbora park","it":"Víbora park","ru":"Víbora park","uk":"Víbora park","de":"Víbora park","es":"Víbora park","en":"Víbora park","fr":"Víbora park"}},{"country":"CU","name":"Vertientes","admin1Code":"CU.05","latitude":21.25817,"longitude":-78.14979,"translations":{"pt":"Vertientes","it":"Vertientes","ru":"Vertientes","uk":"Vertientes","de":"Vertientes","es":"Vertientes","en":"Vertientes","fr":"Vertientes"}},{"country":"CU","name":"Venezuela","admin1Code":"CU.07","latitude":21.73748,"longitude":-78.79336,"translations":{"pt":"Venezuela","it":"Venezuela","ru":"Venezuela","uk":"Venezuela","de":"Venezuela","es":"Venezuela","en":"Venezuela","fr":"Venezuela"}},{"country":"CU","name":"Vedado del cotorro","admin1Code":"CU.02","latitude":23.05,"longitude":-82.25,"translations":{"pt":"Vedado del cotorro","it":"Vedado del cotorro","ru":"Vedado del cotorro","uk":"Vedado del cotorro","de":"Vedado del cotorro","es":"Vedado del cotorro","en":"Vedado del cotorro","fr":"Vedado del cotorro"}},{"country":"CU","name":"Vedado","admin1Code":"CU.02","latitude":23.13767,"longitude":-82.39339,"translations":{"pt":"Vedado","it":"Vedado","ru":"Vedado","uk":"Vedado","de":"Vedado","es":"Vedado","en":"Vedado","fr":"Vedado"}},{"country":"CU","name":"Varadero","admin1Code":"CU.03","latitude":23.15678,"longitude":-81.24441,"translations":{"pt":"Varadero","it":"Varadero","ru":"Варадеро","uk":"Варадеро","de":"Varadero","es":"Varadero","en":"Varadero","fr":"Varadero"}},{"country":"CU","name":"San germán","admin1Code":"CU.12","latitude":20.60009,"longitude":-76.13364,"translations":{"pt":"San germán","it":"San germán","ru":"San germán","uk":"San germán","de":"San germán","es":"San germán","en":"San germán","fr":"San germán"}},{"country":"CU","name":"Unión de reyes","admin1Code":"CU.03","latitude":22.79505,"longitude":-81.53617,"translations":{"pt":"Unión de reyes","it":"Unión de reyes","ru":"Unión de reyes","uk":"Unión de reyes","de":"Unión de reyes","es":"Unión de reyes","en":"Unión de reyes","fr":"Unión de reyes"}},{"country":"CU","name":"Trinidad","admin1Code":"CU.14","latitude":21.80224,"longitude":-79.98467,"translations":{"pt":"Trinidad","it":"Trinidad","ru":"Тринидад","uk":"Тринідад","de":"Trinidad","es":"Trinidad","en":"Trinidad","fr":"Trinidad"}},{"country":"CU","name":"Sibanicú","admin1Code":"CU.05","latitude":21.23631,"longitude":-77.52561,"translations":{"pt":"Sibanicú","it":"Sibanicú","ru":"Sibanicú","uk":"Sibanicú","de":"Sibanicú","es":"Sibanicú","en":"Sibanicú","fr":"Sibanicú"}},{"country":"CU","name":"Santo domingo","admin1Code":"CU.16","latitude":22.58677,"longitude":-80.24261,"translations":{"pt":"Santo domingo","it":"Santo domingo","ru":"Santo domingo","uk":"Santo domingo","de":"Santo domingo","es":"Santo domingo","en":"Santo domingo","fr":"Santo domingo"}},{"country":"CU","name":"Сантьяго-де-лас-вегас","admin1Code":"CU.02","latitude":22.97,"longitude":-82.38694,"translations":{"pt":"Sant'jaho-de-las-vehas","it":"Sant'jaho-de-las-vehas","ru":"Сантьяго-де-лас-вегас","uk":"Сантьяго-де-лас-вегас","de":"Sant'jaho-de-las-vehas","es":"Sant'jaho-de-las-vehas","en":"Сантьяго-де-лас-вегас","fr":"Sant'jaho-de-las-vehas"}},{"country":"CU","name":"Santiago de cuba","admin1Code":"CU.15","latitude":20.02083,"longitude":-75.82667,"translations":{"pt":"Santiago de cuba","it":"Santiago di cuba","ru":"Сантьяго-де-куба","uk":"Сантьяго-де-куба","de":"Santiago de cuba","es":"Santiago de cuba","en":"Santiago de cuba","fr":"Santiago de cuba"}},{"country":"CU","name":"Santa cruz del sur","admin1Code":"CU.05","latitude":20.71633,"longitude":-77.99816,"translations":{"pt":"Santa cruz del sur","it":"Santa cruz del sur","ru":"Santa cruz del sur","uk":"Santa cruz del sur","de":"Santa cruz del sur","es":"Santa cruz del sur","en":"Santa cruz del sur","fr":"Santa cruz del sur"}},{"country":"CU","name":"Santa cruz del norte","admin1Code":"CU.MA","latitude":23.15356,"longitude":-81.92262,"translations":{"pt":"Santa cruz del norte","it":"Santa cruz del norte","ru":"Santa cruz del norte","uk":"Santa cruz del norte","de":"Santa cruz del norte","es":"Santa cruz del norte","en":"Santa cruz del norte","fr":"Santa cruz del norte"}},{"country":"CU","name":"Santa clara","admin1Code":"CU.16","latitude":22.40694,"longitude":-79.96472,"translations":{"pt":"Santa clara","it":"Santa clara","ru":"Санта клара","uk":"Санта-клара","de":"Santa clara","es":"Santa clara","en":"Santa clara","fr":"Santa clara"}},{"country":"CU","name":"San miguel del padrón","admin1Code":"CU.02","latitude":23.09544,"longitude":-82.32669,"translations":{"pt":"San miguel del padrón","it":"San miguel del padrón","ru":"San miguel del padrón","uk":"San miguel del padrón","de":"San miguel del padrón","es":"San miguel del padrón","en":"San miguel del padrón","fr":"San miguel del padrón"}},{"country":"CU","name":"San luis","admin1Code":"CU.15","latitude":20.18809,"longitude":-75.85031,"translations":{"pt":"San luis","it":"San luis","ru":"San luis","uk":"San luis","de":"San luis","es":"San luis","en":"San luis","fr":"San luis"}},{"country":"CU","name":"San josé de las lajas","admin1Code":"CU.MA","latitude":22.96139,"longitude":-82.15111,"translations":{"pt":"San josé de las lajas","it":"San josé de las lajas","ru":"San josé de las lajas","uk":"San josé de las lajas","de":"San josé de las lajas","es":"San josé de las lajas","en":"San josé de las lajas","fr":"San josé de las lajas"}},{"country":"CU","name":"Sancti spíritus","admin1Code":"CU.14","latitude":21.92972,"longitude":-79.4425,"translations":{"pt":"Sancti spíritus","it":"Sancti spíritus","ru":"Санкти-спиритус","uk":"Sancti spíritus","de":"Sancti spíritus","es":"Sancti spíritus","en":"Sancti spíritus","fr":"Sancti spíritus"}},{"country":"CU","name":"San cristóbal","admin1Code":"CU.AR","latitude":22.71658,"longitude":-83.05647,"translations":{"pt":"San cristóbal","it":"San cristóbal","ru":"San cristóbal","uk":"San cristóbal","de":"San cristóbal","es":"San cristóbal","en":"San cristóbal","fr":"San cristóbal"}},{"country":"CU","name":"San antonio de los baños","admin1Code":"CU.AR","latitude":22.89018,"longitude":-82.50099,"translations":{"pt":"San antonio de los baños","it":"San antonio de los baños","ru":"San antonio de los baños","uk":"San antonio de los baños","de":"San antonio de los baños","es":"San antonio de los baños","en":"San antonio de los baños","fr":"San antonio de los baños"}},{"country":"CU","name":"Sagua la grande","admin1Code":"CU.16","latitude":22.80667,"longitude":-80.07556,"translations":{"pt":"Sagua la grande","it":"Sagua la grande","ru":"Sagua la grande","uk":"Sagua la grande","de":"Sagua la grande","es":"Sagua la grande","en":"Sagua la grande","fr":"Sagua la grande"}},{"country":"CU","name":"Sagua de tánamo","admin1Code":"CU.12","latitude":20.58269,"longitude":-75.24116,"translations":{"pt":"Sagua de tánamo","it":"Sagua de tánamo","ru":"Sagua de tánamo","uk":"Sagua de tánamo","de":"Sagua de tánamo","es":"Sagua de tánamo","en":"Sagua de tánamo","fr":"Sagua de tánamo"}},{"country":"CU","name":"Родас","admin1Code":"CU.08","latitude":22.34184,"longitude":-80.55596,"translations":{"pt":"Rodas","it":"Rodas","ru":"Родас","uk":"Родас","de":"Rodas","es":"Rodas","en":"Родас","fr":"Rodas"}},{"country":"CU","name":"Río guayabal de yateras","admin1Code":"CU.10","latitude":20.36667,"longitude":-75.01667,"translations":{"pt":"Río guayabal de yateras","it":"Río guayabal de yateras","ru":"Río guayabal de yateras","uk":"Río guayabal de yateras","de":"Río guayabal de yateras","es":"Río guayabal de yateras","en":"Río guayabal de yateras","fr":"Río guayabal de yateras"}},{"country":"CU","name":"Río cauto","admin1Code":"CU.09","latitude":20.55971,"longitude":-76.91673,"translations":{"pt":"Río cauto","it":"Río cauto","ru":"Río cauto","uk":"Río cauto","de":"Río cauto","es":"Río cauto","en":"Río cauto","fr":"Río cauto"}},{"country":"CU","name":"Ремедиос","admin1Code":"CU.16","latitude":22.49502,"longitude":-79.54548,"translations":{"pt":"Remedyos","it":"Remedyos","ru":"Ремедиос","uk":"Ремедиос","de":"Remedyos","es":"Remedyos","en":"Ремедиос","fr":"Remedyos"}},{"country":"CU","name":"Regla","admin1Code":"CU.02","latitude":23.125,"longitude":-82.33194,"translations":{"pt":"Regla","it":"Regla","ru":"Regla","uk":"Regla","de":"Regla","es":"Regla","en":"Regla","fr":"Regla"}},{"country":"CU","name":"Ranchuelo","admin1Code":"CU.16","latitude":22.37266,"longitude":-80.15046,"translations":{"pt":"Ranchuelo","it":"Ranchuelo","ru":"Ranchuelo","uk":"Ranchuelo","de":"Ranchuelo","es":"Ranchuelo","en":"Ranchuelo","fr":"Ranchuelo"}},{"country":"CU","name":"Puerto padre","admin1Code":"CU.13","latitude":21.19517,"longitude":-76.60358,"translations":{"pt":"Puerto padre","it":"Puerto padre","ru":"Пуэрто-падре","uk":"Puerto padre","de":"Puerto padre","es":"Puerto padre","en":"Puerto padre","fr":"Puerto padre"}},{"country":"CU","name":"Primero de enero","admin1Code":"CU.07","latitude":21.94501,"longitude":-78.4313,"translations":{"pt":"Primero de enero","it":"Primero de enero","ru":"Primero de enero","uk":"Primero de enero","de":"Primero de enero","es":"Primero de enero","en":"Primero de enero","fr":"Primero de enero"}},{"country":"CU","name":"Placetas","admin1Code":"CU.16","latitude":22.31184,"longitude":-79.6544,"translations":{"pt":"Placetas","it":"Placetas","ru":"Placetas","uk":"Placetas","de":"Placetas","es":"Placetas","en":"Placetas","fr":"Placetas"}},{"country":"CU","name":"Pinar del río","admin1Code":"CU.01","latitude":22.41667,"longitude":-83.69667,"translations":{"pt":"Pinar del río","it":"Pinar del río","ru":"Пинар-дель-рио","uk":"Pinar del río","de":"Pinar del río","es":"Pinar del río","en":"Pinar del río","fr":"Pinar del río"}},{"country":"CU","name":"Perico","admin1Code":"CU.03","latitude":22.76987,"longitude":-81.0183,"translations":{"pt":"Perico","it":"Perico","ru":"Perico","uk":"Perico","de":"Perico","es":"Perico","en":"Perico","fr":"Perico"}},{"country":"CU","name":"Pedro betancourt","admin1Code":"CU.03","latitude":22.72709,"longitude":-81.28963,"translations":{"pt":"Pedro betancourt","it":"Pedro betancourt","ru":"Pedro betancourt","uk":"Pedro betancourt","de":"Pedro betancourt","es":"Pedro betancourt","en":"Pedro betancourt","fr":"Pedro betancourt"}},{"country":"CU","name":"Palmira","admin1Code":"CU.08","latitude":22.24126,"longitude":-80.3911,"translations":{"pt":"Palmira","it":"Palmira","ru":"Palmira","uk":"Palmira","de":"Palmira","es":"Palmira","en":"Palmira","fr":"Palmira"}},{"country":"CU","name":"Palma soriano","admin1Code":"CU.15","latitude":20.2113,"longitude":-75.99362,"translations":{"pt":"Palma soriano","it":"Palma soriano","ru":"Palma soriano","uk":"Palma soriano","de":"Palma soriano","es":"Palma soriano","en":"Palma soriano","fr":"Palma soriano"}},{"country":"CU","name":"Nuevitas","admin1Code":"CU.05","latitude":21.54585,"longitude":-77.26504,"translations":{"pt":"Nuevitas","it":"Nuevitas","ru":"Nuevitas","uk":"Nuevitas","de":"Nuevitas","es":"Nuevitas","en":"Nuevitas","fr":"Nuevitas"}},{"country":"CU","name":"Nueva gerona","admin1Code":"CU.04","latitude":21.88667,"longitude":-82.80556,"translations":{"pt":"Nueva gerona","it":"Nueva gerona","ru":"Нуэва-херона","uk":"Нуева-херона","de":"Nueva gerona","es":"Nueva gerona","en":"Nueva gerona","fr":"Nueva gerona"}},{"country":"CU","name":"Niquero","admin1Code":"CU.09","latitude":20.04698,"longitude":-77.58089,"translations":{"pt":"Niquero","it":"Niquero","ru":"Niquero","uk":"Niquero","de":"Niquero","es":"Niquero","en":"Niquero","fr":"Niquero"}},{"country":"CU","name":"Naranjito","admin1Code":"CU.02","latitude":23.07939,"longitude":-82.3769,"translations":{"pt":"Naranjito","it":"Naranjito","ru":"Naranjito","uk":"Naranjito","de":"Naranjito","es":"Naranjito","en":"Naranjito","fr":"Naranjito"}},{"country":"CU","name":"Morón","admin1Code":"CU.07","latitude":22.10774,"longitude":-78.62667,"translations":{"pt":"Morón","it":"Morón","ru":"Морон","uk":"Morón","de":"Morón","es":"Morón","en":"Morón","fr":"Morón"}},{"country":"CU","name":"Moa","admin1Code":"CU.12","latitude":20.65776,"longitude":-74.95075,"translations":{"pt":"Moa","it":"Moa","ru":"Моа","uk":"Moa","de":"Moa","es":"Moa","en":"Moa","fr":"Moa"}},{"country":"CU","name":"Minas de matahambre","admin1Code":"CU.01","latitude":22.58691,"longitude":-83.94551,"translations":{"pt":"Minas de matahambre","it":"Minas de matahambre","ru":"Minas de matahambre","uk":"Minas de matahambre","de":"Minas de matahambre","es":"Minas de matahambre","en":"Minas de matahambre","fr":"Minas de matahambre"}},{"country":"CU","name":"Минас","admin1Code":"CU.05","latitude":21.48802,"longitude":-77.61033,"translations":{"pt":"Mynas","it":"Mynas","ru":"Минас","uk":"Минас","de":"Mynas","es":"Mynas","en":"Минас","fr":"Mynas"}},{"country":"CU","name":"Media luna","admin1Code":"CU.09","latitude":20.14298,"longitude":-77.43532,"translations":{"pt":"Media luna","it":"Media luna","ru":"Media luna","uk":"Media luna","de":"Media luna","es":"Media luna","en":"Media luna","fr":"Media luna"}},{"country":"CU","name":"Matanzas","admin1Code":"CU.03","latitude":23.04111,"longitude":-81.5775,"translations":{"pt":"Matanzas","it":"Matanzas","ru":"Матанзас","uk":"Матансас","de":"Matanzas","es":"Matanzas","en":"Matanzas","fr":"Matanzas"}},{"country":"CU","name":"Mariel","admin1Code":"CU.AR","latitude":22.98931,"longitude":-82.75376,"translations":{"pt":"Mariel","it":"Mariel","ru":"Mariel","uk":"Mariel","de":"Mariel","es":"Mariel","en":"Mariel","fr":"Mariel"}},{"country":"CU","name":"Marianao","admin1Code":"CU.02","latitude":23.07385,"longitude":-82.4189,"translations":{"pt":"Marianao","it":"Marianao","ru":"Marianao","uk":"Marianao","de":"Marianao","es":"Marianao","en":"Marianao","fr":"Marianao"}},{"country":"CU","name":"Manzanillo","admin1Code":"CU.09","latitude":20.34173,"longitude":-77.12126,"translations":{"pt":"Manzanillo","it":"Manzanillo","ru":"Мансанильо","uk":"Manzanillo","de":"Manzanillo","es":"Manzanillo","en":"Manzanillo","fr":"Manzanillo"}},{"country":"CU","name":"Mantilla","admin1Code":"CU.02","latitude":23.06794,"longitude":-82.34143,"translations":{"pt":"Mantilla","it":"Mantilla","ru":"Mantilla","uk":"Mantilla","de":"Mantilla","es":"Mantilla","en":"Mantilla","fr":"Mantilla"}},{"country":"CU","name":"Manicaragua","admin1Code":"CU.16","latitude":22.15021,"longitude":-79.97867,"translations":{"pt":"Manicaragua","it":"Manicaragua","ru":"Manicaragua","uk":"Manicaragua","de":"Manicaragua","es":"Manicaragua","en":"Manicaragua","fr":"Manicaragua"}},{"country":"CU","name":"Punta de maisi","admin1Code":"CU.10","latitude":20.24673,"longitude":-74.15181,"translations":{"pt":"Punta de maisi","it":"Punta de maisi","ru":"Punta de maisi","uk":"Punta de maisi","de":"Punta de maisi","es":"Punta de maisi","en":"Punta de maisi","fr":"Punta de maisi"}},{"country":"CU","name":"Madruga","admin1Code":"CU.MA","latitude":22.91,"longitude":-81.85639,"translations":{"pt":"Madruga","it":"Madruga","ru":"Madruga","uk":"Madruga","de":"Madruga","es":"Madruga","en":"Madruga","fr":"Madruga"}},{"country":"CU","name":"Los palacios","admin1Code":"CU.01","latitude":22.58882,"longitude":-83.24671,"translations":{"pt":"Los palacios","it":"Los palacios","ru":"Los palacios","uk":"Los palacios","de":"Los palacios","es":"Los palacios","en":"Los palacios","fr":"Los palacios"}},{"country":"CU","name":"Limonar","admin1Code":"CU.03","latitude":22.95035,"longitude":-81.41059,"translations":{"pt":"Limonar","it":"Limonar","ru":"Limonar","uk":"Limonar","de":"Limonar","es":"Limonar","en":"Limonar","fr":"Limonar"}},{"country":"CU","name":"Víbora","admin1Code":"CU.02","latitude":23.09387,"longitude":-82.37191,"translations":{"pt":"Víbora","it":"Víbora","ru":"Víbora","uk":"Víbora","de":"Víbora","es":"Víbora","en":"Víbora","fr":"Víbora"}},{"country":"CU","name":"Las tunas","admin1Code":"CU.13","latitude":20.96167,"longitude":-76.95111,"translations":{"pt":"Las tunas","it":"Victoria de las tunas","ru":"Лас-тунас","uk":"Las tunas","de":"Las tunas","es":"Las tunas","en":"Las tunas","fr":"Las tunas"}},{"country":"CU","name":"La sierpe","admin1Code":"CU.14","latitude":21.77241,"longitude":-79.26832,"translations":{"pt":"La sierpe","it":"La sierpe","ru":"La sierpe","uk":"La sierpe","de":"La sierpe","es":"La sierpe","en":"La sierpe","fr":"La sierpe"}},{"country":"CU","name":"Ла салюд","admin1Code":"CU.MA","latitude":22.87199,"longitude":-82.42328,"translations":{"pt":"La saljud","it":"La saljud","ru":"Ла салюд","uk":"Ла салюд","de":"La saljud","es":"La saljud","en":"Ла салюд","fr":"La saljud"}},{"country":"CU","name":"Lajas","admin1Code":"CU.08","latitude":22.41479,"longitude":-80.2931,"translations":{"pt":"Lajas","it":"Lajas","ru":"Lajas","uk":"Lajas","de":"Lajas","es":"Lajas","en":"Lajas","fr":"Lajas"}},{"country":"CU","name":"Havana","admin1Code":"CU.02","latitude":23.13302,"longitude":-82.38304,"translations":{"pt":"Havana","it":"L'avana","ru":"Гавана","uk":"Гавана","de":"Havanna","es":"La habana","en":"Havana","fr":"La havane"}},{"country":"CU","name":"Jovellanos","admin1Code":"CU.03","latitude":22.80375,"longitude":-81.19127,"translations":{"pt":"Jovellanos","it":"Jovellanos","ru":"Jovellanos","uk":"Jovellanos","de":"Jovellanos","es":"Jovellanos","en":"Jovellanos","fr":"Jovellanos"}},{"country":"CU","name":"Jobabo","admin1Code":"CU.12","latitude":20.96917,"longitude":-76.29944,"translations":{"pt":"Jobabo","it":"Jobabo","ru":"Jobabo","uk":"Jobabo","de":"Jobabo","es":"Jobabo","en":"Jobabo","fr":"Jobabo"}},{"country":"CU","name":"Jobabo","admin1Code":"CU.13","latitude":20.90748,"longitude":-77.28194,"translations":{"pt":"Jobabo","it":"Jobabo","ru":"Jobabo","uk":"Jobabo","de":"Jobabo","es":"Jobabo","en":"Jobabo","fr":"Jobabo"}},{"country":"CU","name":"Jiguaní","admin1Code":"CU.09","latitude":20.36785,"longitude":-76.42741,"translations":{"pt":"Jiguaní","it":"Jiguaní","ru":"Jiguaní","uk":"Jiguaní","de":"Jiguaní","es":"Jiguaní","en":"Jiguaní","fr":"Jiguaní"}},{"country":"CU","name":"Jesús menéndez","admin1Code":"CU.13","latitude":21.16139,"longitude":-76.47919,"translations":{"pt":"Jesús menéndez","it":"Jesús menéndez","ru":"Jesús menéndez","uk":"Jesús menéndez","de":"Jesús menéndez","es":"Jesús menéndez","en":"Jesús menéndez","fr":"Jesús menéndez"}},{"country":"CU","name":"Jatibonico","admin1Code":"CU.14","latitude":21.94333,"longitude":-79.16906,"translations":{"pt":"Jatibonico","it":"Jatibonico","ru":"Jatibonico","uk":"Jatibonico","de":"Jatibonico","es":"Jatibonico","en":"Jatibonico","fr":"Jatibonico"}},{"country":"CU","name":"Jaruco","admin1Code":"CU.MA","latitude":23.04419,"longitude":-82.00919,"translations":{"pt":"Jaruco","it":"Jaruco","ru":"Jaruco","uk":"Jaruco","de":"Jaruco","es":"Jaruco","en":"Jaruco","fr":"Jaruco"}},{"country":"CU","name":"Jagüey grande","admin1Code":"CU.03","latitude":22.52694,"longitude":-81.12861,"translations":{"pt":"Jagüey grande","it":"Jagüey grande","ru":"Jagüey grande","uk":"Jagüey grande","de":"Jagüey grande","es":"Jagüey grande","en":"Jagüey grande","fr":"Jagüey grande"}},{"country":"CU","name":"Holguín","admin1Code":"CU.12","latitude":20.88722,"longitude":-76.26306,"translations":{"pt":"Holguín","it":"Holguín","ru":"Ольгин","uk":"Holguín","de":"Holguín","es":"Holguín","en":"Holguín","fr":"Holguín"}},{"country":"CU","name":"Guisa","admin1Code":"CU.09","latitude":20.25494,"longitude":-76.5393,"translations":{"pt":"Guisa","it":"Guisa","ru":"Guisa","uk":"Guisa","de":"Guisa","es":"Guisa","en":"Guisa","fr":"Guisa"}},{"country":"CU","name":"Güira de melena","admin1Code":"CU.AR","latitude":22.79613,"longitude":-82.50667,"translations":{"pt":"Güira de melena","it":"Güira de melena","ru":"Güira de melena","uk":"Güira de melena","de":"Güira de melena","es":"Güira de melena","en":"Güira de melena","fr":"Güira de melena"}},{"country":"CU","name":"Гуинес","admin1Code":"CU.MA","latitude":22.83727,"longitude":-82.02641,"translations":{"pt":"Huynes","it":"Huynes","ru":"Гуинес","uk":"Гуинес","de":"Huynes","es":"Güines","en":"Гуинес","fr":"Huynes"}},{"country":"CU","name":"Guantánamo","admin1Code":"CU.10","latitude":20.14444,"longitude":-75.20917,"translations":{"pt":"Guantánamo","it":"Guantánamo","ru":"Гуантанамо","uk":"Guantánamo","de":"Guantánamo","es":"Guantánamo","en":"Guantánamo","fr":"Guantanamo"}},{"country":"CU","name":"Guane","admin1Code":"CU.01","latitude":22.20179,"longitude":-84.08484,"translations":{"pt":"Guane","it":"Guane","ru":"Guane","uk":"Guane","de":"Guane","es":"Guane","en":"Guane","fr":"Guane"}},{"country":"CU","name":"Guanajay","admin1Code":"CU.AR","latitude":22.92616,"longitude":-82.68687,"translations":{"pt":"Guanajay","it":"Guanajay","ru":"Guanajay","uk":"Guanajay","de":"Guanajay","es":"Guanajay","en":"Guanajay","fr":"Guanajay"}},{"country":"CU","name":"Guanabacoa","admin1Code":"CU.02","latitude":23.12518,"longitude":-82.30067,"translations":{"pt":"Guanabacoa","it":"Guanabacoa","ru":"Guanabacoa","uk":"Guanabacoa","de":"Guanabacoa","es":"Guanabacoa","en":"Guanabacoa","fr":"Guanabacoa"}},{"country":"CU","name":"Guáimaro","admin1Code":"CU.05","latitude":21.05222,"longitude":-77.3499,"translations":{"pt":"Guáimaro","it":"Guáimaro","ru":"Guáimaro","uk":"Guáimaro","de":"Guáimaro","es":"Guáimaro","en":"Guáimaro","fr":"Guáimaro"}},{"country":"CU","name":"Gibara","admin1Code":"CU.12","latitude":21.10988,"longitude":-76.13145,"translations":{"pt":"Gibara","it":"Gibara","ru":"Gibara","uk":"Gibara","de":"Gibara","es":"Gibara","en":"Gibara","fr":"Gibara"}},{"country":"CU","name":"Fontanar","admin1Code":"CU.02","latitude":23.02389,"longitude":-82.408,"translations":{"pt":"Fontanar","it":"Fontanar","ru":"Fontanar","uk":"Fontanar","de":"Fontanar","es":"Fontanar","en":"Fontanar","fr":"Fontanar"}},{"country":"CU","name":"Fomento","admin1Code":"CU.14","latitude":22.10475,"longitude":-79.72141,"translations":{"pt":"Fomento","it":"Fomento","ru":"Fomento","uk":"Fomento","de":"Fomento","es":"Fomento","en":"Fomento","fr":"Fomento"}},{"country":"CU","name":"Флорида","admin1Code":"CU.05","latitude":21.52536,"longitude":-78.22579,"translations":{"pt":"Floryda","it":"Floryda","ru":"Флорида","uk":"Флорида","de":"Floryda","es":"Floryda","en":"Флорида","fr":"Floryda"}},{"country":"CU","name":"Florencia","admin1Code":"CU.07","latitude":22.1461,"longitude":-78.97328,"translations":{"pt":"Florencia","it":"Florencia","ru":"Florencia","uk":"Florencia","de":"Florencia","es":"Florencia","en":"Florencia","fr":"Florencia"}},{"country":"CU","name":"Эсмеральда","admin1Code":"CU.05","latitude":21.85139,"longitude":-78.11725,"translations":{"pt":"Эsmeral'da","it":"Эsmeral'da","ru":"Эсмеральда","uk":"Эсмеральда","de":"Эsmeral'da","es":"Эsmeral'da","en":"Эсмеральда","fr":"Эsmeral'da"}},{"country":"CU","name":"Encrucijada","admin1Code":"CU.16","latitude":22.61802,"longitude":-79.86603,"translations":{"pt":"Encrucijada","it":"Encrucijada","ru":"Encrucijada","uk":"Encrucijada","de":"Encrucijada","es":"Encrucijada","en":"Encrucijada","fr":"Encrucijada"}},{"country":"CU","name":"Cumanayagua","admin1Code":"CU.08","latitude":22.15247,"longitude":-80.20354,"translations":{"pt":"Cumanayagua","it":"Cumanayagua","ru":"Cumanayagua","uk":"Cumanayagua","de":"Cumanayagua","es":"Cumanayagua","en":"Cumanayagua","fr":"Cumanayagua"}},{"country":"CU","name":"Cueto","admin1Code":"CU.12","latitude":20.64855,"longitude":-75.92967,"translations":{"pt":"Cueto","it":"Cueto","ru":"Cueto","uk":"Cueto","de":"Cueto","es":"Cueto","en":"Cueto","fr":"Cueto"}},{"country":"CU","name":"Крусес","admin1Code":"CU.08","latitude":22.34203,"longitude":-80.27021,"translations":{"pt":"Kruses","it":"Kruses","ru":"Крусес","uk":"Крусес","de":"Kruses","es":"Kruses","en":"Крусес","fr":"Kruses"}},{"country":"CU","name":"Corralillo","admin1Code":"CU.16","latitude":22.98212,"longitude":-80.58556,"translations":{"pt":"Corralillo","it":"Corralillo","ru":"Corralillo","uk":"Corralillo","de":"Corralillo","es":"Corralillo","en":"Corralillo","fr":"Corralillo"}},{"country":"CU","name":"Contramaestre","admin1Code":"CU.15","latitude":20.29879,"longitude":-76.24511,"translations":{"pt":"Contramaestre","it":"Contramaestre","ru":"Contramaestre","uk":"Contramaestre","de":"Contramaestre","es":"Contramaestre","en":"Contramaestre","fr":"Contramaestre"}},{"country":"CU","name":"Consolación del sur","admin1Code":"CU.01","latitude":22.50419,"longitude":-83.51442,"translations":{"pt":"Consolación del sur","it":"Consolación del sur","ru":"Consolación del sur","uk":"Consolación del sur","de":"Consolación del sur","es":"Consolación del sur","en":"Consolación del sur","fr":"Consolación del sur"}},{"country":"CU","name":"Кондадо","admin1Code":"CU.14","latitude":21.8767,"longitude":-79.84014,"translations":{"pt":"Kondado","it":"Kondado","ru":"Кондадо","uk":"Кондадо","de":"Kondado","es":"Kondado","en":"Кондадо","fr":"Kondado"}},{"country":"CU","name":"Colón","admin1Code":"CU.03","latitude":22.72064,"longitude":-80.90492,"translations":{"pt":"Colón","it":"Colón","ru":"Colón","uk":"Colón","de":"Colón","es":"Colón","en":"Colón","fr":"Colón"}},{"country":"CU","name":"Colombia","admin1Code":"CU.13","latitude":20.98812,"longitude":-77.42598,"translations":{"pt":"Colombia","it":"Colombia","ru":"Colombia","uk":"Colombia","de":"Colombia","es":"Colombia","en":"Colombia","fr":"Colombia"}},{"country":"CU","name":"Cojímar","admin1Code":"CU.02","latitude":23.16481,"longitude":-82.30116,"translations":{"pt":"Cojímar","it":"Cojímar","ru":"Cojímar","uk":"Cojímar","de":"Cojímar","es":"Cojímar","en":"Cojímar","fr":"Cojímar"}},{"country":"CU","name":"Ciro redondo","admin1Code":"CU.07","latitude":22.01921,"longitude":-78.70365,"translations":{"pt":"Ciro redondo","it":"Ciro redondo","ru":"Ciro redondo","uk":"Ciro redondo","de":"Ciro redondo","es":"Ciro redondo","en":"Ciro redondo","fr":"Ciro redondo"}},{"country":"CU","name":"Cifuentes","admin1Code":"CU.16","latitude":22.6493,"longitude":-80.04935,"translations":{"pt":"Cifuentes","it":"Cifuentes","ru":"Cifuentes","uk":"Cifuentes","de":"Cifuentes","es":"Cifuentes","en":"Cifuentes","fr":"Cifuentes"}},{"country":"CU","name":"Cienfuegos","admin1Code":"CU.08","latitude":22.14681,"longitude":-80.4481,"translations":{"pt":"Cienfuegos","it":"Cienfuegos","ru":"Сьенфуэгос","uk":"Сьєнфуегос","de":"Cienfuegos","es":"Cienfuegos","en":"Cienfuegos","fr":"Cienfuegos"}},{"country":"CU","name":"Ciego de ávila","admin1Code":"CU.07","latitude":21.84,"longitude":-78.76194,"translations":{"pt":"Ciego de ávila","it":"Ciego de ávila","ru":"Сьего-де-авила","uk":"Ciego de ávila","de":"Ciego de ávila","es":"Ciego de ávila","en":"Ciego de ávila","fr":"Ciego de ávila"}},{"country":"CU","name":"Chambas","admin1Code":"CU.07","latitude":22.19534,"longitude":-78.9123,"translations":{"pt":"Chambas","it":"Chambas","ru":"Chambas","uk":"Chambas","de":"Chambas","es":"Chambas","en":"Chambas","fr":"Chambas"}},{"country":"CU","name":"Cerro","admin1Code":"CU.02","latitude":23.10809,"longitude":-82.3866,"translations":{"pt":"Cerro","it":"Cerro","ru":"Cerro","uk":"Cerro","de":"Cerro","es":"Cerro","en":"Cerro","fr":"Cerro"}},{"country":"CU","name":"Cauto cristo","admin1Code":"CU.09","latitude":20.55709,"longitude":-76.4727,"translations":{"pt":"Cauto cristo","it":"Cauto cristo","ru":"Cauto cristo","uk":"Cauto cristo","de":"Cauto cristo","es":"Cauto cristo","en":"Cauto cristo","fr":"Cauto cristo"}},{"country":"CU","name":"Карденас","admin1Code":"CU.03","latitude":23.03661,"longitude":-81.20596,"translations":{"pt":"Kardenas","it":"Kardenas","ru":"Карденас","uk":"Карденас","de":"Kardenas","es":"Kardenas","en":"Карденас","fr":"Kardenas"}},{"country":"CU","name":"Campechuela","admin1Code":"CU.09","latitude":20.23329,"longitude":-77.2799,"translations":{"pt":"Campechuela","it":"Campechuela","ru":"Campechuela","uk":"Campechuela","de":"Campechuela","es":"Campechuela","en":"Campechuela","fr":"Campechuela"}},{"country":"CU","name":"Camajuaní","admin1Code":"CU.16","latitude":22.48333,"longitude":-79.75,"translations":{"pt":"Camajuaní","it":"Camajuaní","ru":"Camajuaní","uk":"Camajuaní","de":"Camajuaní","es":"Camajuaní","en":"Camajuaní","fr":"Camajuaní"}},{"country":"CU","name":"Camagüey","admin1Code":"CU.05","latitude":21.38083,"longitude":-77.91694,"translations":{"pt":"Camagüey","it":"Camagüey","ru":"Камагуэй","uk":"Camagüey","de":"Camagüey","es":"Camagüey","en":"Camagüey","fr":"Camagüey"}},{"country":"CU","name":"Calimete","admin1Code":"CU.03","latitude":22.5342,"longitude":-80.91105,"translations":{"pt":"Calimete","it":"Calimete","ru":"Calimete","uk":"Calimete","de":"Calimete","es":"Calimete","en":"Calimete","fr":"Calimete"}},{"country":"CU","name":"Caibarién","admin1Code":"CU.16","latitude":22.51996,"longitude":-79.46599,"translations":{"pt":"Caibarién","it":"Caibarién","ru":"Caibarién","uk":"Caibarién","de":"Caibarién","es":"Caibarién","en":"Caibarién","fr":"Caibarién"}},{"country":"CU","name":"Cacocum","admin1Code":"CU.12","latitude":20.73775,"longitude":-76.32574,"translations":{"pt":"Cacocum","it":"Cacocum","ru":"Cacocum","uk":"Cacocum","de":"Cacocum","es":"Cacocum","en":"Cacocum","fr":"Cacocum"}},{"country":"CU","name":"Cabaiguán","admin1Code":"CU.14","latitude":22.07874,"longitude":-79.49726,"translations":{"pt":"Cabaiguán","it":"Cabaiguán","ru":"Cabaiguán","uk":"Cabaiguán","de":"Cabaiguán","es":"Cabaiguán","en":"Cabaiguán","fr":"Cabaiguán"}},{"country":"CU","name":"Бехукаль","admin1Code":"CU.MA","latitude":22.92861,"longitude":-82.38861,"translations":{"pt":"Bekhukal'","it":"Bekhukal'","ru":"Бехукаль","uk":"Бехукаль","de":"Bekhukal'","es":"Bekhukal'","en":"Бехукаль","fr":"Bekhukal'"}},{"country":"CU","name":"Bayamo","admin1Code":"CU.09","latitude":20.37417,"longitude":-76.64361,"translations":{"pt":"Bayamo","it":"Bayamo","ru":"Баямо","uk":"Bayamo","de":"Bayamo","es":"Bayamo","en":"Bayamo","fr":"Bayamo"}},{"country":"CU","name":"Bauta","admin1Code":"CU.AR","latitude":22.98226,"longitude":-82.54719,"translations":{"pt":"Bauta","it":"Bauta","ru":"Bauta","uk":"Bauta","de":"Bauta","es":"Bauta","en":"Bauta","fr":"Bauta"}},{"country":"CU","name":"Bartolomé masó","admin1Code":"CU.09","latitude":20.16635,"longitude":-76.94291,"translations":{"pt":"Bartolomé masó","it":"Bartolomé masó","ru":"Bartolomé masó","uk":"Bartolomé masó","de":"Bartolomé masó","es":"Bartolomé masó","en":"Bartolomé masó","fr":"Bartolomé masó"}},{"country":"CU","name":"Baraguá","admin1Code":"CU.07","latitude":21.68216,"longitude":-78.62567,"translations":{"pt":"Baraguá","it":"Baraguá","ru":"Baraguá","uk":"Baraguá","de":"Baraguá","es":"Baraguá","en":"Baraguá","fr":"Baraguá"}},{"country":"CU","name":"Baracoa","admin1Code":"CU.10","latitude":20.34711,"longitude":-74.49624,"translations":{"pt":"Baracoa","it":"Baracoa","ru":"Baracoa","uk":"Baracoa","de":"Baracoa","es":"Baracoa","en":"Baracoa","fr":"Baracoa"}},{"country":"CU","name":"Banes","admin1Code":"CU.12","latitude":20.96116,"longitude":-75.722,"translations":{"pt":"Banes","it":"Banes","ru":"Banes","uk":"Banes","de":"Banes","es":"Banes","en":"Banes","fr":"Banes"}},{"country":"CU","name":"Balcón de la lisa","admin1Code":"CU.02","latitude":23.05346,"longitude":-82.4476,"translations":{"pt":"Balcón de la lisa","it":"Balcón de la lisa","ru":"Balcón de la lisa","uk":"Balcón de la lisa","de":"Balcón de la lisa","es":"Balcón de la lisa","en":"Balcón de la lisa","fr":"Balcón de la lisa"}},{"country":"CU","name":"Bahía honda","admin1Code":"CU.AR","latitude":22.90332,"longitude":-83.15994,"translations":{"pt":"Bahía honda","it":"Bahía honda","ru":"Bahía honda","uk":"Bahía honda","de":"Bahía honda","es":"Bahía honda","en":"Bahía honda","fr":"Bahía honda"}},{"country":"CU","name":"Artemisa","admin1Code":"CU.AR","latitude":22.81667,"longitude":-82.75944,"translations":{"pt":"Artemisa","it":"Artemisa","ru":"Артемиса","uk":"Artemisa","de":"Artemisa","es":"Artemisa","en":"Artemisa","fr":"Artemisa"}},{"country":"CU","name":"Arroyo naranjo","admin1Code":"CU.02","latitude":23.03811,"longitude":-82.37703,"translations":{"pt":"Arroyo naranjo","it":"Arroyo naranjo","ru":"Arroyo naranjo","uk":"Arroyo naranjo","de":"Arroyo naranjo","es":"Arroyo naranjo","en":"Arroyo naranjo","fr":"Arroyo naranjo"}},{"country":"CU","name":"Amancio","admin1Code":"CU.13","latitude":20.81914,"longitude":-77.57958,"translations":{"pt":"Amancio","it":"Amancio","ru":"Amancio","uk":"Amancio","de":"Amancio","es":"Amancio","en":"Amancio","fr":"Amancio"}},{"country":"CU","name":"Alquízar","admin1Code":"CU.AR","latitude":22.80517,"longitude":-82.58392,"translations":{"pt":"Alquízar","it":"Alquízar","ru":"Alquízar","uk":"Alquízar","de":"Alquízar","es":"Alquízar","en":"Alquízar","fr":"Alquízar"}},{"country":"CU","name":"Almendares","admin1Code":"CU.02","latitude":23.11012,"longitude":-82.42322,"translations":{"pt":"Almendares","it":"Almendares","ru":"Almendares","uk":"Almendares","de":"Almendares","es":"Almendares","en":"Almendares","fr":"Almendares"}},{"country":"CU","name":"Аламар","admin1Code":"CU.02","latitude":23.15794,"longitude":-82.27837,"translations":{"pt":"Alamar","it":"Alamar","ru":"Аламар","uk":"Аламар","de":"Alamar","es":"Reparto alamar","en":"Аламар","fr":"Alamar"}},{"country":"CU","name":"Aguada de pasajeros","admin1Code":"CU.08","latitude":22.3852,"longitude":-80.84792,"translations":{"pt":"Aguada de pasajeros","it":"Aguada de pasajeros","ru":"Aguada de pasajeros","uk":"Aguada de pasajeros","de":"Aguada de pasajeros","es":"Aguada de pasajeros","en":"Aguada de pasajeros","fr":"Aguada de pasajeros"}},{"country":"CU","name":"Abreus","admin1Code":"CU.08","latitude":22.27797,"longitude":-80.56931,"translations":{"pt":"Abreus","it":"Abreus","ru":"Abreus","uk":"Abreus","de":"Abreus","es":"Abreus","en":"Abreus","fr":"Abreus"}},{"country":"CU","name":"Ciudad camilo cienfuegos","admin1Code":"CU.02","latitude":23.16076,"longitude":-82.32798,"translations":{"pt":"Ciudad camilo cienfuegos","it":"Ciudad camilo cienfuegos","ru":"Ciudad camilo cienfuegos","uk":"Ciudad camilo cienfuegos","de":"Ciudad camilo cienfuegos","es":"Ciudad camilo cienfuegos","en":"Ciudad camilo cienfuegos","fr":"Ciudad camilo cienfuegos"}},{"country":"CU","name":"Centro habana","admin1Code":"CU.02","latitude":23.13833,"longitude":-82.36417,"translations":{"pt":"Centro habana","it":"Centro habana","ru":"Centro habana","uk":"Centro habana","de":"Centro habana","es":"Centro habana","en":"Centro habana","fr":"Centro habana"}},{"country":"CU","name":"La habana vieja","admin1Code":"CU.02","latitude":23.13028,"longitude":-82.35306,"translations":{"pt":"La habana vieja","it":"La habana vieja","ru":"La habana vieja","uk":"La habana vieja","de":"La habana vieja","es":"La habana vieja","en":"La habana vieja","fr":"La habana vieja"}},{"country":"CU","name":"Jimaguayú","admin1Code":"CU.05","latitude":21.24224,"longitude":-77.82625,"translations":{"pt":"Jimaguayú","it":"Jimaguayú","ru":"Jimaguayú","uk":"Jimaguayú","de":"Jimaguayú","es":"Jimaguayú","en":"Jimaguayú","fr":"Jimaguayú"}},{"country":"CU","name":"Бойерос","admin1Code":"CU.02","latitude":23.0072,"longitude":-82.4017,"translations":{"pt":"Bojeros","it":"Bojeros","ru":"Бойерос","uk":"Бойерос","de":"Bojeros","es":"Bojeros","en":"Бойерос","fr":"Bojeros"}},{"country":"CU","name":"Diez de octubre","admin1Code":"CU.02","latitude":23.0881,"longitude":-82.3597,"translations":{"pt":"Diez de octubre","it":"Diez de octubre","ru":"Diez de octubre","uk":"Diez de octubre","de":"Diez de octubre","es":"Diez de octubre","en":"Diez de octubre","fr":"Diez de octubre"}},{"country":"CU","name":"Plaza de la revolución","admin1Code":"CU.02","latitude":23.11936,"longitude":-82.39197,"translations":{"pt":"Plaza de la revolución","it":"Plaza de la revolución","ru":"Plaza de la revolución","uk":"Plaza de la revolución","de":"Plaza de la revolución","es":"Plaza de la revolución","en":"Plaza de la revolución","fr":"Plaza de la revolución"}}]