[{"country":"XK","name":"Zvečan","admin1Code":"XK.10097358","latitude":42.9075,"longitude":20.84028,"translations":{"pt":"Zvečan","it":"Zvečan","ru":"Zvečan","uk":"Zvečan","de":"Zvečan","es":"Zvečan","en":"Zvečan","fr":"Zvečan"}},{"country":"XK","name":"Vushtrri","admin1Code":"XK.10097358","latitude":42.82306,"longitude":20.9675,"translations":{"pt":"Vushtrri","it":"Vushtrri","ru":"Vushtrri","uk":"Vushtrri","de":"Vushtrri","es":"Vushtrri","en":"Vushtrri","fr":"Vushtrri"}},{"country":"XK","name":"Vitina","admin1Code":"XK.10097357","latitude":42.32139,"longitude":21.35833,"translations":{"pt":"Vitina","it":"Vitina","ru":"Vitina","uk":"Vitina","de":"Vitina","es":"Vitina","en":"Vitina","fr":"Vitina"}},{"country":"XK","name":"Ferizaj","admin1Code":"XK.10096138","latitude":42.37056,"longitude":21.15528,"translations":{"pt":"Ferizaj","it":"Ferizaj","ru":"Ferizaj","uk":"Ferizaj","de":"Ferizaj","es":"Ferizaj","en":"Ferizaj","fr":"Ferizaj"}},{"country":"XK","name":"Suva reka","admin1Code":"XK.10097361","latitude":42.35861,"longitude":20.825,"translations":{"pt":"Suva reka","it":"Suva reka","ru":"Suva reka","uk":"Suva reka","de":"Suva reka","es":"Suva reka","en":"Suva reka","fr":"Suva reka"}},{"country":"XK","name":"Shtime","admin1Code":"XK.10096138","latitude":42.43306,"longitude":21.03972,"translations":{"pt":"Shtime","it":"Shtime","ru":"Shtime","uk":"Shtime","de":"Shtime","es":"Shtime","en":"Shtime","fr":"Shtime"}},{"country":"XK","name":"Prizren","admin1Code":"XK.10097361","latitude":42.21389,"longitude":20.73972,"translations":{"pt":"Prizren","it":"Prizren","ru":"Призрен","uk":"Прізрен","de":"Prizren","es":"Prizren","en":"Prizren","fr":"Prizren"}},{"country":"XK","name":"Pristina","admin1Code":"XK.10097360","latitude":42.67272,"longitude":21.16688,"translations":{"pt":"Pristina","it":"Prishtina","ru":"Приштина","uk":"Приштина","de":"Pristina","es":"Priština","en":"Pristina","fr":"Pristina"}},{"country":"XK","name":"Podujevo","admin1Code":"XK.10097360","latitude":42.91056,"longitude":21.19306,"translations":{"pt":"Podujevo","it":"Podujevo","ru":"Podujevo","uk":"Podujevo","de":"Podujevo","es":"Podujevo","en":"Podujevo","fr":"Podujevë"}},{"country":"XK","name":"Peja","admin1Code":"XK.10097359","latitude":42.65913,"longitude":20.28828,"translations":{"pt":"Peja","it":"Peć","ru":"Печ","uk":"Peja","de":"Peja","es":"Peja","en":"Peja","fr":"Pejë"}},{"country":"XK","name":"Orahovac","admin1Code":"XK.10096859","latitude":42.39944,"longitude":20.65472,"translations":{"pt":"Orahovac","it":"Orahovac","ru":"Orahovac","uk":"Orahovac","de":"Orahovac","es":"Orahovac","en":"Orahovac","fr":"Orahovac"}},{"country":"XK","name":"Llazicë","admin1Code":"XK.10097361","latitude":42.55528,"longitude":20.76333,"translations":{"pt":"Llazicë","it":"Llazicë","ru":"Llazicë","uk":"Llazicë","de":"Llazicë","es":"Llazicë","en":"Llazicë","fr":"Llazicë"}},{"country":"XK","name":"Leposaviq","admin1Code":"XK.10097358","latitude":43.10389,"longitude":20.80278,"translations":{"pt":"Leposaviq","it":"Leposaviq","ru":"Leposaviq","uk":"Leposaviq","de":"Leposaviq","es":"Leposaviq","en":"Leposaviq","fr":"Leposaviq"}},{"country":"XK","name":"Kosovska mitrovica","admin1Code":"XK.10097358","latitude":42.88333,"longitude":20.86667,"translations":{"pt":"Kosovska mitrovica","it":"Kosovska mitrovica","ru":"Kosovska mitrovica","uk":"Kosovska mitrovica","de":"Mitrovica","es":"Kosovska mitrovica","en":"Kosovska mitrovica","fr":"Kosovska mitrovica"}},{"country":"XK","name":"Kosovo polje","admin1Code":"XK.10097360","latitude":42.66394,"longitude":21.09611,"translations":{"pt":"Kosovo polje","it":"Kosovo polje","ru":"Kosovo polje","uk":"Kosovo polje","de":"Kosovo polje","es":"Kosovo polje","en":"Kosovo polje","fr":"Kosovo polje"}},{"country":"XK","name":"Istok","admin1Code":"XK.10097359","latitude":42.78083,"longitude":20.4875,"translations":{"pt":"Istok","it":"Istok","ru":"Istok","uk":"Istok","de":"Istok","es":"Istok","en":"Istok","fr":"Istok"}},{"country":"XK","name":"Gjilan","admin1Code":"XK.10097357","latitude":42.46045,"longitude":21.46986,"translations":{"pt":"Gjilan","it":"Gjilan","ru":"Gjilan","uk":"Gjilan","de":"Gjilan","es":"Gjilan","en":"Gjilan","fr":"Gjilan"}},{"country":"XK","name":"Glogovac","admin1Code":"XK.10097360","latitude":42.62833,"longitude":20.89389,"translations":{"pt":"Glogovac","it":"Glogovac","ru":"Glogovac","uk":"Glogovac","de":"Glogovac","es":"Glogovac","en":"Glogovac","fr":"Glogovac"}},{"country":"XK","name":"Dragash","admin1Code":"XK.10097361","latitude":42.0265,"longitude":20.65333,"translations":{"pt":"Dragash","it":"Dragash","ru":"Dragash","uk":"Dragash","de":"Dragash","es":"Dragash","en":"Dragash","fr":"Dragash"}},{"country":"XK","name":"Deçan","admin1Code":"XK.10096859","latitude":42.54018,"longitude":20.28793,"translations":{"pt":"Deçan","it":"Deçan","ru":"Декан","uk":"Deçan","de":"Deçan","es":"Deçan","en":"Deçan","fr":"Deçan"}},{"country":"XK","name":"Gjakova","admin1Code":"XK.10096859","latitude":42.38028,"longitude":20.43083,"translations":{"pt":"Gjakova","it":"Gjakova","ru":"Gjakova","uk":"Gjakova","de":"Gjakova","es":"Gjakova","en":"Gjakova","fr":"Gjakova"}}]