[{"country":"BY","name":"Zhodzina","admin1Code":"BY.05","latitude":54.0985,"longitude":28.3331,"translations":{"pt":"Zhodzina","it":"Zhodzina","ru":"Жодино","uk":"Zhodzina","de":"Schodsina","es":"Zhodzina","en":"Zhodzina","fr":"Zhodzina"}},{"country":"BY","name":"Zhlobin","admin1Code":"BY.02","latitude":52.8926,"longitude":30.024,"translations":{"pt":"Zhlobin","it":"Zhlobin","ru":"Жлобин","uk":"Zhlobin","de":"Zhlobin","es":"Zhlobin","en":"Zhlobin","fr":"Zhlobin"}},{"country":"BY","name":"Zhytkavichy","admin1Code":"BY.02","latitude":52.2168,"longitude":27.8561,"translations":{"pt":"Zhytkavichy","it":"Zhytkavichy","ru":"Житковичи","uk":"Житковичі","de":"Zhytkavichy","es":"Zhytkavichy","en":"Zhytkavichy","fr":"Jytkavitchy"}},{"country":"BY","name":"Zaslawye","admin1Code":"BY.05","latitude":54.0114,"longitude":27.2695,"translations":{"pt":"Zaslawye","it":"Zaslawye","ru":"Заславль","uk":"Заславль","de":"Saslauje","es":"Zaslawye","en":"Zaslawye","fr":"Zaslawye"}},{"country":"BY","name":"Vitebsk","admin1Code":"BY.07","latitude":55.1904,"longitude":30.2049,"translations":{"pt":"Vitebsk","it":"Vicebsk","ru":"Витебск","uk":"Вітебськ","de":"Wizebsk","es":"Vítebsk","en":"Vitebsk","fr":"Vitebsk"}},{"country":"BY","name":"Vilyeyka","admin1Code":"BY.05","latitude":54.4914,"longitude":26.9111,"translations":{"pt":"Vilyeyka","it":"Vilyeyka","ru":"Вилейка","uk":"Vilyeyka","de":"Vilyeyka","es":"Vilyeyka","en":"Vilyeyka","fr":"Vilyeyka"}},{"country":"BY","name":"Vawkavysk","admin1Code":"BY.03","latitude":53.1561,"longitude":24.4513,"translations":{"pt":"Vawkavysk","it":"Vawkavysk","ru":"Волковыск","uk":"Вовковиськ","de":"Waukawysk","es":"Vawkavysk","en":"Vawkavysk","fr":"Vawkavysk"}},{"country":"BY","name":"Svyetlahorsk","admin1Code":"BY.02","latitude":52.6329,"longitude":29.7389,"translations":{"pt":"Svyetlahorsk","it":"Svyetlahorsk","ru":"Светлогорск","uk":"Svyetlahorsk","de":"Svyetlahorsk","es":"Svyetlahorsk","en":"Svyetlahorsk","fr":"Svyetlahorsk"}},{"country":"BY","name":"Stowbtsy","admin1Code":"BY.05","latitude":53.47994,"longitude":26.7351,"translations":{"pt":"Stowbtsy","it":"Stowbtsy","ru":"Столбцы","uk":"Столбці","de":"Stowbtsy","es":"Stowbtsy","en":"Stowbtsy","fr":"Stowbtsy"}},{"country":"BY","name":"Smarhon'","admin1Code":"BY.03","latitude":54.4798,"longitude":26.3957,"translations":{"pt":"Smarhon'","it":"Smarhon'","ru":"Сморгонь","uk":"Smarhon'","de":"Smarhon'","es":"Smarhon'","en":"Smarhon'","fr":"Smarhon'"}},{"country":"BY","name":"Smalyavichy","admin1Code":"BY.05","latitude":54.0249,"longitude":28.0894,"translations":{"pt":"Smalyavichy","it":"Smalyavichy","ru":"Смолевичи","uk":"Smalyavichy","de":"Smalyavichy","es":"Smalyavichy","en":"Smalyavichy","fr":"Smalyavichy"}},{"country":"BY","name":"Slutsk","admin1Code":"BY.05","latitude":53.01522,"longitude":27.54159,"translations":{"pt":"Slutsk","it":"Sluck","ru":"Слуцк","uk":"Слуцьк","de":"Sluzk","es":"Slutsk","en":"Slutsk","fr":"Sloutsk"}},{"country":"BY","name":"Slonim","admin1Code":"BY.03","latitude":53.08751,"longitude":25.31707,"translations":{"pt":"Slonim","it":"Slonim","ru":"Слоним","uk":"Слонім","de":"Slonim","es":"Slonim","en":"Slonim","fr":"Slonim"}},{"country":"BY","name":"Shchuchyn","admin1Code":"BY.03","latitude":53.6014,"longitude":24.7465,"translations":{"pt":"Shchuchyn","it":"Shchuchyn","ru":"Щучин","uk":"Shchuchyn","de":"Shchuchyn","es":"Shchuchyn","en":"Shchuchyn","fr":"Shchuchyn"}},{"country":"BY","name":"Salihorsk","admin1Code":"BY.05","latitude":52.78981,"longitude":27.53583,"translations":{"pt":"Salihorsk","it":"Salihorsk","ru":"Солигорск","uk":"Солігорськ","de":"Salihorsk","es":"Saligorsk","en":"Salihorsk","fr":"Salihorsk"}},{"country":"BY","name":"Rahachow","admin1Code":"BY.02","latitude":53.09255,"longitude":30.04862,"translations":{"pt":"Rahachow","it":"Rahachow","ru":"Рогачев","uk":"Рогачов","de":"Rahatschou","es":"Rahachow","en":"Rahachow","fr":"Rahatchow"}},{"country":"BY","name":"Rechytsa","admin1Code":"BY.02","latitude":52.3617,"longitude":30.3916,"translations":{"pt":"Rechytsa","it":"Rechytsa","ru":"Речица","uk":"Rechytsa","de":"Retschyza","es":"Rechytsa","en":"Rechytsa","fr":"Rechytsa"}},{"country":"BY","name":"Pruzhany","admin1Code":"BY.01","latitude":52.55464,"longitude":24.45483,"translations":{"pt":"Pruzhany","it":"Pruzhany","ru":"Пружаны","uk":"Pruzhany","de":"Pruzhany","es":"Pruzhany","en":"Pruzhany","fr":"Pruzhany"}},{"country":"BY","name":"Polatsk","admin1Code":"BY.07","latitude":55.4879,"longitude":28.7856,"translations":{"pt":"Polatsk","it":"Polack","ru":"Полоцк","uk":"Полоцьк","de":"Polazk","es":"Pólatsk","en":"Polatsk","fr":"Polatsk"}},{"country":"BY","name":"Pinsk","admin1Code":"BY.01","latitude":52.12153,"longitude":26.06726,"translations":{"pt":"Pinsk","it":"Pinsk","ru":"Пинск","uk":"Пінськ","de":"Pinsk","es":"Pinsk","en":"Pinsk","fr":"Pinsk"}},{"country":"BY","name":"Pastavy","admin1Code":"BY.07","latitude":55.11676,"longitude":26.83263,"translations":{"pt":"Pastavy","it":"Pastavy","ru":"Поставы","uk":"Постави","de":"Pastawy","es":"Pastavy","en":"Pastavy","fr":"Pastavy"}},{"country":"BY","name":"Astravyets","admin1Code":"BY.03","latitude":54.61378,"longitude":25.95537,"translations":{"pt":"Astravyets","it":"Astravyets","ru":"Островец","uk":"Островець","de":"Astravyets","es":"Astravyets","en":"Astravyets","fr":"Astraviets"}},{"country":"BY","name":"Asipovichy","admin1Code":"BY.06","latitude":53.30588,"longitude":28.62872,"translations":{"pt":"Asipovichy","it":"Asipovichy","ru":"Осиповичи","uk":"Asipovichy","de":"Asipovichy","es":"Asipovichy","en":"Asipovichy","fr":"Asipovichy"}},{"country":"BY","name":"Orsha","admin1Code":"BY.07","latitude":54.51362,"longitude":30.40365,"translations":{"pt":"Orsha","it":"Orsza","ru":"Орша","uk":"Orsha","de":"Orscha","es":"Orsha","en":"Orsha","fr":"Orsha"}},{"country":"BY","name":"Nyasvizh","admin1Code":"BY.05","latitude":53.22186,"longitude":26.67679,"translations":{"pt":"Nyasvizh","it":"Njasviž","ru":"Несвиж","uk":"Nyasvizh","de":"Njaswisch","es":"Nyasvizh","en":"Nyasvizh","fr":"Nyasvizh"}},{"country":"BY","name":"Navapolatsk","admin1Code":"BY.07","latitude":55.52618,"longitude":28.59308,"translations":{"pt":"Navapolatsk","it":"Navapolack","ru":"Новополоцк","uk":"Новополоцьк","de":"Nawapolazk","es":"Navapolatsk","en":"Navapolatsk","fr":"Navapolatsk"}},{"country":"BY","name":"Navahrudak","admin1Code":"BY.03","latitude":53.5942,"longitude":25.8191,"translations":{"pt":"Navahrudak","it":"Navahrudak","ru":"Новогрудок","uk":"Новогрудок","de":"Nawahradak","es":"Navahrudak","en":"Navahrudak","fr":"Navahroudak"}},{"country":"BY","name":"Minsk","admin1Code":"BY.04","latitude":53.9,"longitude":27.56667,"translations":{"pt":"Minsk","it":"Minsk","ru":"Минск","uk":"Мінськ","de":"Minsk","es":"Minsk","en":"Minsk","fr":"Minsk"}},{"country":"BY","name":"Mazyr","admin1Code":"BY.02","latitude":52.04162,"longitude":29.21631,"translations":{"pt":"Mazyr","it":"Mazyr","ru":"Мозырь","uk":"Мозир","de":"Masyr","es":"Mazyr","en":"Mazyr","fr":"Mazyr"}},{"country":"BY","name":"Mar''ina horka","admin1Code":"BY.05","latitude":53.509,"longitude":28.147,"translations":{"pt":"Mar''ina horka","it":"Mar''ina horka","ru":"Марьина горка","uk":"Mar''ina horka","de":"Mar''ina horka","es":"Mar''ina horka","en":"Mar''ina horka","fr":"Mar''ina horka"}},{"country":"BY","name":"Maladzyechna","admin1Code":"BY.05","latitude":54.3167,"longitude":26.854,"translations":{"pt":"Maladzyechna","it":"Maladzyechna","ru":"Молодечно","uk":"Maladzyechna","de":"Maladsetschna","es":"Maladzyechna","en":"Maladzyechna","fr":"Maladzyechna"}},{"country":"BY","name":"Mogilev","admin1Code":"BY.06","latitude":53.9168,"longitude":30.3449,"translations":{"pt":"Mogilev","it":"Mahilëŭ","ru":"Могилёв","uk":"Могильов","de":"Mahiljou","es":"Maguilov","en":"Mogilev","fr":"Moguilev"}},{"country":"BY","name":"Lyepyel'","admin1Code":"BY.07","latitude":54.8814,"longitude":28.699,"translations":{"pt":"Lyepyel'","it":"Lyepyel'","ru":"Лепель","uk":"Lyepyel'","de":"Lyepyel'","es":"Lyepyel'","en":"Lyepyel'","fr":"Lyepyel'"}},{"country":"BY","name":"Luninyets","admin1Code":"BY.01","latitude":52.24864,"longitude":26.80061,"translations":{"pt":"Luninyets","it":"Luninyets","ru":"Лунинец","uk":"Luninyets","de":"Luninyets","es":"Luninyets","en":"Luninyets","fr":"Luninyets"}},{"country":"BY","name":"Lahoysk","admin1Code":"BY.05","latitude":54.2064,"longitude":27.8512,"translations":{"pt":"Lahoysk","it":"Lahoysk","ru":"Логойск","uk":"Lahoysk","de":"Lahoysk","es":"Lahoysk","en":"Lahoysk","fr":"Lahoysk"}},{"country":"BY","name":"Lida","admin1Code":"BY.03","latitude":53.88333,"longitude":25.29972,"translations":{"pt":"Lida","it":"Lida","ru":"Лида","uk":"Ліда","de":"Lida","es":"Lida","en":"Lida","fr":"Lida"}},{"country":"BY","name":"Krychaw","admin1Code":"BY.06","latitude":53.71924,"longitude":31.71356,"translations":{"pt":"Krychaw","it":"Krychaw","ru":"Кричев","uk":"Krychaw","de":"Krytschau","es":"Krychaw","en":"Krychaw","fr":"Krychaw"}},{"country":"BY","name":"Kolodishchi","admin1Code":"BY.05","latitude":53.944,"longitude":27.7823,"translations":{"pt":"Kolodishchi","it":"Kolodishchi","ru":"Колодищи","uk":"Kolodishchi","de":"Kolodishchi","es":"Kolodishchi","en":"Kolodishchi","fr":"Kolodishchi"}},{"country":"BY","name":"Kobryn","admin1Code":"BY.01","latitude":52.21173,"longitude":24.3563,"translations":{"pt":"Kobryn","it":"Kobryn","ru":"Кобрин","uk":"Кобринь","de":"Kobryn","es":"Kobriny","en":"Kobryn","fr":"Kobryn"}},{"country":"BY","name":"Klimavichy","admin1Code":"BY.06","latitude":53.60492,"longitude":31.95632,"translations":{"pt":"Klimavichy","it":"Klimavichy","ru":"Климовичи","uk":"Климовичі","de":"Klimawitschy","es":"Klimavichy","en":"Klimavichy","fr":"Klimavitchy"}},{"country":"BY","name":"Kalinkavichy","admin1Code":"BY.02","latitude":52.1323,"longitude":29.3257,"translations":{"pt":"Kalinkavichy","it":"Kalinkavichy","ru":"Калинковичи","uk":"Kalinkavichy","de":"Kalinkavichy","es":"Kalinkavichy","en":"Kalinkavichy","fr":"Kalinkavichy"}},{"country":"BY","name":"Ivatsevichy","admin1Code":"BY.01","latitude":52.70793,"longitude":25.33509,"translations":{"pt":"Ivatsevichy","it":"Ivatsevichy","ru":"Ивацевичи","uk":"Ivatsevichy","de":"Ivatsevichy","es":"Ivatsevichy","en":"Ivatsevichy","fr":"Ivatsevichy"}},{"country":"BY","name":"Ivanava","admin1Code":"BY.01","latitude":52.14724,"longitude":25.53198,"translations":{"pt":"Ivanava","it":"Ivanava","ru":"Иваново","uk":"Ivanava","de":"Ivanava","es":"Ivanava","en":"Ivanava","fr":"Ivanava"}},{"country":"BY","name":"Hrodna","admin1Code":"BY.03","latitude":53.6884,"longitude":23.8258,"translations":{"pt":"Hrodna","it":"Grodno","ru":"Гродно","uk":"Гродно","de":"Hrodna","es":"Goradnia","en":"Hrodna","fr":"Hrodna"}},{"country":"BY","name":"Horki","admin1Code":"BY.06","latitude":54.28606,"longitude":30.98604,"translations":{"pt":"Horki","it":"Horki","ru":"Горки","uk":"Горки","de":"Horki","es":"Horki","en":"Horki","fr":"Horki"}},{"country":"BY","name":"Homyel","admin1Code":"BY.02","latitude":52.4345,"longitude":30.9754,"translations":{"pt":"Homyel","it":"Homel'","ru":"Гомель","uk":"Гомєль","de":"Homel","es":"Gómel","en":"Homyel","fr":"Homiel"}},{"country":"BY","name":"Hlybokaye","admin1Code":"BY.07","latitude":55.1384,"longitude":27.6905,"translations":{"pt":"Hlybokaye","it":"Hlybokaye","ru":"Глубокое","uk":"Hlybokaye","de":"Hlybokaye","es":"Hlybokaye","en":"Hlybokaye","fr":"Hlybokaye"}},{"country":"BY","name":"Dzyarzhynsk","admin1Code":"BY.05","latitude":53.68477,"longitude":27.13171,"translations":{"pt":"Dzyarzhynsk","it":"Dzyarzhynsk","ru":"Дзержинск","uk":"Дзержинськ","de":"Dsjarschynsk","es":"Dzyarzhynsk","en":"Dzyarzhynsk","fr":"Dziarjynsk"}},{"country":"BY","name":"Dobrush","admin1Code":"BY.02","latitude":52.41471,"longitude":31.31429,"translations":{"pt":"Dobrush","it":"Dobrush","ru":"Добруш","uk":"Dobrush","de":"Dobrush","es":"Dobrush","en":"Dobrush","fr":"Dobrush"}},{"country":"BY","name":"Bykhaw","admin1Code":"BY.06","latitude":53.52131,"longitude":30.23078,"translations":{"pt":"Bykhaw","it":"Bykhaw","ru":"Быхов","uk":"Бихов","de":"Bychau","es":"Bykhaw","en":"Bykhaw","fr":"Bykhaw"}},{"country":"BY","name":"Byaroza","admin1Code":"BY.01","latitude":52.53129,"longitude":24.9782,"translations":{"pt":"Byaroza","it":"Byaroza","ru":"Берёза","uk":"Byaroza","de":"Byaroza","es":"Byaroza","en":"Byaroza","fr":"Byaroza"}},{"country":"BY","name":"Brest","admin1Code":"BY.01","latitude":52.09755,"longitude":23.68775,"translations":{"pt":"Brest","it":"Brėst","ru":"Брест","uk":"Берестя","de":"Brest","es":"Brest","en":"Brest","fr":"Brest"}},{"country":"BY","name":"Borisov","admin1Code":"BY.05","latitude":54.2279,"longitude":28.505,"translations":{"pt":"Borisov","it":"Borisov","ru":"Борисов","uk":"Borisov","de":"Borisov","es":"Borisov","en":"Borisov","fr":"Borisov"}},{"country":"BY","name":"Baranovichi","admin1Code":"BY.01","latitude":53.13253,"longitude":26.00774,"translations":{"pt":"Baranovichi","it":"Baranovichi","ru":"Барановичи","uk":"Baranovichi","de":"Baranawitschy","es":"Baranovichi","en":"Baranovichi","fr":"Baranovitchi"}},{"country":"BY","name":"Babruysk","admin1Code":"BY.06","latitude":53.14636,"longitude":29.20552,"translations":{"pt":"Babruysk","it":"Babruysk","ru":"Бобруйск","uk":"Babruysk","de":"Babruisk","es":"Babruysk","en":"Babruysk","fr":"Babruysk"}},{"country":"BY","name":"Ashmyany","admin1Code":"BY.03","latitude":54.41815,"longitude":25.93734,"translations":{"pt":"Ashmyany","it":"Ašmjany","ru":"Ошмяны","uk":"Ошмяни","de":"Aschmjany","es":"Ashmiany","en":"Ashmyany","fr":"Achmiany"}},{"country":"BY","name":"Fanipol","admin1Code":"BY.05","latitude":53.74998,"longitude":27.33338,"translations":{"pt":"Fanipol","it":"Fanipol","ru":"Фаниполь","uk":"Fanipol","de":"Fanipol","es":"Fanipol","en":"Fanipol","fr":"Fanipol"}}]