[{"country":"ML","name":"Zégoua","admin1Code":"ML.06","latitude":10.48804,"longitude":-5.64943,"translations":{"pt":"Zégoua","it":"Zégoua","ru":"Zégoua","uk":"Zégoua","de":"Zégoua","es":"Zégoua","en":"Zégoua","fr":"Zégoua"}},{"country":"ML","name":"Йоросо","admin1Code":"ML.06","latitude":12.35811,"longitude":-4.77688,"translations":{"pt":"Joroso","it":"Joroso","ru":"Йоросо","uk":"Йоросо","de":"Joroso","es":"Joroso","en":"Йоросо","fr":"Joroso"}},{"country":"ML","name":"Yanfolila","admin1Code":"ML.06","latitude":11.18333,"longitude":-8.15,"translations":{"pt":"Yanfolila","it":"Yanfolila","ru":"Yanfolila","uk":"Yanfolila","de":"Yanfolila","es":"Yanfolila","en":"Yanfolila","fr":"Yanfolila"}},{"country":"ML","name":"Toubakoura","admin1Code":"ML.07","latitude":13.4637,"longitude":-7.38278,"translations":{"pt":"Toubakoura","it":"Toubakoura","ru":"Toubakoura","uk":"Toubakoura","de":"Toubakoura","es":"Toubakoura","en":"Toubakoura","fr":"Toubakoura"}},{"country":"ML","name":"Timbuktu","admin1Code":"ML.08","latitude":16.77348,"longitude":-3.00742,"translations":{"pt":"Timbouctou","it":"Timbuctù","ru":"Томбукту","uk":"Тімбукту","de":"Timbuktu","es":"Tombuctú","en":"Timbuktu","fr":"Tombouctou"}},{"country":"ML","name":"Siribala coro","admin1Code":"ML.05","latitude":14.0432,"longitude":-6.1067,"translations":{"pt":"Siribala coro","it":"Siribala coro","ru":"Siribala coro","uk":"Siribala coro","de":"Siribala coro","es":"Siribala coro","en":"Siribala coro","fr":"Siribala coro"}},{"country":"ML","name":"Sirakoro méguétana","admin1Code":"ML.07","latitude":12.56439,"longitude":-7.91551,"translations":{"pt":"Sirakoro méguétana","it":"Sirakoro méguétana","ru":"Sirakoro méguétana","uk":"Sirakoro méguétana","de":"Sirakoro méguétana","es":"Sirakoro méguétana","en":"Sirakoro méguétana","fr":"Sirakoro méguétana"}},{"country":"ML","name":"Sikasso","admin1Code":"ML.06","latitude":11.31755,"longitude":-5.66654,"translations":{"pt":"Sikasso","it":"Sikasso","ru":"Сикасо","uk":"Сікасо","de":"Sikasso","es":"Sikasso","en":"Sikasso","fr":"Sikasso"}},{"country":"ML","name":"Ségou","admin1Code":"ML.05","latitude":13.44032,"longitude":-6.25947,"translations":{"pt":"Ségou","it":"Ségou","ru":"Сеги","uk":"Ségou","de":"Ségou","es":"Segú","en":"Ségou","fr":"Ségou"}},{"country":"ML","name":"San","admin1Code":"ML.05","latitude":13.29701,"longitude":-4.89627,"translations":{"pt":"San","it":"San","ru":"San","uk":"San","de":"San","es":"San","en":"San","fr":"San"}},{"country":"ML","name":"Sagalo","admin1Code":"ML.03","latitude":12.2,"longitude":-10.7,"translations":{"pt":"Sagalo","it":"Sagalo","ru":"Sagalo","uk":"Sagalo","de":"Sagalo","es":"Sagalo","en":"Sagalo","fr":"Sagalo"}},{"country":"ML","name":"Nioro du sahel","admin1Code":"ML.03","latitude":15.23074,"longitude":-9.59356,"translations":{"pt":"Nioro du sahel","it":"Nioro du sahel","ru":"Nioro du sahel","uk":"Nioro du sahel","de":"Nioro du sahel","es":"Nioro du sahel","en":"Nioro du sahel","fr":"Nioro-du-sahel"}},{"country":"ML","name":"Нионо","admin1Code":"ML.05","latitude":14.25054,"longitude":-5.98679,"translations":{"pt":"Nyono","it":"Nyono","ru":"Нионо","uk":"Нионо","de":"Nyono","es":"Nyono","en":"Нионо","fr":"Nyono"}},{"country":"ML","name":"Nara","admin1Code":"ML.07","latitude":15.16931,"longitude":-7.28985,"translations":{"pt":"Nara","it":"Nara","ru":"Nara","uk":"Nara","de":"Nara","es":"Nara","en":"Nara","fr":"Nara"}},{"country":"ML","name":"Mopti","admin1Code":"ML.04","latitude":14.4843,"longitude":-4.18296,"translations":{"pt":"Mopti","it":"Mopti","ru":"Мопти","uk":"Мопті","de":"Mopti","es":"Mopti","en":"Mopti","fr":"Mopti"}},{"country":"ML","name":"Markala","admin1Code":"ML.05","latitude":13.68427,"longitude":-6.07352,"translations":{"pt":"Markala","it":"Markala","ru":"Markala","uk":"Markala","de":"Markala","es":"Markala","en":"Markala","fr":"Markala"}},{"country":"ML","name":"Moribabougou","admin1Code":"ML.07","latitude":12.68672,"longitude":-7.86378,"translations":{"pt":"Moribabougou","it":"Moribabougou","ru":"Moribabougou","uk":"Moribabougou","de":"Moribabougou","es":"Moribabougou","en":"Moribabougou","fr":"Moribabougou"}},{"country":"ML","name":"Кутиала","admin1Code":"ML.06","latitude":12.38723,"longitude":-5.46507,"translations":{"pt":"Kutyala","it":"Kutyala","ru":"Кутиала","uk":"Кутиала","de":"Kutyala","es":"Kutyala","en":"Кутиала","fr":"Kutyala"}},{"country":"ML","name":"Kouri","admin1Code":"ML.06","latitude":12.18396,"longitude":-4.80284,"translations":{"pt":"Kouri","it":"Kouri","ru":"Kouri","uk":"Kouri","de":"Kouri","es":"Kouri","en":"Kouri","fr":"Kouri"}},{"country":"ML","name":"Koulikoro","admin1Code":"ML.07","latitude":12.86273,"longitude":-7.55985,"translations":{"pt":"Koulikoro","it":"Koulikoro","ru":"Куликоро","uk":"Кулікоро","de":"Koulikoro","es":"Koulikoro","en":"Koulikoro","fr":"Koulikoro"}},{"country":"ML","name":"Koro","admin1Code":"ML.04","latitude":14.064,"longitude":-3.07539,"translations":{"pt":"Koro","it":"Koro","ru":"Koro","uk":"Koro","de":"Koro","es":"Koro","en":"Koro","fr":"Koro"}},{"country":"ML","name":"Колокани","admin1Code":"ML.07","latitude":13.5728,"longitude":-8.0339,"translations":{"pt":"Kolokany","it":"Kolokany","ru":"Колокани","uk":"Колокани","de":"Kolokany","es":"Kolokany","en":"Колокани","fr":"Kolokani"}},{"country":"ML","name":"Kita","admin1Code":"ML.03","latitude":13.03885,"longitude":-9.48817,"translations":{"pt":"Kita","it":"Kita","ru":"Kita","uk":"Kita","de":"Kita","es":"Kita","en":"Kita","fr":"Kita"}},{"country":"ML","name":"Kidal","admin1Code":"ML.10","latitude":18.44345,"longitude":1.40921,"translations":{"pt":"Kidal","it":"Kidal","ru":"Кидаль","uk":"Кідаль","de":"Kidal","es":"Kidal","en":"Kidal","fr":"Kidal"}},{"country":"ML","name":"Ké-macina","admin1Code":"ML.05","latitude":13.9641,"longitude":-5.35791,"translations":{"pt":"Ké-macina","it":"Ké-macina","ru":"Ké-macina","uk":"Ké-macina","de":"Ké-macina","es":"Ké-macina","en":"Ké-macina","fr":"Ké-macina"}},{"country":"ML","name":"Kayes","admin1Code":"ML.03","latitude":14.44776,"longitude":-11.44393,"translations":{"pt":"Kayes","it":"Kayes","ru":"Каес","uk":"Каєс","de":"Kayes","es":"Kayes","en":"Kayes","fr":"Kayes"}},{"country":"ML","name":"Кати","admin1Code":"ML.07","latitude":12.74409,"longitude":-8.07257,"translations":{"pt":"Katy","it":"Katy","ru":"Кати","uk":"Кати","de":"Katy","es":"Katy","en":"Кати","fr":"Katy"}},{"country":"ML","name":"Кангаба","admin1Code":"ML.07","latitude":11.93333,"longitude":-8.41667,"translations":{"pt":"Kanhaba","it":"Kanhaba","ru":"Кангаба","uk":"Кангаба","de":"Kanhaba","es":"Kanhaba","en":"Кангаба","fr":"Kanhaba"}},{"country":"ML","name":"Kalaban koro","admin1Code":"ML.07","latitude":12.57329,"longitude":-8.02907,"translations":{"pt":"Kalaban koro","it":"Kalaban koro","ru":"Kalaban koro","uk":"Kalaban koro","de":"Kalaban koro","es":"Kalaban koro","en":"Kalaban koro","fr":"Kalaban koro"}},{"country":"ML","name":"Kadiolo","admin1Code":"ML.06","latitude":10.55,"longitude":-5.76667,"translations":{"pt":"Kadiolo","it":"Kadiolo","ru":"Kadiolo","uk":"Kadiolo","de":"Kadiolo","es":"Kadiolo","en":"Kadiolo","fr":"Kadiolo"}},{"country":"ML","name":"Kabala","admin1Code":"ML.07","latitude":12.52549,"longitude":-8.03927,"translations":{"pt":"Kabala","it":"Kabala","ru":"Kabala","uk":"Kabala","de":"Kabala","es":"Kabala","en":"Kabala","fr":"Kabala"}},{"country":"ML","name":"Goundam","admin1Code":"ML.08","latitude":16.41453,"longitude":-3.67075,"translations":{"pt":"Goundam","it":"Goundam","ru":"Goundam","uk":"Goundam","de":"Goundam","es":"Goundam","en":"Goundam","fr":"Goundam"}},{"country":"ML","name":"Ґао","admin1Code":"ML.09","latitude":16.27167,"longitude":-0.04472,"translations":{"pt":"Gao","it":"Gao","ru":"Гао","uk":"Ґао","de":"Gao","es":"Gao","en":"Ґао","fr":"Gao"}},{"country":"ML","name":"Pèlèngana","admin1Code":"ML.05","latitude":13.4274,"longitude":-6.222,"translations":{"pt":"Pèlèngana","it":"Pèlèngana","ru":"Pèlèngana","uk":"Pèlèngana","de":"Pèlèngana","es":"Pèlèngana","en":"Pèlèngana","fr":"Pèlèngana"}},{"country":"ML","name":"Fana","admin1Code":"ML.07","latitude":12.7787,"longitude":-6.9564,"translations":{"pt":"Fana","it":"Fana","ru":"Fana","uk":"Fana","de":"Fana","es":"Fana","en":"Fana","fr":"Fana"}},{"country":"ML","name":"Douentza","admin1Code":"ML.04","latitude":15.00605,"longitude":-2.9517,"translations":{"pt":"Douentza","it":"Douentza","ru":"Douentza","uk":"Douentza","de":"Douentza","es":"Douentza","en":"Douentza","fr":"Douentza"}},{"country":"ML","name":"Dougabougou","admin1Code":"ML.05","latitude":13.82049,"longitude":-6.12057,"translations":{"pt":"Dougabougou","it":"Dougabougou","ru":"Dougabougou","uk":"Dougabougou","de":"Dougabougou","es":"Dougabougou","en":"Dougabougou","fr":"Dougabougou"}},{"country":"ML","name":"Djenné","admin1Code":"ML.04","latitude":13.90608,"longitude":-4.55332,"translations":{"pt":"Djenné","it":"Djenné","ru":"Djenné","uk":"Djenné","de":"Djenné","es":"Djenné","en":"Djenné","fr":"Djénné"}},{"country":"ML","name":"Diré","admin1Code":"ML.08","latitude":16.25705,"longitude":-3.40126,"translations":{"pt":"Diré","it":"Diré","ru":"Diré","uk":"Diré","de":"Diré","es":"Diré","en":"Diré","fr":"Diré"}},{"country":"ML","name":"Diourou","admin1Code":"ML.05","latitude":13.68719,"longitude":-5.83203,"translations":{"pt":"Diourou","it":"Diourou","ru":"Diourou","uk":"Diourou","de":"Diourou","es":"Diourou","en":"Diourou","fr":"Diourou"}},{"country":"ML","name":"Doïla","admin1Code":"ML.07","latitude":12.48735,"longitude":-6.80313,"translations":{"pt":"Doïla","it":"Doïla","ru":"Doïla","uk":"Doïla","de":"Doïla","es":"Doïla","en":"Doïla","fr":"Doïla"}},{"country":"ML","name":"Diéma","admin1Code":"ML.03","latitude":14.54,"longitude":-9.1921,"translations":{"pt":"Diéma","it":"Diéma","ru":"Diéma","uk":"Diéma","de":"Diéma","es":"Diéma","en":"Diéma","fr":"Diéma"}},{"country":"ML","name":"Bourem","admin1Code":"ML.09","latitude":16.955,"longitude":-0.34861,"translations":{"pt":"Bourem","it":"Bourem","ru":"Bourem","uk":"Bourem","de":"Bourem","es":"Bourem","en":"Bourem","fr":"Bourem"}},{"country":"ML","name":"Bougouni","admin1Code":"ML.06","latitude":11.41769,"longitude":-7.48323,"translations":{"pt":"Bougouni","it":"Bougouni","ru":"Bougouni","uk":"Bougouni","de":"Bougouni","es":"Bougouni","en":"Bougouni","fr":"Bougouni"}},{"country":"ML","name":"Bla","admin1Code":"ML.05","latitude":12.95007,"longitude":-5.76024,"translations":{"pt":"Bla","it":"Bla","ru":"Bla","uk":"Bla","de":"Bla","es":"Bla","en":"Bla","fr":"Bla"}},{"country":"ML","name":"Bandiagara","admin1Code":"ML.04","latitude":14.35005,"longitude":-3.61038,"translations":{"pt":"Bandiagara","it":"Bandiagara","ru":"Bandiagara","uk":"Bandiagara","de":"Bandiagara","es":"Bandiagara","en":"Bandiagara","fr":"Bandiagara"}},{"country":"ML","name":"Banamba","admin1Code":"ML.07","latitude":13.54773,"longitude":-7.44808,"translations":{"pt":"Banamba","it":"Banamba","ru":"Banamba","uk":"Banamba","de":"Banamba","es":"Banamba","en":"Banamba","fr":"Banamba"}},{"country":"ML","name":"Bamako","admin1Code":"ML.01","latitude":12.60915,"longitude":-7.97522,"translations":{"pt":"Bamako","it":"Bamako","ru":"Бамако","uk":"Бамако","de":"Bamako","es":"Bamako","en":"Bamako","fr":"Bamako"}},{"country":"ML","name":"Bafoulabé","admin1Code":"ML.03","latitude":13.8065,"longitude":-10.8321,"translations":{"pt":"Bafoulabé","it":"Bafoulabé","ru":"Bafoulabé","uk":"Bafoulabé","de":"Bafoulabé","es":"Bafoulabé","en":"Bafoulabé","fr":"Bafoulabé"}},{"country":"ML","name":"Dialakorodji","admin1Code":"ML.07","latitude":12.70354,"longitude":-7.96463,"translations":{"pt":"Dialakorodji","it":"Dialakorodji","ru":"Dialakorodji","uk":"Dialakorodji","de":"Dialakorodji","es":"Dialakorodji","en":"Dialakorodji","fr":"Dialakorodji"}},{"country":"ML","name":"Massiogo","admin1Code":"ML.06","latitude":10.30635,"longitude":-6.10972,"translations":{"pt":"Massiogo","it":"Massiogo","ru":"Massiogo","uk":"Massiogo","de":"Massiogo","es":"Massiogo","en":"Massiogo","fr":"Massiogo"}},{"country":"ML","name":"Sangarébougou","admin1Code":"ML.07","latitude":12.70581,"longitude":-7.90268,"translations":{"pt":"Sangarébougou","it":"Sangarébougou","ru":"Sangarébougou","uk":"Sangarébougou","de":"Sangarébougou","es":"Sangarébougou","en":"Sangarébougou","fr":"Sangarébougou"}}]