[{"country":"FI","name":"Ylöjärvi","admin1Code":"FI.06","latitude":61.55632,"longitude":23.59606,"translations":{"pt":"Ylöjärvi","it":"Ylöjärvi","ru":"Ylöjärvi","uk":"Ylöjärvi","de":"Ylöjärvi","es":"Ylöjärvi","en":"Ylöjärvi","fr":"Ylöjärvi"}},{"country":"FI","name":"Vuosaari","admin1Code":"FI.01","latitude":60.20963,"longitude":25.14195,"translations":{"pt":"Vuosaari","it":"Vuosaari","ru":"Vuosaari","uk":"Vuosaari","de":"Vuosaari","es":"Vuosaari","en":"Vuosaari","fr":"Vuosaari"}},{"country":"FI","name":"Vihti","admin1Code":"FI.01","latitude":60.41699,"longitude":24.31965,"translations":{"pt":"Vihti","it":"Vihti","ru":"Вихти","uk":"Vihti","de":"Vihti","es":"Vihti","en":"Vihti","fr":"Vihti"}},{"country":"FI","name":"Varkaus","admin1Code":"FI.11","latitude":62.31533,"longitude":27.873,"translations":{"pt":"Varkaus","it":"Varkaus","ru":"Варкаус","uk":"Варкаус","de":"Varkaus","es":"Varkaus","en":"Varkaus","fr":"Varkaus"}},{"country":"FI","name":"Vantaa","admin1Code":"FI.01","latitude":60.29414,"longitude":25.04099,"translations":{"pt":"Vantaa","it":"Vantaa","ru":"Вантаа","uk":"Вантаа","de":"Vantaa","es":"Vantaa","en":"Vantaa","fr":"Vantaa"}},{"country":"FI","name":"Valkeakoski","admin1Code":"FI.06","latitude":61.26421,"longitude":24.03122,"translations":{"pt":"Valkeakoski","it":"Valkeakoski","ru":"Валкеакоски","uk":"Валкеакоскі","de":"Valkeakoski","es":"Valkeakoski","en":"Valkeakoski","fr":"Valkeakoski"}},{"country":"FI","name":"Vaasa","admin1Code":"FI.15","latitude":63.096,"longitude":21.61577,"translations":{"pt":"Vaasa","it":"Vaasa","ru":"Вааса","uk":"Вааса","de":"Vaasa","es":"Vaasa","en":"Vaasa","fr":"Vaasa"}},{"country":"FI","name":"Uusikaupunki","admin1Code":"FI.02","latitude":60.80043,"longitude":21.40841,"translations":{"pt":"Uusikaupunki","it":"Uusikaupunki","ru":"Уусикаупунки","uk":"Уусікаупункі","de":"Uusikaupunki","es":"Uusikaupunki","en":"Uusikaupunki","fr":"Uusikaupunki"}},{"country":"FI","name":"Tuusula","admin1Code":"FI.01","latitude":60.40368,"longitude":25.02638,"translations":{"pt":"Tuusula","it":"Tuusula","ru":"Туусула","uk":"Tuusula","de":"Tuusula","es":"Tuusula","en":"Tuusula","fr":"Tuusula"}},{"country":"FI","name":"Turku","admin1Code":"FI.02","latitude":60.45148,"longitude":22.26869,"translations":{"pt":"Turku","it":"Turku","ru":"Турку","uk":"Турку","de":"Turku","es":"Turku","en":"Turku","fr":"Turku"}},{"country":"FI","name":"Tornio","admin1Code":"FI.19","latitude":65.84811,"longitude":24.14662,"translations":{"pt":"Tornio","it":"Tornio","ru":"Торнио","uk":"Торніо","de":"Tornio","es":"Tornio","en":"Tornio","fr":"Tornio"}},{"country":"FI","name":"Tampere","admin1Code":"FI.06","latitude":61.49911,"longitude":23.78712,"translations":{"pt":"Tampere","it":"Tampere","ru":"Тампере","uk":"Тампере","de":"Tampere","es":"Tampere","en":"Tampere","fr":"Tampere"}},{"country":"FI","name":"Taka-töölö","admin1Code":"FI.01","latitude":60.18434,"longitude":24.91948,"translations":{"pt":"Taka-töölö","it":"Taka-töölö","ru":"Taka-töölö","uk":"Taka-töölö","de":"Taka-töölö","es":"Taka-töölö","en":"Taka-töölö","fr":"Taka-töölö"}},{"country":"FI","name":"Siilinjärvi","admin1Code":"FI.11","latitude":63.08333,"longitude":27.66667,"translations":{"pt":"Siilinjärvi","it":"Siilinjärvi","ru":"Силинъярви","uk":"Siilinjärvi","de":"Siilinjärvi","es":"Siilinjärvi","en":"Siilinjärvi","fr":"Siilinjärvi"}},{"country":"FI","name":"Sipoo","admin1Code":"FI.01","latitude":60.37752,"longitude":25.26906,"translations":{"pt":"Sipoo","it":"Sipoo","ru":"Sipoo","uk":"Sipoo","de":"Sipoo","es":"Sipoo","en":"Sipoo","fr":"Sipoo"}},{"country":"FI","name":"Seinäjoki","admin1Code":"FI.14","latitude":62.79446,"longitude":22.82822,"translations":{"pt":"Seinäjoki","it":"Seinäjoki","ru":"Сейняйоки","uk":"Сейняйокі","de":"Seinäjoki","es":"Seinäjoki","en":"Seinäjoki","fr":"Seinäjoki"}},{"country":"FI","name":"Savonlinna","admin1Code":"FI.10","latitude":61.8699,"longitude":28.87999,"translations":{"pt":"Savonlinna","it":"Savonlinna","ru":"Савонлинна","uk":"Савонлінна","de":"Savonlinna","es":"Savonlinna","en":"Savonlinna","fr":"Savonlinna"}},{"country":"FI","name":"Salo","admin1Code":"FI.02","latitude":60.38333,"longitude":23.13333,"translations":{"pt":"Salo","it":"Salo","ru":"Сало","uk":"Сало","de":"Salo","es":"Salo","en":"Salo","fr":"Salo"}},{"country":"FI","name":"Rovaniemi","admin1Code":"FI.19","latitude":66.5,"longitude":25.71667,"translations":{"pt":"Rovaniemi","it":"Rovaniemi","ru":"Рованиеми","uk":"Рованіемі","de":"Rovaniemi","es":"Rovaniemi","en":"Rovaniemi","fr":"Rovaniemi"}},{"country":"FI","name":"Riihimäki","admin1Code":"FI.05","latitude":60.73769,"longitude":24.77726,"translations":{"pt":"Riihimäki","it":"Riihimäki","ru":"Рийхимяки","uk":"Рійгімякі","de":"Riihimäki","es":"Riihimäki","en":"Riihimäki","fr":"Riihimäki"}},{"country":"FI","name":"Rauma","admin1Code":"FI.04","latitude":61.12724,"longitude":21.51127,"translations":{"pt":"Rauma","it":"Rauma","ru":"Раума","uk":"Раума","de":"Rauma","es":"Rauma","en":"Rauma","fr":"Rauma"}},{"country":"FI","name":"Raisio","admin1Code":"FI.02","latitude":60.48592,"longitude":22.16895,"translations":{"pt":"Raisio","it":"Raisio","ru":"Райсио","uk":"Райсіо","de":"Raisio","es":"Raisio","en":"Raisio","fr":"Raisio"}},{"country":"FI","name":"Raahe","admin1Code":"FI.17","latitude":64.68333,"longitude":24.48333,"translations":{"pt":"Raahe","it":"Raahe","ru":"Рахе","uk":"Рааге","de":"Raahe","es":"Raahe","en":"Raahe","fr":"Raahe"}},{"country":"FI","name":"Pori","admin1Code":"FI.04","latitude":61.48333,"longitude":21.78333,"translations":{"pt":"Pori","it":"Pori","ru":"Пори","uk":"Порі","de":"Pori","es":"Pori","en":"Pori","fr":"Pori"}},{"country":"FI","name":"Pitäjänmäki","admin1Code":"FI.01","latitude":60.22287,"longitude":24.86103,"translations":{"pt":"Pitäjänmäki","it":"Pitäjänmäki","ru":"Pitäjänmäki","uk":"Pitäjänmäki","de":"Pitäjänmäki","es":"Pitäjänmäki","en":"Pitäjänmäki","fr":"Pitäjänmäki"}},{"country":"FI","name":"Pirkkala","admin1Code":"FI.06","latitude":61.46125,"longitude":23.63228,"translations":{"pt":"Pirkkala","it":"Pirkkala","ru":"Pirkkala","uk":"Pirkkala","de":"Pirkkala","es":"Pirkkala","en":"Pirkkala","fr":"Pirkkala"}},{"country":"FI","name":"Oulunkylä","admin1Code":"FI.01","latitude":60.22924,"longitude":24.96403,"translations":{"pt":"Oulunkylä","it":"Oulunkylä","ru":"Oulunkylä","uk":"Oulunkylä","de":"Oulunkylä","es":"Oulunkylä","en":"Oulunkylä","fr":"Oulunkylä"}},{"country":"FI","name":"Oulu","admin1Code":"FI.17","latitude":65.01236,"longitude":25.46816,"translations":{"pt":"Oulu","it":"Oulu","ru":"Оулу","uk":"Оулу","de":"Oulu","es":"Oulu","en":"Oulu","fr":"Oulu"}},{"country":"FI","name":"Nurmijärvi","admin1Code":"FI.01","latitude":60.46407,"longitude":24.8073,"translations":{"pt":"Nurmijärvi","it":"Nurmijärvi","ru":"Нурмиярви","uk":"Nurmijärvi","de":"Nurmijärvi","es":"Nurmijärvi","en":"Nurmijärvi","fr":"Nurmijärvi"}},{"country":"FI","name":"Nokia","admin1Code":"FI.06","latitude":61.46667,"longitude":23.5,"translations":{"pt":"Nokia","it":"Nokia","ru":"Нокиа","uk":"Нокіа","de":"Nokia","es":"Nokia","en":"Nokia","fr":"Nokia"}},{"country":"FI","name":"Munkkiniemi","admin1Code":"FI.01","latitude":60.19861,"longitude":24.87772,"translations":{"pt":"Munkkiniemi","it":"Munkkiniemi","ru":"Munkkiniemi","uk":"Munkkiniemi","de":"Munkkiniemi","es":"Munkkiniemi","en":"Munkkiniemi","fr":"Munkkiniemi"}},{"country":"FI","name":"Mikkeli","admin1Code":"FI.10","latitude":61.68857,"longitude":27.27227,"translations":{"pt":"Mikkeli","it":"Mikkeli","ru":"Миккели","uk":"Mikkeli","de":"Mikkeli","es":"Mikkeli","en":"Mikkeli","fr":"Mikkeli"}},{"country":"FI","name":"Mellunkylä","admin1Code":"FI.01","latitude":60.23355,"longitude":25.09947,"translations":{"pt":"Mellunkylä","it":"Mellunkylä","ru":"Mellunkylä","uk":"Mellunkylä","de":"Mellunkylä","es":"Mellunkylä","en":"Mellunkylä","fr":"Mellunkylä"}},{"country":"FI","name":"Matinkylä","admin1Code":"FI.01","latitude":60.15885,"longitude":24.74241,"translations":{"pt":"Matinkylä","it":"Matinkylä","ru":"Matinkylä","uk":"Matinkylä","de":"Matinkylä","es":"Matinkylä","en":"Matinkylä","fr":"Matinkylä"}},{"country":"FI","name":"Mäntsälä","admin1Code":"FI.01","latitude":60.63333,"longitude":25.31667,"translations":{"pt":"Mäntsälä","it":"Mäntsälä","ru":"Мянтсяля","uk":"Mäntsälä","de":"Mäntsälä","es":"Mäntsälä","en":"Mäntsälä","fr":"Mäntsälä"}},{"country":"FI","name":"Loviisa","admin1Code":"FI.01","latitude":60.45659,"longitude":26.22505,"translations":{"pt":"Loviisa","it":"Loviisa","ru":"Ловийса","uk":"Loviisa","de":"Loviisa","es":"Loviisa","en":"Loviisa","fr":"Loviisa"}},{"country":"FI","name":"Loimaa","admin1Code":"FI.02","latitude":60.84972,"longitude":23.0561,"translations":{"pt":"Loimaa","it":"Loimaa","ru":"Лоймаа","uk":"Лоймаа","de":"Loimaa","es":"Loimaa","en":"Loimaa","fr":"Loimaa"}},{"country":"FI","name":"Lohja","admin1Code":"FI.01","latitude":60.24859,"longitude":24.06534,"translations":{"pt":"Lohja","it":"Lohja","ru":"Лохья","uk":"Логя","de":"Lohja","es":"Lohja","en":"Lohja","fr":"Lohja"}},{"country":"FI","name":"Lieto","admin1Code":"FI.02","latitude":60.51032,"longitude":22.46176,"translations":{"pt":"Lieto","it":"Lieto","ru":"Lieto","uk":"Lieto","de":"Lieto","es":"Lieto","en":"Lieto","fr":"Lieto"}},{"country":"FI","name":"Leppävaara","admin1Code":"FI.01","latitude":60.21283,"longitude":24.81348,"translations":{"pt":"Leppävaara","it":"Leppävaara","ru":"Leppävaara","uk":"Leppävaara","de":"Leppävaara","es":"Leppävaara","en":"Leppävaara","fr":"Leppävaara"}},{"country":"FI","name":"Lempäälä","admin1Code":"FI.06","latitude":61.31667,"longitude":23.75,"translations":{"pt":"Lempäälä","it":"Lempäälä","ru":"Лемпяаля","uk":"Lempäälä","de":"Lempäälä","es":"Lempäälä","en":"Lempäälä","fr":"Lempäälä"}},{"country":"FI","name":"Lauttasaari","admin1Code":"FI.01","latitude":60.15896,"longitude":24.86797,"translations":{"pt":"Lauttasaari","it":"Lauttasaari","ru":"Lauttasaari","uk":"Lauttasaari","de":"Lauttasaari","es":"Lauttasaari","en":"Lauttasaari","fr":"Lauttasaari"}},{"country":"FI","name":"Laukaa","admin1Code":"FI.13","latitude":62.41407,"longitude":25.95194,"translations":{"pt":"Laukaa","it":"Laukaa","ru":"Лаука","uk":"Laukaa","de":"Laukaa","es":"Laukaa","en":"Laukaa","fr":"Laukaa"}},{"country":"FI","name":"Lappeenranta","admin1Code":"FI.09","latitude":61.05871,"longitude":28.18871,"translations":{"pt":"Lappeenranta","it":"Lappeenranta","ru":"Лаппеэнранта","uk":"Лаппеенранта","de":"Lappeenranta","es":"Lappeenranta","en":"Lappeenranta","fr":"Lappeenranta"}},{"country":"FI","name":"Lahti","admin1Code":"FI.07","latitude":60.98267,"longitude":25.66151,"translations":{"pt":"Lahti","it":"Lahti","ru":"Лахти","uk":"Лахті","de":"Lahti","es":"Lahti","en":"Lahti","fr":"Lahti"}},{"country":"FI","name":"Kirkkonummi","admin1Code":"FI.01","latitude":60.12381,"longitude":24.43853,"translations":{"pt":"Kirkkonummi","it":"Kirkkonummi","ru":"Киркконумми","uk":"Kirkkonummi","de":"Kirkkonummi","es":"Kirkkonummi","en":"Kirkkonummi","fr":"Kirkkonummi"}},{"country":"FI","name":"Kuusamo","admin1Code":"FI.17","latitude":65.96447,"longitude":29.18878,"translations":{"pt":"Kuusamo","it":"Kuusamo","ru":"Куусамо","uk":"Куусамо","de":"Kuusamo","es":"Kuusamo","en":"Kuusamo","fr":"Kuusamo"}},{"country":"FI","name":"Kuopio","admin1Code":"FI.11","latitude":62.89238,"longitude":27.67703,"translations":{"pt":"Kuopio","it":"Kuopio","ru":"Куопио","uk":"Куопіо","de":"Kuopio","es":"Kuopio","en":"Kuopio","fr":"Kuopio"}},{"country":"FI","name":"Kouvola","admin1Code":"FI.08","latitude":60.86667,"longitude":26.7,"translations":{"pt":"Kouvola","it":"Kouvola","ru":"Коувола","uk":"Коувола","de":"Kouvola","es":"Kouvola","en":"Kouvola","fr":"Kouvola"}},{"country":"FI","name":"Kotka","admin1Code":"FI.08","latitude":60.4664,"longitude":26.94582,"translations":{"pt":"Kotka","it":"Kotka","ru":"Котка","uk":"Котка","de":"Kotka","es":"Kotka","en":"Kotka","fr":"Kotka"}},{"country":"FI","name":"Korsholm","admin1Code":"FI.15","latitude":63.11418,"longitude":21.68216,"translations":{"pt":"Korsholm","it":"Korsholm","ru":"Korsholm","uk":"Korsholm","de":"Korsholm","es":"Korsholm","en":"Korsholm","fr":"Korsholm"}},{"country":"FI","name":"Kokkola","admin1Code":"FI.16","latitude":63.83847,"longitude":23.13066,"translations":{"pt":"Kokkola","it":"Kokkola","ru":"Коккола","uk":"Коккола","de":"Kokkola","es":"Kokkola","en":"Kokkola","fr":"Kokkola"}},{"country":"FI","name":"Klaukkala","admin1Code":"FI.01","latitude":60.38244,"longitude":24.751,"translations":{"pt":"Klaukkala","it":"Klaukkala","ru":"Клауккалла","uk":"Клауккала","de":"Klaukkala","es":"Klaukkala","en":"Klaukkala","fr":"Klaukkala"}},{"country":"FI","name":"Kerava","admin1Code":"FI.01","latitude":60.40338,"longitude":25.105,"translations":{"pt":"Kerava","it":"Kerava","ru":"Керава","uk":"Керава","de":"Kerava","es":"Kerava","en":"Kerava","fr":"Kerava"}},{"country":"FI","name":"Kemi","admin1Code":"FI.19","latitude":65.73641,"longitude":24.56371,"translations":{"pt":"Kemi","it":"Kemi","ru":"Кеми","uk":"Кемі","de":"Kemi","es":"Kemi","en":"Kemi","fr":"Kemi"}},{"country":"FI","name":"Karhula","admin1Code":"FI.08","latitude":60.52156,"longitude":26.93125,"translations":{"pt":"Karhula","it":"Karhula","ru":"Кархула","uk":"Karhula","de":"Karhula","es":"Karhula","en":"Karhula","fr":"Karhula"}},{"country":"FI","name":"Kangasala","admin1Code":"FI.06","latitude":61.46383,"longitude":24.07602,"translations":{"pt":"Kangasala","it":"Kangasala","ru":"Кангасала","uk":"Kangasala","de":"Kangasala","es":"Kangasala","en":"Kangasala","fr":"Kangasala"}},{"country":"FI","name":"Kallio","admin1Code":"FI.01","latitude":60.18427,"longitude":24.95034,"translations":{"pt":"Kallio","it":"Kallio","ru":"Kallio","uk":"Kallio","de":"Kallio","es":"Kallio","en":"Kallio","fr":"Kallio"}},{"country":"FI","name":"Kajaani","admin1Code":"FI.18","latitude":64.22728,"longitude":27.72846,"translations":{"pt":"Kajaani","it":"Kajaani","ru":"Каяни","uk":"Каяані","de":"Kajaani","es":"Kajaani","en":"Kajaani","fr":"Kajaani"}},{"country":"FI","name":"Kaarina","admin1Code":"FI.02","latitude":60.40724,"longitude":22.36904,"translations":{"pt":"Kaarina","it":"Kaarina","ru":"Каарина","uk":"Kaarina","de":"Kaarina","es":"Kaarina","en":"Kaarina","fr":"Kaarina"}},{"country":"FI","name":"Kaarela","admin1Code":"FI.01","latitude":60.25174,"longitude":24.88111,"translations":{"pt":"Kaarela","it":"Kaarela","ru":"Kaarela","uk":"Kaarela","de":"Kaarela","es":"Kaarela","en":"Kaarela","fr":"Kaarela"}},{"country":"FI","name":"Jyväskylä","admin1Code":"FI.13","latitude":62.24147,"longitude":25.72088,"translations":{"pt":"Jyväskylä","it":"Jyväskylä","ru":"Ювяскюля","uk":"Ювяскюля","de":"Jyväskylä","es":"Jyväskylä","en":"Jyväskylä","fr":"Jyväskylä"}},{"country":"FI","name":"Joensuu","admin1Code":"FI.12","latitude":62.60118,"longitude":29.76316,"translations":{"pt":"Joensuu","it":"Joensuu","ru":"Йоэнсуу","uk":"Йоенсуу","de":"Joensuu","es":"Joensuu","en":"Joensuu","fr":"Joensuu"}},{"country":"FI","name":"Järvenpää","admin1Code":"FI.01","latitude":60.47369,"longitude":25.08992,"translations":{"pt":"Järvenpää","it":"Järvenpää","ru":"Ярвенпяя","uk":"Ярвенпяа","de":"Järvenpää","es":"Järvenpää","en":"Järvenpää","fr":"Järvenpää"}},{"country":"FI","name":"Janakkala","admin1Code":"FI.05","latitude":60.9,"longitude":24.6,"translations":{"pt":"Janakkala","it":"Janakkala","ru":"Янаккала","uk":"Janakkala","de":"Janakkala","es":"Janakkala","en":"Janakkala","fr":"Janakkala"}},{"country":"FI","name":"Jämsä","admin1Code":"FI.13","latitude":61.8642,"longitude":25.19002,"translations":{"pt":"Jämsä","it":"Jämsä","ru":"Йямся","uk":"Ямся","de":"Jämsä","es":"Jämsä","en":"Jämsä","fr":"Jämsä"}},{"country":"FI","name":"Jakobstad","admin1Code":"FI.15","latitude":63.67486,"longitude":22.70256,"translations":{"pt":"Jakobstad","it":"Jakobstad","ru":"Якобстад","uk":"Якобстад","de":"Jakobstad","es":"Pietarsaari","en":"Jakobstad","fr":"Jakobstad"}},{"country":"FI","name":"Imatra","admin1Code":"FI.09","latitude":61.17185,"longitude":28.75242,"translations":{"pt":"Imatra","it":"Imatra","ru":"Иматра","uk":"Іматра","de":"Imatra","es":"Imatra","en":"Imatra","fr":"Imatra"}},{"country":"FI","name":"Iisalmi","admin1Code":"FI.11","latitude":63.55915,"longitude":27.19067,"translations":{"pt":"Iisalmi","it":"Iisalmi","ru":"Исалми","uk":"Ійсалмі","de":"Iisalmi","es":"Iisalmi","en":"Iisalmi","fr":"Iisalmi"}},{"country":"FI","name":"Hyvinkää","admin1Code":"FI.01","latitude":60.63333,"longitude":24.86667,"translations":{"pt":"Hyvinkää","it":"Hyvinkää","ru":"Хювинкяя","uk":"Hyvinkää","de":"Hyvinkää","es":"Hyvinkää","en":"Hyvinkää","fr":"Hyvinkää"}},{"country":"FI","name":"Hollola","admin1Code":"FI.07","latitude":61.05,"longitude":25.43333,"translations":{"pt":"Hollola","it":"Hollola","ru":"Холлола","uk":"Hollola","de":"Hollola","es":"Hollola","en":"Hollola","fr":"Hollola"}},{"country":"FI","name":"Hervanta","admin1Code":"FI.06","latitude":61.44792,"longitude":23.85301,"translations":{"pt":"Hervanta","it":"Hervanta","ru":"Hervanta","uk":"Hervanta","de":"Hervanta","es":"Hervanta","en":"Hervanta","fr":"Hervanta"}},{"country":"FI","name":"Herttoniemi","admin1Code":"FI.01","latitude":60.19471,"longitude":25.03535,"translations":{"pt":"Herttoniemi","it":"Herttoniemi","ru":"Herttoniemi","uk":"Herttoniemi","de":"Herttoniemi","es":"Herttoniemi","en":"Herttoniemi","fr":"Herttoniemi"}},{"country":"FI","name":"Helsinki","admin1Code":"FI.01","latitude":60.16952,"longitude":24.93545,"translations":{"pt":"Helsínquia","it":"Helsinki","ru":"Хельсинки","uk":"Гельсінкі","de":"Helsinki","es":"Helsinki","en":"Helsinki","fr":"Helsinki"}},{"country":"FI","name":"Heinola","admin1Code":"FI.07","latitude":61.20564,"longitude":26.03811,"translations":{"pt":"Heinola","it":"Heinola","ru":"Хейнола","uk":"Heinola","de":"Heinola","es":"Heinola","en":"Heinola","fr":"Heinola"}},{"country":"FI","name":"Haukipudas","admin1Code":"FI.17","latitude":65.17654,"longitude":25.35233,"translations":{"pt":"Haukipudas","it":"Haukipudas","ru":"Хаукипудас","uk":"Haukipudas","de":"Haukipudas","es":"Haukipudas","en":"Haukipudas","fr":"Haukipudas"}},{"country":"FI","name":"Hamina","admin1Code":"FI.08","latitude":60.56974,"longitude":27.19794,"translations":{"pt":"Hamina","it":"Hamina","ru":"Хамина","uk":"Гаміна","de":"Hamina","es":"Hamina","en":"Hamina","fr":"Hamina"}},{"country":"FI","name":"Hämeenlinna","admin1Code":"FI.05","latitude":60.99596,"longitude":24.46434,"translations":{"pt":"Hämeenlinna","it":"Hämeenlinna","ru":"Хямеэнлинна","uk":"Гямеенлінна","de":"Hämeenlinna","es":"Hämeenlinna","en":"Hämeenlinna","fr":"Hämeenlinna"}},{"country":"FI","name":"Haaga","admin1Code":"FI.01","latitude":60.22132,"longitude":24.89759,"translations":{"pt":"Haaga","it":"Haaga","ru":"Haaga","uk":"Haaga","de":"Haaga","es":"Haaga","en":"Haaga","fr":"Haaga"}},{"country":"FI","name":"Forssa","admin1Code":"FI.05","latitude":60.81462,"longitude":23.62146,"translations":{"pt":"Forssa","it":"Forssa","ru":"Форсса","uk":"Форсса","de":"Forssa","es":"Forssa","en":"Forssa","fr":"Forssa"}},{"country":"FI","name":"Эспоо","admin1Code":"FI.01","latitude":60.2052,"longitude":24.6522,"translations":{"pt":"Эspoo","it":"Эspoo","ru":"Эспоо","uk":"Эспоо","de":"Эspoo","es":"Эspoo","en":"Эспоо","fr":"Эspoo"}},{"country":"FI","name":"Laajasalo","admin1Code":"FI.01","latitude":60.17521,"longitude":25.03086,"translations":{"pt":"Laajasalo","it":"Laajasalo","ru":"Laajasalo","uk":"Laajasalo","de":"Laajasalo","es":"Laajasalo","en":"Laajasalo","fr":"Laajasalo"}},{"country":"FI","name":"Porvoo","admin1Code":"FI.01","latitude":60.39233,"longitude":25.66507,"translations":{"pt":"Porvoo","it":"Porvoo","ru":"Порвоо","uk":"Порвоо","de":"Porvoo","es":"Porvoo","en":"Porvoo","fr":"Porvoo"}},{"country":"FI","name":"Anjala","admin1Code":"FI.08","latitude":60.68333,"longitude":26.83333,"translations":{"pt":"Anjala","it":"Anjala","ru":"Анъяла","uk":"Anjala","de":"Anjala","es":"Anjala","en":"Anjala","fr":"Anjala"}},{"country":"FI","name":"Viikki","admin1Code":"FI.01","latitude":60.22183,"longitude":25.02386,"translations":{"pt":"Viikki","it":"Viikki","ru":"Viikki","uk":"Viikki","de":"Viikki","es":"Viikki","en":"Viikki","fr":"Viikki"}},{"country":"FI","name":"Olari","admin1Code":"FI.01","latitude":60.17239,"longitude":24.72713,"translations":{"pt":"Olari","it":"Olari","ru":"Olari","uk":"Olari","de":"Olari","es":"Olari","en":"Olari","fr":"Olari"}},{"country":"FI","name":"Myyrmäki","admin1Code":"FI.01","latitude":60.26711,"longitude":24.84713,"translations":{"pt":"Myyrmäki","it":"Myyrmäki","ru":"Myyrmäki","uk":"Myyrmäki","de":"Myyrmäki","es":"Myyrmäki","en":"Myyrmäki","fr":"Myyrmäki"}},{"country":"FI","name":"Suutarila","admin1Code":"FI.01","latitude":60.27996,"longitude":25.01759,"translations":{"pt":"Suutarila","it":"Suutarila","ru":"Suutarila","uk":"Suutarila","de":"Suutarila","es":"Suutarila","en":"Suutarila","fr":"Suutarila"}},{"country":"FI","name":"Suurmetsä","admin1Code":"FI.01","latitude":60.26961,"longitude":25.05395,"translations":{"pt":"Suurmetsä","it":"Suurmetsä","ru":"Suurmetsä","uk":"Suurmetsä","de":"Suurmetsä","es":"Suurmetsä","en":"Suurmetsä","fr":"Suurmetsä"}},{"country":"FI","name":"Pohjois-hervanta","admin1Code":"FI.06","latitude":61.45347,"longitude":23.84744,"translations":{"pt":"Pohjois-hervanta","it":"Pohjois-hervanta","ru":"Pohjois-hervanta","uk":"Pohjois-hervanta","de":"Pohjois-hervanta","es":"Pohjois-hervanta","en":"Pohjois-hervanta","fr":"Pohjois-hervanta"}},{"country":"FI","name":"Espoonlahti","admin1Code":"FI.01","latitude":60.15054,"longitude":24.65307,"translations":{"pt":"Espoonlahti","it":"Espoonlahti","ru":"Espoonlahti","uk":"Espoonlahti","de":"Espoonlahti","es":"Espoonlahti","en":"Espoonlahti","fr":"Espoonlahti"}},{"country":"FI","name":"Pargas","admin1Code":"FI.02","latitude":60.29972,"longitude":22.3004,"translations":{"pt":"Pargas","it":"Pargas","ru":"Pargas","uk":"Pargas","de":"Pargas","es":"Pargas","en":"Pargas","fr":"Pargas"}},{"country":"FI","name":"Sastamala","admin1Code":"FI.06","latitude":61.34942,"longitude":22.90928,"translations":{"pt":"Sastamala","it":"Sastamala","ru":"Sastamala","uk":"Sastamala","de":"Sastamala","es":"Sastamala","en":"Sastamala","fr":"Sastamala"}},{"country":"FI","name":"Vartiokylä","admin1Code":"FI.01","latitude":60.21799,"longitude":25.09569,"translations":{"pt":"Vartiokylä","it":"Vartiokylä","ru":"Vartiokylä","uk":"Vartiokylä","de":"Vartiokylä","es":"Vartiokylä","en":"Vartiokylä","fr":"Vartiokylä"}},{"country":"FI","name":"East helsinki","admin1Code":"FI.01","latitude":60.21043,"longitude":25.08289,"translations":{"pt":"East helsinki","it":"East helsinki","ru":"East helsinki","uk":"East helsinki","de":"East helsinki","es":"East helsinki","en":"East helsinki","fr":"East helsinki"}}]