[{"country":"IL","name":"Jerusalem","admin1Code":"IL.06","latitude":31.76904,"longitude":35.21633,"translations":{"pt":"Jerusalém","it":"Gerusalemme","ru":"Иерусалим","uk":"Єрусалим","de":"Jerusalem","es":"Jerusalén","en":"Jerusalem","fr":"Jérusalem"}},{"country":"IL","name":"Modiin","admin1Code":"IL.02","latitude":31.89385,"longitude":35.01504,"translations":{"pt":"Modiin","it":"Modiin","ru":"Modiin","uk":"Modiin","de":"Modiin","es":"Modiin","en":"Modiin","fr":"Modiin"}},{"country":"IL","name":"Zikhron ya‘aqov","admin1Code":"IL.04","latitude":32.56645,"longitude":34.95628,"translations":{"pt":"Zikhron ya‘aqov","it":"Zikhron ya‘aqov","ru":"Zikhron ya‘aqov","uk":"Zikhron ya‘aqov","de":"Zichron ja’akow","es":"Zikhron ya‘aqov","en":"Zikhron ya‘aqov","fr":"Zikhron ya‘aqov"}},{"country":"IL","name":"Safed","admin1Code":"IL.03","latitude":32.96465,"longitude":35.496,"translations":{"pt":"Safed","it":"Safad","ru":"Цфат","uk":"Цфат","de":"Safed","es":"Safed","en":"Safed","fr":"Safed"}},{"country":"IL","name":"Yokneam illit","admin1Code":"IL.03","latitude":32.65385,"longitude":35.10382,"translations":{"pt":"Yokneam illit","it":"Yokneam illit","ru":"Yokneam illit","uk":"Yokneam illit","de":"Yokneam illit","es":"Yokneam illit","en":"Yokneam illit","fr":"Yokneam illit"}},{"country":"IL","name":"Yirkā","admin1Code":"IL.03","latitude":32.95435,"longitude":35.21197,"translations":{"pt":"Yirkā","it":"Yirkā","ru":"Yirkā","uk":"Yirkā","de":"Yirkā","es":"Yirkā","en":"Yirkā","fr":"Yirkā"}},{"country":"IL","name":"Yehud","admin1Code":"IL.02","latitude":32.03317,"longitude":34.89091,"translations":{"pt":"Yehud","it":"Yehud","ru":"Йехуд","uk":"Єгуд","de":"Jehud","es":"Yehud","en":"Yehud","fr":"Yehud"}},{"country":"IL","name":"Явне","admin1Code":"IL.02","latitude":31.87808,"longitude":34.73983,"translations":{"pt":"Javne","it":"Javne","ru":"Явне","uk":"Явне","de":"Jawne","es":"Javne","en":"Явне","fr":"Yavné"}},{"country":"IL","name":"Jaffa","admin1Code":"IL.05","latitude":32.05043,"longitude":34.75224,"translations":{"pt":"Jafa","it":"Giaffa","ru":"Яффа","uk":"Jaffa","de":"Jaffa","es":"Jafa","en":"Jaffa","fr":"Jophé"}},{"country":"IL","name":"Yāfā","admin1Code":"IL.03","latitude":32.68923,"longitude":35.27832,"translations":{"pt":"Yāfā","it":"Yāfā","ru":"Yāfā","uk":"Yāfā","de":"Yāfā","es":"Yāfā","en":"Yāfā","fr":"Yāfā"}},{"country":"IL","name":"Umm el faḥm","admin1Code":"IL.04","latitude":32.51725,"longitude":35.15349,"translations":{"pt":"Umm el faḥm","it":"Umm el faḥm","ru":"Umm el faḥm","uk":"Umm el faḥm","de":"Umm el faḥm","es":"Umm el faḥm","en":"Umm el faḥm","fr":"Umm el faḥm"}},{"country":"IL","name":"Tirat carmel","admin1Code":"IL.04","latitude":32.76021,"longitude":34.97183,"translations":{"pt":"Tirat carmel","it":"Tirat carmel","ru":"Тират кармель","uk":"Tirat carmel","de":"Tirat carmel","es":"Tirat carmel","en":"Tirat carmel","fr":"Tirat carmel"}},{"country":"IL","name":"Teverya","admin1Code":"IL.03","latitude":32.79221,"longitude":35.53124,"translations":{"pt":"Tiberíades","it":"Tiberiade","ru":"Тверия","uk":"Тверія","de":"Tiberias","es":"Tiberíades","en":"Teverya","fr":"Tibériade"}},{"country":"IL","name":"Tel aviv","admin1Code":"IL.05","latitude":32.08088,"longitude":34.78057,"translations":{"pt":"Tel aviv","it":"Tel aviv","ru":"Тель-авив","uk":"Тель-авів","de":"Tel aviv","es":"Tel aviv","en":"Tel aviv","fr":"Tel-aviv"}},{"country":"IL","name":"Ma'alot-tarshiha","admin1Code":"IL.03","latitude":33.01667,"longitude":35.26667,"translations":{"pt":"Ma'alot-tarshiha","it":"Ma'alot-tarshiha","ru":"Маалот-таршиха","uk":"Ma'alot-tarshiha","de":"Ma'alot-tarshiha","es":"Ma'alot-tarshiha","en":"Ma'alot-tarshiha","fr":"Ma'alot-tarshiha"}},{"country":"IL","name":"Тамра","admin1Code":"IL.03","latitude":32.85301,"longitude":35.1987,"translations":{"pt":"Tamra","it":"Tamra","ru":"Тамра","uk":"Тамра","de":"Tamra","es":"Tamra","en":"Тамра","fr":"Tamra"}},{"country":"IL","name":"Shefa-'amr","admin1Code":"IL.03","latitude":32.80583,"longitude":35.16895,"translations":{"pt":"Shefa-'amr","it":"Shefa-'amr","ru":"Shefa-'amr","uk":"Shefa-'amr","de":"Shefa-'amr","es":"Shefa-'amr","en":"Shefa-'amr","fr":"Shefa-'amr"}},{"country":"IL","name":"Sderot","admin1Code":"IL.01","latitude":31.525,"longitude":34.59693,"translations":{"pt":"Sderot","it":"Sderot","ru":"Сдерот","uk":"Sderot","de":"Sderot","es":"Sederot","en":"Sderot","fr":"Sdérot"}},{"country":"IL","name":"Sakhnin","admin1Code":"IL.03","latitude":32.86422,"longitude":35.29707,"translations":{"pt":"Sakhnin","it":"Sakhnin","ru":"Сахнин","uk":"Сахнін","de":"Sachnin","es":"Sajnin","en":"Sakhnin","fr":"Sakhnin"}},{"country":"IL","name":"Rosh haayin","admin1Code":"IL.02","latitude":32.09556,"longitude":34.95664,"translations":{"pt":"Rosh haayin","it":"Rosh haayin","ru":"Rosh haayin","uk":"Rosh haayin","de":"Rosh haayin","es":"Rosh haayin","en":"Rosh haayin","fr":"Rosh haayin"}},{"country":"IL","name":"Rishon leziyyon","admin1Code":"IL.02","latitude":31.97102,"longitude":34.78939,"translations":{"pt":"Rishon leziyyon","it":"Rishon leziyyon","ru":"Ришон-ле-цион","uk":"Rishon leziyyon","de":"Rischon lezion","es":"Rishon lezion","en":"Rishon leziyyon","fr":"Rishon lezion"}},{"country":"IL","name":"Rehovot","admin1Code":"IL.02","latitude":31.89421,"longitude":34.81199,"translations":{"pt":"Rehovot","it":"Rehovot","ru":"Реховот","uk":"Rehovot","de":"Rechovot","es":"Rejovot","en":"Rehovot","fr":"Rehovot"}},{"country":"IL","name":"Ramla","admin1Code":"IL.02","latitude":31.92923,"longitude":34.86563,"translations":{"pt":"Ramla","it":"Ramla","ru":"Рамла","uk":"Ramla","de":"Ramla","es":"Ramla","en":"Ramla","fr":"Ramla"}},{"country":"IL","name":"Ramat hasharon","admin1Code":"IL.05","latitude":32.14613,"longitude":34.8394,"translations":{"pt":"Ramat hasharon","it":"Ramat hasharon","ru":"Рамат-ха-шарон","uk":"Ramat hasharon","de":"Ramat hascharon","es":"Ramat hasharon","en":"Ramat hasharon","fr":"Ramat ha-sharon"}},{"country":"IL","name":"Ramat gan","admin1Code":"IL.05","latitude":32.08227,"longitude":34.81065,"translations":{"pt":"Ramat gan","it":"Ramat gan","ru":"Рамат-ган","uk":"Рамат-ган","de":"Ramat gan","es":"Ramat gan","en":"Ramat gan","fr":"Ramat gan"}},{"country":"IL","name":"Raanana","admin1Code":"IL.02","latitude":32.1836,"longitude":34.87386,"translations":{"pt":"Raanana","it":"Raanana","ru":"Raanana","uk":"Raanana","de":"Raanana","es":"Raanana","en":"Raanana","fr":"Raanana"}},{"country":"IL","name":"Qiryat yam","admin1Code":"IL.04","latitude":32.84966,"longitude":35.06973,"translations":{"pt":"Qiryat yam","it":"Qiryat yam","ru":"Кирьят-ям","uk":"Qiryat yam","de":"Kirjat jam","es":"Qiryat yam","en":"Qiryat yam","fr":"Kiryat-yam"}},{"country":"IL","name":"Kiryat tiv'on","admin1Code":"IL.04","latitude":32.71618,"longitude":35.12494,"translations":{"pt":"Kiryat tiv'on","it":"Kiryat tiv'on","ru":"Kiryat tiv'on","uk":"Kiryat tiv'on","de":"Kiryat tiv'on","es":"Kiryat tiv'on","en":"Kiryat tiv'on","fr":"Kiryat tiv'on"}},{"country":"IL","name":"Kiryat shmona","admin1Code":"IL.03","latitude":33.20733,"longitude":35.57212,"translations":{"pt":"Qiryat-chemoná","it":"Kiryat shmona","ru":"Кирьят-шмона","uk":"Кір'ят-шмона","de":"Kirjat schmona","es":"Kiryat shemona","en":"Kiryat shmona","fr":"Kiryat shmona"}},{"country":"IL","name":"Kiryat motzkin","admin1Code":"IL.04","latitude":32.83706,"longitude":35.0776,"translations":{"pt":"Kiryat motzkin","it":"Kiryat motzkin","ru":"Кирьят-моцкин","uk":"Kiryat motzkin","de":"Kiryat motzkin","es":"Kiryat motzkin","en":"Kiryat motzkin","fr":"Kiryat motzkin"}},{"country":"IL","name":"Qiryat mal'akhi","admin1Code":"IL.01","latitude":31.72888,"longitude":34.74632,"translations":{"pt":"Qiryat mal'akhi","it":"Qiryat mal'akhi","ru":"Кирьят-малахи","uk":"Qiryat mal'akhi","de":"Kirjat mal'achi","es":"Qiryat mal'aji","en":"Qiryat mal'akhi","fr":"Qiryat mal'akhi"}},{"country":"IL","name":"Kiryat gat","admin1Code":"IL.01","latitude":31.60998,"longitude":34.76422,"translations":{"pt":"Kiryat gat","it":"Kiryat gat","ru":"Кирьят-гат","uk":"Kiryat gat","de":"Kirjat gat","es":"Kiryat gat","en":"Kiryat gat","fr":"Kiryat gat"}},{"country":"IL","name":"Kiryat bialik","admin1Code":"IL.04","latitude":32.8275,"longitude":35.08583,"translations":{"pt":"Kiryat bialik","it":"Kiryat bialik","ru":"Кирьят-бялик","uk":"Kiryat bialik","de":"Kiryat bialik","es":"Kiryat bialik","en":"Kiryat bialik","fr":"Kiryat bialik"}},{"country":"IL","name":"Kiryat ata","admin1Code":"IL.04","latitude":32.81149,"longitude":35.11323,"translations":{"pt":"Kiryat ata","it":"Kiryat ata","ru":"Кирьят-ата","uk":"Kiryat ata","de":"Kiryat ata","es":"Kiryat ata","en":"Kiryat ata","fr":"Kiryat ata"}},{"country":"IL","name":"Qalansawe","admin1Code":"IL.02","latitude":32.28493,"longitude":34.98106,"translations":{"pt":"Qalansawe","it":"Qalansawe","ru":"Qalansawe","uk":"Qalansawe","de":"Qalansawe","es":"Qalansawe","en":"Qalansawe","fr":"Qalansawe"}},{"country":"IL","name":"Petah tikva","admin1Code":"IL.02","latitude":32.08707,"longitude":34.88747,"translations":{"pt":"Petah tikva","it":"Petah tiqwa","ru":"Петах-тиква","uk":"Петах-тіква","de":"Petach tikwa","es":"Petaj tikva","en":"Petah tikva","fr":"Petah tikva"}},{"country":"IL","name":"Or yehuda","admin1Code":"IL.05","latitude":32.02923,"longitude":34.85788,"translations":{"pt":"Or yehuda","it":"Or yehuda","ru":"Ор-йехуда","uk":"Or yehuda","de":"Or jehuda","es":"Or yehuda","en":"Or yehuda","fr":"Or yehuda"}},{"country":"IL","name":"Or akiva","admin1Code":"IL.04","latitude":32.5064,"longitude":34.92087,"translations":{"pt":"Or akiva","it":"Or akiva","ru":"Or akiva","uk":"Or akiva","de":"Or akiva","es":"Or akiva","en":"Or akiva","fr":"Or akiva"}},{"country":"IL","name":"Ofakim","admin1Code":"IL.01","latitude":31.3141,"longitude":34.62025,"translations":{"pt":"Ofakim","it":"Ofakim","ru":"Ofakim","uk":"Ofakim","de":"Ofakim","es":"Ofakim","en":"Ofakim","fr":"Ofakim"}},{"country":"IL","name":"Netivot","admin1Code":"IL.01","latitude":31.42305,"longitude":34.58911,"translations":{"pt":"Netivot","it":"Netivot","ru":"Нетивот","uk":"Нетівот","de":"Netiwot","es":"Netivot","en":"Netivot","fr":"Netivot"}},{"country":"IL","name":"Netanya","admin1Code":"IL.02","latitude":32.33291,"longitude":34.85992,"translations":{"pt":"Netanya","it":"Netanya","ru":"Нетания","uk":"Нетанья","de":"Netanja","es":"Netanya","en":"Netanya","fr":"Netanya"}},{"country":"IL","name":"Ness ziona","admin1Code":"IL.02","latitude":31.92933,"longitude":34.79868,"translations":{"pt":"Ness ziona","it":"Ness ziona","ru":"Нес-циона","uk":"Ness ziona","de":"Nes ziona","es":"Ness tziona","en":"Ness ziona","fr":"Ness ziona"}},{"country":"IL","name":"Nesher","admin1Code":"IL.04","latitude":32.76622,"longitude":35.04425,"translations":{"pt":"Nesher","it":"Nesher","ru":"Нешер","uk":"Nesher","de":"Nescher","es":"Nesher","en":"Nesher","fr":"Nesher"}},{"country":"IL","name":"Naẕerat ‘illit","admin1Code":"IL.03","latitude":32.70816,"longitude":35.32469,"translations":{"pt":"Naẕerat ‘illit","it":"Naẕerat ‘illit","ru":"Naẕerat ‘illit","uk":"Naẕerat ‘illit","de":"Naẕerat ‘illit","es":"Naẕerat ‘illit","en":"Naẕerat ‘illit","fr":"Naẕerat ‘illit"}},{"country":"IL","name":"Nazareth","admin1Code":"IL.03","latitude":32.70056,"longitude":35.29722,"translations":{"pt":"Nazaré","it":"Nazaret","ru":"Назарет","uk":"Назарет","de":"Nazaret","es":"Nazaret","en":"Nazareth","fr":"Nazareth"}},{"country":"IL","name":"Nahariya","admin1Code":"IL.03","latitude":33.00892,"longitude":35.09814,"translations":{"pt":"Nahariya","it":"Nahariya","ru":"Нагария","uk":"Нагарія","de":"Naharija","es":"Nahariya","en":"Nahariya","fr":"Nahariya"}},{"country":"IL","name":"Migdal haemeq","admin1Code":"IL.03","latitude":32.67597,"longitude":35.23986,"translations":{"pt":"Migdal haemeq","it":"Migdal haemek","ru":"Мигдаль хаэмек","uk":"Migdal haemeq","de":"Migdal haemek","es":"Migdal haemek","en":"Migdal haemeq","fr":"Migdal haemek"}},{"country":"IL","name":"Mevaseret zion","admin1Code":"IL.06","latitude":31.80186,"longitude":35.15072,"translations":{"pt":"Mevaseret zion","it":"Mevaseret zion","ru":"Мевасерет-цион","uk":"Мевасерет-ціон","de":"Mewasseret zion","es":"Mevaseret sion","en":"Mevaseret zion","fr":"Mevasseret tsion"}},{"country":"IL","name":"Majd el kurūm","admin1Code":"IL.03","latitude":32.92186,"longitude":35.25568,"translations":{"pt":"Majd el kurūm","it":"Majd el kurūm","ru":"Majd el kurūm","uk":"Majd el kurūm","de":"Majd el kurūm","es":"Majd el kurūm","en":"Majd el kurūm","fr":"Majd el kurūm"}},{"country":"IL","name":"Maghār","admin1Code":"IL.03","latitude":32.88984,"longitude":35.40703,"translations":{"pt":"Maghār","it":"Maghār","ru":"Maghār","uk":"Maghār","de":"Maghār","es":"Maghār","en":"Maghār","fr":"Maghār"}},{"country":"IL","name":"Lod","admin1Code":"IL.02","latitude":31.9467,"longitude":34.8903,"translations":{"pt":"Lida","it":"Lod","ru":"Лод","uk":"Лод","de":"Lod","es":"Lod","en":"Lod","fr":"Lod"}},{"country":"IL","name":"Kfar yona","admin1Code":"IL.02","latitude":32.31669,"longitude":34.93507,"translations":{"pt":"Kfar yona","it":"Kfar yona","ru":"Kfar yona","uk":"Kfar yona","de":"Kfar yona","es":"Kfar yona","en":"Kfar yona","fr":"Kfar yona"}},{"country":"IL","name":"Kfar saba","admin1Code":"IL.02","latitude":32.175,"longitude":34.90694,"translations":{"pt":"Kfar saba","it":"Kfar saba","ru":"Кефар-сава","uk":"Кфар-сава","de":"Kfar saba","es":"Kfar saba","en":"Kfar saba","fr":"Kfar saba"}},{"country":"IL","name":"Karmiel","admin1Code":"IL.03","latitude":32.91708,"longitude":35.30501,"translations":{"pt":"Karmiel","it":"Karmiel","ru":"Кармиэль","uk":"Karmiel","de":"Karmiel","es":"Karmiel","en":"Karmiel","fr":"Karmiel"}},{"country":"IL","name":"Kafr qāsim","admin1Code":"IL.02","latitude":32.11406,"longitude":34.97624,"translations":{"pt":"Kafr qāsim","it":"Kafr qāsim","ru":"Kafr qāsim","uk":"Kafr qāsim","de":"Kafr qāsim","es":"Kafr qāsim","en":"Kafr qāsim","fr":"Kafr qāsim"}},{"country":"IL","name":"Kafr qara","admin1Code":"IL.04","latitude":32.50666,"longitude":35.05392,"translations":{"pt":"Kafr qara","it":"Kafr qara","ru":"Кафр-кара","uk":"Kafr qara","de":"Kafr-qara","es":"Kafr qara","en":"Kafr qara","fr":"Kafr qara"}},{"country":"IL","name":"Kafr mandā","admin1Code":"IL.03","latitude":32.81034,"longitude":35.26009,"translations":{"pt":"Kafr mandā","it":"Kafr mandā","ru":"Kafr mandā","uk":"Kafr mandā","de":"Kafr mandā","es":"Kafr mandā","en":"Kafr mandā","fr":"Kafr mandā"}},{"country":"IL","name":"Kafr kannā","admin1Code":"IL.03","latitude":32.7466,"longitude":35.34242,"translations":{"pt":"Kafr kannā","it":"Kafr kannā","ru":"Kafr kannā","uk":"Kafr kannā","de":"Kafr kannā","es":"Kafr kannā","en":"Kafr kannā","fr":"Kafr kannā"}},{"country":"IL","name":"Judeida makr","admin1Code":"IL.03","latitude":32.9282,"longitude":35.15705,"translations":{"pt":"Judeida makr","it":"Judeida makr","ru":"Judeida makr","uk":"Judeida makr","de":"Judeida makr","es":"Judeida makr","en":"Judeida makr","fr":"Judeida makr"}},{"country":"IL","name":"Holon","admin1Code":"IL.05","latitude":32.01034,"longitude":34.77918,"translations":{"pt":"Holon","it":"Holon","ru":"Холон","uk":"Holon","de":"Cholon","es":"Jolón","en":"Holon","fr":"Holon"}},{"country":"IL","name":"Hod hasharon","admin1Code":"IL.02","latitude":32.15934,"longitude":34.8932,"translations":{"pt":"Hod hasharon","it":"Hod hasharon","ru":"Ход-ха-шарон","uk":"Год-га-шарон","de":"Hod hascharon","es":"Hod hasharon","en":"Hod hasharon","fr":"Hod hasharon"}},{"country":"IL","name":"Herzliya","admin1Code":"IL.05","latitude":32.16627,"longitude":34.82536,"translations":{"pt":"Herzliya","it":"Herzliya","ru":"Герцлия","uk":"Herzliya","de":"Herzlia","es":"Herzliya","en":"Herzliya","fr":"Herzliya"}},{"country":"IL","name":"Haifa","admin1Code":"IL.04","latitude":32.81841,"longitude":34.9885,"translations":{"pt":"Haifa","it":"Haifa","ru":"Хайфа","uk":"Хайфа","de":"Haifa","es":"Haifa","en":"Haifa","fr":"Haïfa"}},{"country":"IL","name":"Hadera","admin1Code":"IL.04","latitude":32.44192,"longitude":34.9039,"translations":{"pt":"Hadera","it":"Hadera","ru":"Хадера","uk":"Hadera","de":"Chadera","es":"Hadera","en":"Hadera","fr":"Hadera"}},{"country":"IL","name":"Giv‘at shmuel","admin1Code":"IL.05","latitude":32.07817,"longitude":34.84858,"translations":{"pt":"Giv‘at shmuel","it":"Giv‘at shmuel","ru":"Giv‘at shmuel","uk":"Giv‘at shmuel","de":"Giv‘at shmuel","es":"Giv‘at shmuel","en":"Giv‘at shmuel","fr":"Giv‘at shmuel"}},{"country":"IL","name":"Giv‘atayim","admin1Code":"IL.05","latitude":32.07225,"longitude":34.81253,"translations":{"pt":"Giv‘atayim","it":"Giv‘atayim","ru":"Гиватаим","uk":"Giv‘atayim","de":"Giv‘atayim","es":"Giv‘atayim","en":"Giv‘atayim","fr":"Giv‘atayim"}},{"country":"IL","name":"Gedera","admin1Code":"IL.02","latitude":31.81456,"longitude":34.77998,"translations":{"pt":"Gedera","it":"Gedera","ru":"Гедера","uk":"Гедера","de":"Gedera","es":"Gedera","en":"Gedera","fr":"Guedera"}},{"country":"IL","name":"Gan yavne","admin1Code":"IL.02","latitude":31.78737,"longitude":34.70659,"translations":{"pt":"Gan yavne","it":"Gan yavne","ru":"Gan yavne","uk":"Gan yavne","de":"Gan yavne","es":"Gan yavne","en":"Gan yavne","fr":"Gan yavne"}},{"country":"IL","name":"Ganei tikva","admin1Code":"IL.02","latitude":32.05971,"longitude":34.8732,"translations":{"pt":"Ganei tikva","it":"Ganei tikva","ru":"Ganei tikva","uk":"Ganei tikva","de":"Ganei tikva","es":"Ganei tikva","en":"Ganei tikva","fr":"Ganei tikva"}},{"country":"IL","name":"Tirah","admin1Code":"IL.02","latitude":32.2341,"longitude":34.95023,"translations":{"pt":"Tirah","it":"Tirah","ru":"Tirah","uk":"Tirah","de":"Tirah","es":"Tirah","en":"Tirah","fr":"Tirah"}},{"country":"IL","name":"Eṭ ṭaiyiba","admin1Code":"IL.02","latitude":32.26616,"longitude":35.00893,"translations":{"pt":"Eṭ ṭaiyiba","it":"Eṭ ṭaiyiba","ru":"Eṭ ṭaiyiba","uk":"Eṭ ṭaiyiba","de":"Eṭ ṭaiyiba","es":"Eṭ ṭaiyiba","en":"Eṭ ṭaiyiba","fr":"Eṭ ṭaiyiba"}},{"country":"IL","name":"Er reina","admin1Code":"IL.03","latitude":32.72339,"longitude":35.31622,"translations":{"pt":"Er reina","it":"Er reina","ru":"Er reina","uk":"Er reina","de":"Er reina","es":"Er reina","en":"Er reina","fr":"Er reina"}},{"country":"IL","name":"Eilat","admin1Code":"IL.01","latitude":29.55805,"longitude":34.94821,"translations":{"pt":"Éilat","it":"Eilat","ru":"Эйлат","uk":"Ейлат","de":"Eilat","es":"Eilat","en":"Eilat","fr":"Eilat"}},{"country":"IL","name":"Dimona","admin1Code":"IL.01","latitude":31.07079,"longitude":35.03269,"translations":{"pt":"Dimona","it":"Dimona","ru":"Димона","uk":"Дімона","de":"Dimona","es":"Dimona","en":"Dimona","fr":"Dimona"}},{"country":"IL","name":"Daliyat al karmel","admin1Code":"IL.04","latitude":32.69383,"longitude":35.04686,"translations":{"pt":"Cidade de carmel","it":"Daliyat al karmel","ru":"Кармель","uk":"Daliyat al karmel","de":"Ir hakarmel","es":"Ciudad carmel","en":"Daliyat al karmel","fr":"Ir ha-karmel"}},{"country":"IL","name":"Binyamina","admin1Code":"IL.04","latitude":32.5232,"longitude":34.94499,"translations":{"pt":"Binyamina","it":"Binyamina","ru":"Binyamina","uk":"Binyamina","de":"Binjamina","es":"Binyamina","en":"Binyamina","fr":"Binyamina"}},{"country":"IL","name":"Bet shemesh","admin1Code":"IL.06","latitude":31.73072,"longitude":34.99293,"translations":{"pt":"Bet shemesh","it":"Bet shemesh","ru":"Бейт-шемеш","uk":"Bet shemesh","de":"Bet schemesch","es":"Bet shemesh","en":"Bet shemesh","fr":"Bet shemesh"}},{"country":"IL","name":"Bet shean","admin1Code":"IL.03","latitude":32.49728,"longitude":35.49632,"translations":{"pt":"Beit she'an","it":"Beit she'an","ru":"Бейт-шеан","uk":"Бейт-шеан","de":"Bet sche’an","es":"Beit she'an","en":"Bet shean","fr":"Beït shéan"}},{"country":"IL","name":"Bnei brak","admin1Code":"IL.05","latitude":32.08074,"longitude":34.8338,"translations":{"pt":"Bene beraq","it":"Bnei brak","ru":"Бней-брак","uk":"Бней-брак","de":"Bnei berak","es":"Bnei brak","en":"Bnei brak","fr":"Bnei brak"}},{"country":"IL","name":"Be’er ya‘aqov","admin1Code":"IL.02","latitude":31.93864,"longitude":34.83749,"translations":{"pt":"Be’er ya‘aqov","it":"Be’er ya‘aqov","ru":"Be’er ya‘aqov","uk":"Be’er ya‘aqov","de":"Be’er ya‘aqov","es":"Be’er ya‘aqov","en":"Be’er ya‘aqov","fr":"Be’er ya‘aqov"}},{"country":"IL","name":"Beersheba","admin1Code":"IL.01","latitude":31.25181,"longitude":34.7913,"translations":{"pt":"Bersebá","it":"Be'er sheva","ru":"Беэр-шева","uk":"Беер-шева","de":"Be’er scheva","es":"Be'er sheva","en":"Beersheba","fr":"Beer-sheva"}},{"country":"IL","name":"Bat yam","admin1Code":"IL.05","latitude":32.02379,"longitude":34.75185,"translations":{"pt":"Bat yam","it":"Bat yam","ru":"Бат-ям","uk":"Бат-ям","de":"Bat jam","es":"Bat yam","en":"Bat yam","fr":"Bat yam"}},{"country":"IL","name":"Baqa al-gharbiyye","admin1Code":"IL.04","latitude":32.41806,"longitude":35.04312,"translations":{"pt":"Baqa al-gharbiyye","it":"Baqa al-gharbiyye","ru":"Бака-аль-гарбия","uk":"Бака аль-гарбія","de":"Baqa al-gharbiyye","es":"Baqa al-gharbiyye","en":"Baqa al-gharbiyye","fr":"Baka al-gharbiyye"}},{"country":"IL","name":"Ashquelon","admin1Code":"IL.01","latitude":31.66926,"longitude":34.57149,"translations":{"pt":"Ashquelon","it":"Ashquelon","ru":"Ашкелон","uk":"Ashquelon","de":"Ashquelon","es":"Ashquelon","en":"Ashquelon","fr":"Ashquelon"}},{"country":"IL","name":"Ashdod","admin1Code":"IL.01","latitude":31.79213,"longitude":34.64966,"translations":{"pt":"Asdode","it":"Ashdod","ru":"Ашдод","uk":"Ашдод","de":"Aschdod","es":"Asdod","en":"Ashdod","fr":"Ashdod"}},{"country":"IL","name":"‘ar‘ara","admin1Code":"IL.04","latitude":32.49553,"longitude":35.09411,"translations":{"pt":"‘ar‘ara","it":"‘ar‘ara","ru":"‘ar‘ara","uk":"‘ar‘ara","de":"‘ar‘ara","es":"‘ar‘ara","en":"‘ar‘ara","fr":"‘ar‘ara"}},{"country":"IL","name":"Arad","admin1Code":"IL.01","latitude":31.25882,"longitude":35.21282,"translations":{"pt":"Arad","it":"Arad","ru":"Арад","uk":"Arad","de":"Arad","es":"Arad","en":"Arad","fr":"Arad"}},{"country":"IL","name":"Acre","admin1Code":"IL.03","latitude":32.92814,"longitude":35.07647,"translations":{"pt":"Acre","it":"Acri","ru":"Акка","uk":"Акко","de":"Akkon","es":"Acre","en":"Acre","fr":"Acre"}},{"country":"IL","name":"Afula","admin1Code":"IL.03","latitude":32.60907,"longitude":35.2892,"translations":{"pt":"Afula","it":"Afula","ru":"Афула","uk":"Афула","de":"Afula","es":"Afula","en":"Afula","fr":"Afoula"}},{"country":"IL","name":"West jerusalem","admin1Code":"IL.06","latitude":31.78199,"longitude":35.21961,"translations":{"pt":"West jerusalem","it":"West jerusalem","ru":"Западный иерусалим","uk":"West jerusalem","de":"Westjerusalem","es":"West jerusalem","en":"West jerusalem","fr":"West jerusalem"}},{"country":"IL","name":"Рахат","admin1Code":"IL.01","latitude":31.39547,"longitude":34.75699,"translations":{"pt":"Rakhat","it":"Rakhat","ru":"Рахат","uk":"Рахат","de":"Rakhat","es":"Rakhat","en":"Рахат","fr":"Rakhat"}},{"country":"IL","name":"Modiin ilit","admin1Code":"IL.06","latitude":31.93221,"longitude":35.04416,"translations":{"pt":"Modiin ilit","it":"Modiin ilit","ru":"Modiin ilit","uk":"Modiin ilit","de":"Modiin ilit","es":"Modiin ilit","en":"Modiin ilit","fr":"Modiin ilit"}},{"country":"IL","name":"Ariel","admin1Code":"IL.WE","latitude":32.1065,"longitude":35.18449,"translations":{"pt":"Ariel","it":"Ariel","ru":"Ariel","uk":"Ariel","de":"Ariel","es":"Ariel","en":"Ariel","fr":"Ariel"}},{"country":"IL","name":"Tel sheva","admin1Code":"IL.01","latitude":31.24864,"longitude":34.86007,"translations":{"pt":"Tel sheva","it":"Tel sheva","ru":"Тель-шева","uk":"Tel sheva","de":"Tel scheva","es":"Tel sheva","en":"Tel sheva","fr":"Tel sheva"}},{"country":"IL","name":"‘ar‘ara banegev","admin1Code":"IL.01","latitude":31.16046,"longitude":35.02274,"translations":{"pt":"‘ar‘ara banegev","it":"‘ar‘ara banegev","ru":"‘ar‘ara banegev","uk":"‘ar‘ara banegev","de":"‘ar‘ara banegev","es":"‘ar‘ara banegev","en":"‘ar‘ara banegev","fr":"‘ar‘ara banegev"}},{"country":"IL","name":"Hura","admin1Code":"IL.01","latitude":31.30084,"longitude":34.93606,"translations":{"pt":"Hura","it":"Hura","ru":"Хура","uk":"Hura","de":"Hura","es":"Hura","en":"Hura","fr":"Hura"}},{"country":"IL","name":"Kuseifa","admin1Code":"IL.01","latitude":31.24535,"longitude":35.0931,"translations":{"pt":"Kuseifa","it":"Kuseifa","ru":"Kuseifa","uk":"Kuseifa","de":"Kuseifa","es":"Kuseifa","en":"Kuseifa","fr":"Kuseifa"}},{"country":"IL","name":"Shoham","admin1Code":"IL.02","latitude":31.99866,"longitude":34.94559,"translations":{"pt":"Shoham","it":"Shoham","ru":"Шохам","uk":"Shoham","de":"Schoham","es":"Shoham","en":"Shoham","fr":"Shoham"}},{"country":"IL","name":"El‘ad","admin1Code":"IL.02","latitude":32.04984,"longitude":34.95382,"translations":{"pt":"El‘ad","it":"El‘ad","ru":"El‘ad","uk":"El‘ad","de":"El‘ad","es":"El‘ad","en":"El‘ad","fr":"El‘ad"}},{"country":"IL","name":"Yehud-monosson","admin1Code":"IL.05","latitude":32.0284,"longitude":34.8796,"translations":{"pt":"Yehud-monosson","it":"Yehud-monosson","ru":"Yehud-monosson","uk":"Yehud-monosson","de":"Yehud-monosson","es":"Yehud-monosson","en":"Yehud-monosson","fr":"Yehud-monosson"}},{"country":"IL","name":"Kadima zoran","admin1Code":"IL.02","latitude":32.27782,"longitude":34.9194,"translations":{"pt":"Kadima zoran","it":"Kadima zoran","ru":"Kadima zoran","uk":"Kadima zoran","de":"Kadima zoran","es":"Kadima zoran","en":"Kadima zoran","fr":"Kadima zoran"}},{"country":"IL","name":"Kiryat ono","admin1Code":"IL.05","latitude":32.06124,"longitude":34.85618,"translations":{"pt":"Kiryat ono","it":"Kiryat ono","ru":"Kiryat ono","uk":"Kiryat ono","de":"Kiryat ono","es":"Kiryat ono","en":"Kiryat ono","fr":"Kiryat ono"}},{"country":"IL","name":"Binyamina-giv'at ada","admin1Code":"IL.04","latitude":32.51824,"longitude":34.95398,"translations":{"pt":"Binyamina-giv'at ada","it":"Binyamina-giv'at ada","ru":"Binyamina-giv'at ada","uk":"Binyamina-giv'at ada","de":"Binyamina-giv'at ada","es":"Binyamina-giv'at ada","en":"Binyamina-giv'at ada","fr":"Binyamina-giv'at ada"}}]