[{"country":"VE","name":"La asunción","admin1Code":"VE.17","latitude":11.03333,"longitude":-63.86278,"translations":{"pt":"La asunción","it":"La asunción","ru":"Ла-асунсьон","uk":"La asunción","de":"La asunción","es":"La asunción","en":"La asunción","fr":"La asunción"}},{"country":"VE","name":"Anaco","admin1Code":"VE.02","latitude":9.42958,"longitude":-64.46428,"translations":{"pt":"Anaco","it":"Anaco","ru":"Anaco","uk":"Anaco","de":"Anaco","es":"Anaco","en":"Anaco","fr":"Anaco"}},{"country":"VE","name":"Alto barinas","admin1Code":"VE.05","latitude":8.5931,"longitude":-70.2261,"translations":{"pt":"Alto barinas","it":"Alto barinas","ru":"Alto barinas","uk":"Alto barinas","de":"Alto barinas","es":"Alto barinas","en":"Alto barinas","fr":"Alto barinas"}},{"country":"VE","name":"Зараза","admin1Code":"VE.12","latitude":9.35029,"longitude":-65.32452,"translations":{"pt":"Zaraza","it":"Zaraza","ru":"Зараза","uk":"Зараза","de":"Zaraza","es":"Zaraza","en":"Зараза","fr":"Zaraza"}},{"country":"VE","name":"Yumare","admin1Code":"VE.22","latitude":10.59703,"longitude":-68.67328,"translations":{"pt":"Yumare","it":"Yumare","ru":"Yumare","uk":"Yumare","de":"Yumare","es":"Yumare","en":"Yumare","fr":"Yumare"}},{"country":"VE","name":"Yaritagua","admin1Code":"VE.22","latitude":10.08081,"longitude":-69.1242,"translations":{"pt":"Yaritagua","it":"Yaritagua","ru":"Yaritagua","uk":"Yaritagua","de":"Yaritagua","es":"Yaritagua","en":"Yaritagua","fr":"Yaritagua"}},{"country":"VE","name":"Villa de cura","admin1Code":"VE.04","latitude":10.03863,"longitude":-67.48938,"translations":{"pt":"Villa de cura","it":"Villa de cura","ru":"Villa de cura","uk":"Villa de cura","de":"Villa de cura","es":"Villa de cura","en":"Villa de cura","fr":"Villa de cura"}},{"country":"VE","name":"Villa bruzual","admin1Code":"VE.18","latitude":9.33186,"longitude":-69.11968,"translations":{"pt":"Villa bruzual","it":"Villa bruzual","ru":"Villa bruzual","uk":"Villa bruzual","de":"Villa bruzual","es":"Villa bruzual","en":"Villa bruzual","fr":"Villa bruzual"}},{"country":"VE","name":"Валье-де-ла-паскуа","admin1Code":"VE.12","latitude":9.21554,"longitude":-66.00734,"translations":{"pt":"Val'e-de-la-paskua","it":"Val'e-de-la-paskua","ru":"Валье-де-ла-паскуа","uk":"Валье-де-ла-паскуа","de":"Val'e-de-la-paskua","es":"Val'e-de-la-paskua","en":"Валье-де-ла-паскуа","fr":"Val'e-de-la-paskua"}},{"country":"VE","name":"Valera","admin1Code":"VE.21","latitude":9.31778,"longitude":-70.60361,"translations":{"pt":"Valera","it":"Valera","ru":"Валера","uk":"Valera","de":"Valera","es":"Valera","en":"Valera","fr":"Valera"}},{"country":"VE","name":"Valencia","admin1Code":"VE.07","latitude":10.16202,"longitude":-68.00765,"translations":{"pt":"Valência","it":"Valencia","ru":"Валенсия","uk":"Валенсія","de":"Valencia","es":"Valencia","en":"Valencia","fr":"Valencia"}},{"country":"VE","name":"Ureña","admin1Code":"VE.20","latitude":7.92162,"longitude":-72.44396,"translations":{"pt":"Ureña","it":"Ureña","ru":"Ureña","uk":"Ureña","de":"Ureña","es":"Ureña","en":"Ureña","fr":"Ureña"}},{"country":"VE","name":"Urachiche","admin1Code":"VE.22","latitude":10.15847,"longitude":-69.00782,"translations":{"pt":"Urachiche","it":"Urachiche","ru":"Urachiche","uk":"Urachiche","de":"Urachiche","es":"Urachiche","en":"Urachiche","fr":"Urachiche"}},{"country":"VE","name":"Upata","admin1Code":"VE.06","latitude":8.0162,"longitude":-62.40561,"translations":{"pt":"Upata","it":"Upata","ru":"Upata","uk":"Upata","de":"Upata","es":"Upata","en":"Upata","fr":"Upata"}},{"country":"VE","name":"Turmero","admin1Code":"VE.04","latitude":10.22856,"longitude":-67.47421,"translations":{"pt":"Turmero","it":"Turmero","ru":"Турмеро","uk":"Турмеро","de":"Turmero","es":"Turmero","en":"Turmero","fr":"Turmero"}},{"country":"VE","name":"Tumeremo","admin1Code":"VE.06","latitude":7.29861,"longitude":-61.50497,"translations":{"pt":"Tumeremo","it":"Tumeremo","ru":"Tumeremo","uk":"Tumeremo","de":"Tumeremo","es":"Tumeremo","en":"Tumeremo","fr":"Tumeremo"}},{"country":"VE","name":"Tucupita","admin1Code":"VE.09","latitude":9.05806,"longitude":-62.05,"translations":{"pt":"Tucupita","it":"Tucupita","ru":"Тукупита","uk":"Tucupita","de":"Tucupita","es":"Tucupita","en":"Tucupita","fr":"Tucupita"}},{"country":"VE","name":"Tucupido","admin1Code":"VE.12","latitude":9.27304,"longitude":-65.77153,"translations":{"pt":"Tucupido","it":"Tucupido","ru":"Tucupido","uk":"Tucupido","de":"Tucupido","es":"Tucupido","en":"Tucupido","fr":"Tucupido"}},{"country":"VE","name":"Tucaní","admin1Code":"VE.14","latitude":8.97003,"longitude":-71.27277,"translations":{"pt":"Tucaní","it":"Tucaní","ru":"Tucaní","uk":"Tucaní","de":"Tucaní","es":"Tucaní","en":"Tucaní","fr":"Tucaní"}},{"country":"VE","name":"Tucacas","admin1Code":"VE.11","latitude":10.79006,"longitude":-68.32564,"translations":{"pt":"Tucacas","it":"Tucacas","ru":"Tucacas","uk":"Tucacas","de":"Tucacas","es":"Tucacas","en":"Tucacas","fr":"Tucacas"}},{"country":"VE","name":"Trujillo","admin1Code":"VE.21","latitude":9.36583,"longitude":-70.43694,"translations":{"pt":"Trujillo","it":"Trujillo","ru":"Trujillo","uk":"Trujillo","de":"Trujillo","es":"Trujillo","en":"Trujillo","fr":"Trujillo"}},{"country":"VE","name":"Tovar municipality","admin1Code":"VE.14","latitude":8.33015,"longitude":-71.75277,"translations":{"pt":"Tovar municipality","it":"Tovar municipality","ru":"Tovar municipality","uk":"Tovar municipality","de":"Tovar municipality","es":"Municipio tovar","en":"Tovar municipality","fr":"Tovar municipality"}},{"country":"VE","name":"Tinaquillo","admin1Code":"VE.08","latitude":9.91861,"longitude":-68.30472,"translations":{"pt":"Tinaquillo","it":"Tinaquillo","ru":"Tinaquillo","uk":"Tinaquillo","de":"Tinaquillo","es":"Tinaquillo","en":"Tinaquillo","fr":"Tinaquillo"}},{"country":"VE","name":"Tinaco","admin1Code":"VE.08","latitude":9.69894,"longitude":-68.43273,"translations":{"pt":"Tinaco","it":"Tinaco","ru":"Tinaco","uk":"Tinaco","de":"Tinaco","es":"Tinaco","en":"Tinaco","fr":"Tinaco"}},{"country":"VE","name":"Timotes","admin1Code":"VE.14","latitude":8.98224,"longitude":-70.73926,"translations":{"pt":"Timotes","it":"Timotes","ru":"Timotes","uk":"Timotes","de":"Timotes","es":"Timotes","en":"Timotes","fr":"Timotes"}},{"country":"VE","name":"Tía juana","admin1Code":"VE.23","latitude":10.25927,"longitude":-71.36343,"translations":{"pt":"Tía juana","it":"Tía juana","ru":"Tía juana","uk":"Tía juana","de":"Tía juana","es":"Tía juana","en":"Tía juana","fr":"Tía juana"}},{"country":"VE","name":"Temblador","admin1Code":"VE.16","latitude":9.00525,"longitude":-62.64493,"translations":{"pt":"Temblador","it":"Temblador","ru":"Temblador","uk":"Temblador","de":"Temblador","es":"Temblador","en":"Temblador","fr":"Temblador"}},{"country":"VE","name":"Táriba","admin1Code":"VE.20","latitude":7.82117,"longitude":-72.22329,"translations":{"pt":"Táriba","it":"Táriba","ru":"Táriba","uk":"Táriba","de":"Táriba","es":"Táriba","en":"Táriba","fr":"Táriba"}},{"country":"VE","name":"Tabay","admin1Code":"VE.14","latitude":8.6317,"longitude":-71.07833,"translations":{"pt":"Tabay","it":"Tabay","ru":"Табай","uk":"Tabay","de":"Tabay","es":"Tabay","en":"Tabay","fr":"Tabay"}},{"country":"VE","name":"Soledad","admin1Code":"VE.02","latitude":8.16206,"longitude":-63.5654,"translations":{"pt":"Soledad","it":"Soledad","ru":"Soledad","uk":"Soledad","de":"Soledad","es":"Soledad","en":"Soledad","fr":"Soledad"}},{"country":"VE","name":"Socopó","admin1Code":"VE.05","latitude":8.23062,"longitude":-70.82198,"translations":{"pt":"Socopó","it":"Socopó","ru":"Socopó","uk":"Socopó","de":"Socopó","es":"Socopó","en":"Socopó","fr":"Socopó"}},{"country":"VE","name":"San timoteo","admin1Code":"VE.23","latitude":9.7901,"longitude":-71.07084,"translations":{"pt":"San timoteo","it":"San timoteo","ru":"San timoteo","uk":"San timoteo","de":"San timoteo","es":"San timoteo","en":"San timoteo","fr":"San timoteo"}},{"country":"VE","name":"Santa teresa del tuy","admin1Code":"VE.15","latitude":10.23291,"longitude":-66.66474,"translations":{"pt":"Santa teresa del tuy","it":"Santa teresa del tuy","ru":"Santa teresa del tuy","uk":"Santa teresa del tuy","de":"Santa teresa del tuy","es":"Santa teresa del tuy","en":"Santa teresa del tuy","fr":"Santa teresa del tuy"}},{"country":"VE","name":"Santa rita","admin1Code":"VE.23","latitude":10.53642,"longitude":-71.51104,"translations":{"pt":"Santa rita","it":"Santa rita","ru":"Santa rita","uk":"Santa rita","de":"Santa rita","es":"Santa rita","en":"Santa rita","fr":"Santa rita"}},{"country":"VE","name":"Santa elena de uairén","admin1Code":"VE.06","latitude":4.60226,"longitude":-61.11025,"translations":{"pt":"Santa elena de uairén","it":"Santa elena de uairén","ru":"Санта-елена-де-уайрен","uk":"Santa elena de uairén","de":"Santa elena de uairén","es":"Santa elena de guairén","en":"Santa elena de uairén","fr":"Santa elena de uairén"}},{"country":"VE","name":"Santa cruz de mora","admin1Code":"VE.14","latitude":8.39925,"longitude":-71.64082,"translations":{"pt":"Santa cruz de mora","it":"Santa cruz de mora","ru":"Santa cruz de mora","uk":"Santa cruz de mora","de":"Santa cruz de mora","es":"Santa cruz de mora","en":"Santa cruz de mora","fr":"Santa cruz de mora"}},{"country":"VE","name":"Santa cruz de mara","admin1Code":"VE.23","latitude":10.79269,"longitude":-71.68505,"translations":{"pt":"Santa cruz de mara","it":"Santa cruz de mara","ru":"Santa cruz de mara","uk":"Santa cruz de mara","de":"Santa cruz de mara","es":"Santa cruz de mara","en":"Santa cruz de mara","fr":"Santa cruz de mara"}},{"country":"VE","name":"Santa bárbara","admin1Code":"VE.05","latitude":7.81348,"longitude":-71.17788,"translations":{"pt":"Santa bárbara","it":"Santa bárbara","ru":"Santa bárbara","uk":"Santa bárbara","de":"Santa bárbara","es":"Santa bárbara","en":"Santa bárbara","fr":"Santa bárbara"}},{"country":"VE","name":"Santa ana","admin1Code":"VE.17","latitude":11.06831,"longitude":-63.92256,"translations":{"pt":"Santa ana","it":"Santa ana","ru":"Santa ana","uk":"Santa ana","de":"Santa ana","es":"Santa ana","en":"Santa ana","fr":"Santa ana"}},{"country":"VE","name":"Santa ana del táchira","admin1Code":"VE.20","latitude":7.6429,"longitude":-72.27636,"translations":{"pt":"Santa ana del táchira","it":"Santa ana del táchira","ru":"Santa ana del táchira","uk":"Santa ana del táchira","de":"Santa ana del táchira","es":"Santa ana del táchira","en":"Santa ana del táchira","fr":"Santa ana del táchira"}},{"country":"VE","name":"San rafael de onoto","admin1Code":"VE.18","latitude":9.67813,"longitude":-68.97278,"translations":{"pt":"San rafael de onoto","it":"San rafael de onoto","ru":"San rafael de onoto","uk":"San rafael de onoto","de":"San rafael de onoto","es":"San rafael de onoto","en":"San rafael de onoto","fr":"San rafael de onoto"}},{"country":"VE","name":"San rafael","admin1Code":"VE.23","latitude":10.96205,"longitude":-71.73034,"translations":{"pt":"San rafael","it":"San rafael","ru":"San rafael","uk":"San rafael","de":"San rafael","es":"San rafael","en":"San rafael","fr":"San rafael"}},{"country":"VE","name":"San mateo","admin1Code":"VE.04","latitude":10.21302,"longitude":-67.42365,"translations":{"pt":"San mateo","it":"San mateo","ru":"San mateo","uk":"San mateo","de":"San mateo","es":"San mateo","en":"San mateo","fr":"San mateo"}},{"country":"VE","name":"San juan de los morros","admin1Code":"VE.12","latitude":9.91152,"longitude":-67.35381,"translations":{"pt":"San juan de los morros","it":"San juan de los morros","ru":"San juan de los morros","uk":"San juan de los morros","de":"San juan de los morros","es":"San juan de los morros","en":"San juan de los morros","fr":"San juan de los morros"}},{"country":"VE","name":"San juan de colón","admin1Code":"VE.20","latitude":8.03125,"longitude":-72.26053,"translations":{"pt":"San juan de colón","it":"San juan de colón","ru":"San juan de colón","uk":"San juan de colón","de":"San juan de colón","es":"Colón","en":"San juan de colón","fr":"San juan de colón"}},{"country":"VE","name":"San juan bautista","admin1Code":"VE.17","latitude":11.01243,"longitude":-63.94412,"translations":{"pt":"San juan bautista","it":"San juan bautista","ru":"San juan bautista","uk":"San juan bautista","de":"San juan bautista","es":"San juan bautista","en":"San juan bautista","fr":"San juan bautista"}},{"country":"VE","name":"San josé de barlovento","admin1Code":"VE.15","latitude":10.30125,"longitude":-65.99053,"translations":{"pt":"San josé de barlovento","it":"San josé de barlovento","ru":"San josé de barlovento","uk":"San josé de barlovento","de":"San josé de barlovento","es":"San josé de barlovento","en":"San josé de barlovento","fr":"San josé de barlovento"}},{"country":"VE","name":"San josé de guanipa","admin1Code":"VE.02","latitude":8.88724,"longitude":-64.16512,"translations":{"pt":"San josé de guanipa","it":"San josé de guanipa","ru":"San josé de guanipa","uk":"San josé de guanipa","de":"San josé de guanipa","es":"San josé de guanipa","en":"San josé de guanipa","fr":"San josé de guanipa"}},{"country":"VE","name":"San joaquín","admin1Code":"VE.07","latitude":10.26061,"longitude":-67.79348,"translations":{"pt":"San joaquín","it":"San joaquín","ru":"San joaquín","uk":"San joaquín","de":"San joaquín","es":"San joaquín","en":"San joaquín","fr":"San joaquín"}},{"country":"VE","name":"Сан-феліпе","admin1Code":"VE.22","latitude":10.33991,"longitude":-68.74247,"translations":{"pt":"San-felipe","it":"San-felipe","ru":"Сан-фелипе","uk":"Сан-феліпе","de":"San-felipe","es":"San-felipe","en":"Сан-феліпе","fr":"San-felipe"}},{"country":"VE","name":"San cristóbal","admin1Code":"VE.20","latitude":7.76694,"longitude":-72.225,"translations":{"pt":"San cristóbal","it":"San cristóbal","ru":"Сан-кристобаль","uk":"Сан-крістобаль","de":"San cristóbal","es":"San cristóbal","en":"San cristóbal","fr":"San cristóbal"}},{"country":"VE","name":"San carlos del zulia","admin1Code":"VE.23","latitude":9.00098,"longitude":-71.92683,"translations":{"pt":"San carlos del zulia","it":"San carlos del zulia","ru":"San carlos del zulia","uk":"San carlos del zulia","de":"San carlos del zulia","es":"San carlos del zulia","en":"San carlos del zulia","fr":"San carlos del zulia"}},{"country":"VE","name":"San carlos","admin1Code":"VE.08","latitude":9.66124,"longitude":-68.58268,"translations":{"pt":"San carlos","it":"San carlos","ru":"San carlos","uk":"San carlos","de":"San carlos","es":"San carlos","en":"San carlos","fr":"San carlos"}},{"country":"VE","name":"Sanare","admin1Code":"VE.13","latitude":9.75209,"longitude":-69.6524,"translations":{"pt":"Sanare","it":"Sanare","ru":"Sanare","uk":"Sanare","de":"Sanare","es":"Sanare","en":"Sanare","fr":"Sanare"}},{"country":"VE","name":"San antonio del táchira","admin1Code":"VE.20","latitude":7.8112,"longitude":-72.44437,"translations":{"pt":"San antonio del táchira","it":"San antonio del táchira","ru":"San antonio del táchira","uk":"San antonio del táchira","de":"San antonio del táchira","es":"San antonio del táchira","en":"San antonio del táchira","fr":"San antonio del táchira"}},{"country":"VE","name":"San antonio de los altos","admin1Code":"VE.15","latitude":10.38853,"longitude":-66.95179,"translations":{"pt":"San antonio de los altos","it":"San antonio de los altos","ru":"San antonio de los altos","uk":"San antonio de los altos","de":"San antonio de los altos","es":"San antonio de los altos","en":"San antonio de los altos","fr":"San antonio de los altos"}},{"country":"VE","name":"Sabaneta","admin1Code":"VE.05","latitude":8.75234,"longitude":-69.93351,"translations":{"pt":"Sabaneta","it":"Sabaneta","ru":"Sabaneta","uk":"Sabaneta","de":"Sabaneta","es":"Sabaneta","en":"Sabaneta","fr":"Sabaneta"}},{"country":"VE","name":"Sabana de parra","admin1Code":"VE.22","latitude":10.12111,"longitude":-69.03639,"translations":{"pt":"Sabana de parra","it":"Sabana de parra","ru":"Sabana de parra","uk":"Sabana de parra","de":"Sabana de parra","es":"Sabana de parra","en":"Sabana de parra","fr":"Sabana de parra"}},{"country":"VE","name":"Sabana de mendoza","admin1Code":"VE.21","latitude":9.43494,"longitude":-70.77495,"translations":{"pt":"Sabana de mendoza","it":"Sabana de mendoza","ru":"Sabana de mendoza","uk":"Sabana de mendoza","de":"Sabana de mendoza","es":"Sabana de mendoza","en":"Sabana de mendoza","fr":"Sabana de mendoza"}},{"country":"VE","name":"Рубио","admin1Code":"VE.20","latitude":7.70156,"longitude":-72.35551,"translations":{"pt":"Rubyo","it":"Rubyo","ru":"Рубио","uk":"Рубио","de":"Rubyo","es":"Rubyo","en":"Рубио","fr":"Rubyo"}},{"country":"VE","name":"Росарио","admin1Code":"VE.23","latitude":10.3258,"longitude":-72.31343,"translations":{"pt":"Rosaryo","it":"Rosaryo","ru":"Росарио","uk":"Росарио","de":"Rosaryo","es":"La villa del rosario","en":"Росарио","fr":"Rosaryo"}},{"country":"VE","name":"Río chico","admin1Code":"VE.15","latitude":10.31899,"longitude":-65.97751,"translations":{"pt":"Río chico","it":"Río chico","ru":"Río chico","uk":"Río chico","de":"Río chico","es":"Río chico","en":"Río chico","fr":"Río chico"}},{"country":"VE","name":"Quíbor","admin1Code":"VE.13","latitude":9.92866,"longitude":-69.6201,"translations":{"pt":"Quíbor","it":"Quíbor","ru":"Quíbor","uk":"Quíbor","de":"Quíbor","es":"Quíbor","en":"Quíbor","fr":"Quíbor"}},{"country":"VE","name":"Punto fijo","admin1Code":"VE.11","latitude":11.69152,"longitude":-70.19918,"translations":{"pt":"Punto fijo","it":"Punto fijo","ru":"Punto fijo","uk":"Punto fijo","de":"Punto fijo","es":"Punto fijo","en":"Punto fijo","fr":"Punto fijo"}},{"country":"VE","name":"Punta de piedras","admin1Code":"VE.17","latitude":10.90123,"longitude":-64.0969,"translations":{"pt":"Punta de piedras","it":"Punta de piedras","ru":"Punta de piedras","uk":"Punta de piedras","de":"Punta de piedras","es":"Punta de piedras","en":"Punta de piedras","fr":"Punta de piedras"}},{"country":"VE","name":"Punta de mata","admin1Code":"VE.16","latitude":9.69131,"longitude":-63.60921,"translations":{"pt":"Punta de mata","it":"Punta de mata","ru":"Punta de mata","uk":"Punta de mata","de":"Punta de mata","es":"Punta de mata","en":"Punta de mata","fr":"Punta de mata"}},{"country":"VE","name":"Пунта-кардон","admin1Code":"VE.11","latitude":11.65806,"longitude":-70.215,"translations":{"pt":"Punta-kardon","it":"Punta-kardon","ru":"Пунта-кардон","uk":"Пунта-кардон","de":"Punta-kardon","es":"Punta-kardon","en":"Пунта-кардон","fr":"Punta-kardon"}},{"country":"VE","name":"Puerto píritu","admin1Code":"VE.02","latitude":10.05896,"longitude":-65.03698,"translations":{"pt":"Puerto píritu","it":"Puerto píritu","ru":"Puerto píritu","uk":"Puerto píritu","de":"Puerto píritu","es":"Puerto píritu","en":"Puerto píritu","fr":"Puerto píritu"}},{"country":"VE","name":"Puerto cruz","admin1Code":"VE.02","latitude":10.21382,"longitude":-64.6328,"translations":{"pt":"Puerto cruz","it":"Puerto cruz","ru":"Пуэрто ла круз","uk":"Puerto cruz","de":"Puerto cruz","es":"Puerto de la cruz","en":"Puerto cruz","fr":"Puerto cruz"}},{"country":"VE","name":"Puerto cumarebo","admin1Code":"VE.11","latitude":11.48614,"longitude":-69.35319,"translations":{"pt":"Puerto cumarebo","it":"Puerto cumarebo","ru":"Puerto cumarebo","uk":"Puerto cumarebo","de":"Puerto cumarebo","es":"Puerto cumarebo","en":"Puerto cumarebo","fr":"Puerto cumarebo"}},{"country":"VE","name":"Puerto cabello","admin1Code":"VE.07","latitude":10.47306,"longitude":-68.0125,"translations":{"pt":"Puerto cabello","it":"Puerto cabello","ru":"Пуерто кабелло","uk":"Пуерто-кабельйо","de":"Puerto cabello","es":"Puerto cabello","en":"Puerto cabello","fr":"Puerto cabello"}},{"country":"VE","name":"Puerto ayacucho","admin1Code":"VE.01","latitude":5.66049,"longitude":-67.58343,"translations":{"pt":"Puerto ayacucho","it":"Puerto ayacucho","ru":"Пуэрто-аякучо","uk":"Puerto ayacucho","de":"Puerto ayacucho","es":"Puerto ayacucho","en":"Puerto ayacucho","fr":"Puerto ayacucho"}},{"country":"VE","name":"Pueblo nuevo","admin1Code":"VE.11","latitude":11.94788,"longitude":-69.92306,"translations":{"pt":"Pueblo nuevo","it":"Pueblo nuevo","ru":"Pueblo nuevo","uk":"Pueblo nuevo","de":"Pueblo nuevo","es":"Pueblo nuevo","en":"Pueblo nuevo","fr":"Pueblo nuevo"}},{"country":"VE","name":"Pueblo nuevo el chivo","admin1Code":"VE.23","latitude":8.96249,"longitude":-71.60754,"translations":{"pt":"Pueblo nuevo el chivo","it":"Pueblo nuevo el chivo","ru":"Pueblo nuevo el chivo","uk":"Pueblo nuevo el chivo","de":"Pueblo nuevo el chivo","es":"Pueblo nuevo el chivo","en":"Pueblo nuevo el chivo","fr":"Pueblo nuevo el chivo"}},{"country":"VE","name":"Porlamar","admin1Code":"VE.17","latitude":10.95771,"longitude":-63.86971,"translations":{"pt":"Porlamar","it":"Porlamar","ru":"Порламар","uk":"Porlamar","de":"Porlamar","es":"Porlamar","en":"Porlamar","fr":"Porlamar"}},{"country":"VE","name":"Píritu","admin1Code":"VE.18","latitude":9.37083,"longitude":-69.21028,"translations":{"pt":"Píritu","it":"Píritu","ru":"Píritu","uk":"Píritu","de":"Píritu","es":"Píritu","en":"Píritu","fr":"Píritu"}},{"country":"VE","name":"Petare","admin1Code":"VE.15","latitude":10.47679,"longitude":-66.80786,"translations":{"pt":"Petare","it":"Petare","ru":"Петаре","uk":"Петаре","de":"Petare","es":"Petare","en":"Petare","fr":"Petare"}},{"country":"VE","name":"Pariaguán","admin1Code":"VE.02","latitude":8.84357,"longitude":-64.71053,"translations":{"pt":"Pariaguán","it":"Pariaguán","ru":"Pariaguán","uk":"Pariaguán","de":"Pariaguán","es":"Pariaguán","en":"Pariaguán","fr":"Pariaguán"}},{"country":"VE","name":"Pampatar","admin1Code":"VE.17","latitude":11.00085,"longitude":-63.79298,"translations":{"pt":"Pampatar","it":"Pampatar","ru":"Pampatar","uk":"Pampatar","de":"Pampatar","es":"Pampatar","en":"Pampatar","fr":"Pampatar"}},{"country":"VE","name":"Pampanito","admin1Code":"VE.21","latitude":9.41037,"longitude":-70.50116,"translations":{"pt":"Pampanito","it":"Pampanito","ru":"Pampanito","uk":"Pampanito","de":"Pampanito","es":"Pampanito","en":"Pampanito","fr":"Pampanito"}},{"country":"VE","name":"Pampán","admin1Code":"VE.21","latitude":9.44519,"longitude":-70.47556,"translations":{"pt":"Pampán","it":"Pampán","ru":"Pampán","uk":"Pampán","de":"Pampán","es":"Pampán","en":"Pampán","fr":"Pampán"}},{"country":"VE","name":"Palo negro","admin1Code":"VE.04","latitude":10.17389,"longitude":-67.54194,"translations":{"pt":"Palo negro","it":"Palo negro","ru":"Palo negro","uk":"Palo negro","de":"Palo negro","es":"Palo negro","en":"Palo negro","fr":"Palo negro"}},{"country":"VE","name":"Palmira","admin1Code":"VE.20","latitude":7.8375,"longitude":-72.22794,"translations":{"pt":"Palmira","it":"Palmira","ru":"Palmira","uk":"Palmira","de":"Palmira","es":"Palmira","en":"Palmira","fr":"Palmira"}},{"country":"VE","name":"Ospino","admin1Code":"VE.18","latitude":9.29572,"longitude":-69.45434,"translations":{"pt":"Ospino","it":"Ospino","ru":"Ospino","uk":"Ospino","de":"Ospino","es":"Ospino","en":"Ospino","fr":"Ospino"}},{"country":"VE","name":"Ocumare","admin1Code":"VE.15","latitude":10.1182,"longitude":-66.77513,"translations":{"pt":"Ocumare","it":"Ocumare","ru":"Ocumare","uk":"Ocumare","de":"Ocumare","es":"Ocumare","en":"Ocumare","fr":"Ocumare"}},{"country":"VE","name":"Obispos","admin1Code":"VE.05","latitude":8.60701,"longitude":-70.10489,"translations":{"pt":"Obispos","it":"Obispos","ru":"Obispos","uk":"Obispos","de":"Obispos","es":"Obispos","en":"Obispos","fr":"Obispos"}},{"country":"VE","name":"Nueva bolivia","admin1Code":"VE.14","latitude":9.14007,"longitude":-71.09143,"translations":{"pt":"Nueva bolivia","it":"Nueva bolivia","ru":"Nueva bolivia","uk":"Nueva bolivia","de":"Nueva bolivia","es":"Nueva bolivia","en":"Nueva bolivia","fr":"Nueva bolivia"}},{"country":"VE","name":"Nirgua","admin1Code":"VE.22","latitude":10.15039,"longitude":-68.56478,"translations":{"pt":"Nirgua","it":"Nirgua","ru":"Nirgua","uk":"Nirgua","de":"Nirgua","es":"Nirgua","en":"Nirgua","fr":"Nirgua"}},{"country":"VE","name":"Motatán","admin1Code":"VE.21","latitude":9.39182,"longitude":-70.59061,"translations":{"pt":"Motatán","it":"Motatán","ru":"Motatán","uk":"Motatán","de":"Motatán","es":"Motatán","en":"Motatán","fr":"Motatán"}},{"country":"VE","name":"Morón","admin1Code":"VE.07","latitude":10.48715,"longitude":-68.20078,"translations":{"pt":"Morón","it":"Morón","ru":"Morón","uk":"Morón","de":"Morón","es":"Morón","en":"Morón","fr":"Morón"}},{"country":"VE","name":"Montalbán","admin1Code":"VE.07","latitude":10.21313,"longitude":-68.32669,"translations":{"pt":"Montalbán","it":"Montalbán","ru":"Montalbán","uk":"Montalbán","de":"Montalbán","es":"Montalbán","en":"Montalbán","fr":"Montalbán"}},{"country":"VE","name":"Miranda","admin1Code":"VE.07","latitude":10.15077,"longitude":-68.39325,"translations":{"pt":"Miranda","it":"Miranda","ru":"Miranda","uk":"Miranda","de":"Miranda","es":"Miranda","en":"Miranda","fr":"Miranda"}},{"country":"VE","name":"Michelena","admin1Code":"VE.20","latitude":7.95642,"longitude":-72.24235,"translations":{"pt":"Michelena","it":"Michelena","ru":"Michelena","uk":"Michelena","de":"Michelena","es":"Michelena","en":"Michelena","fr":"Michelena"}},{"country":"VE","name":"Mérida","admin1Code":"VE.14","latitude":8.58972,"longitude":-71.15611,"translations":{"pt":"Mérida","it":"Mérida","ru":"Мерида","uk":"Меріда","de":"Mérida","es":"Mérida","en":"Mérida","fr":"Mérida"}},{"country":"VE","name":"Mene grande","admin1Code":"VE.23","latitude":9.84639,"longitude":-70.92655,"translations":{"pt":"Mene grande","it":"Mene grande","ru":"Mene grande","uk":"Mene grande","de":"Mene grande","es":"Mene grande","en":"Mene grande","fr":"Mene grande"}},{"country":"VE","name":"Mene de mauroa","admin1Code":"VE.11","latitude":10.68091,"longitude":-71.03609,"translations":{"pt":"Mene de mauroa","it":"Mene de mauroa","ru":"Mene de mauroa","uk":"Mene de mauroa","de":"Mene de mauroa","es":"Mene de mauroa","en":"Mene de mauroa","fr":"Mene de mauroa"}},{"country":"VE","name":"Mariara","admin1Code":"VE.07","latitude":10.29532,"longitude":-67.7177,"translations":{"pt":"Mariara","it":"Mariara","ru":"Mariara","uk":"Mariara","de":"Mariara","es":"Mariara","en":"Mariara","fr":"Mariara"}},{"country":"VE","name":"Маракай","admin1Code":"VE.04","latitude":10.23535,"longitude":-67.59113,"translations":{"pt":"Marakaj","it":"Marakaj","ru":"Маракай","uk":"Маракай","de":"Marakaj","es":"Maracay","en":"Маракай","fr":"Marakaj"}},{"country":"VE","name":"Maracaibo","admin1Code":"VE.23","latitude":10.66663,"longitude":-71.61245,"translations":{"pt":"Maracaibo","it":"Maracaibo","ru":"Маракайбо","uk":"Маракайбо","de":"Maracaibo","es":"Maracaibo","en":"Maracaibo","fr":"Maracaibo"}},{"country":"VE","name":"Mamporal","admin1Code":"VE.15","latitude":10.36556,"longitude":-66.13391,"translations":{"pt":"Mamporal","it":"Mamporal","ru":"Mamporal","uk":"Mamporal","de":"Mamporal","es":"Mamporal","en":"Mamporal","fr":"Mamporal"}},{"country":"VE","name":"Maiquetía","admin1Code":"VE.26","latitude":10.5945,"longitude":-66.95624,"translations":{"pt":"Maiquetía","it":"Maiquetía","ru":"Maiquetía","uk":"Maiquetía","de":"Maiquetía","es":"Maiquetía","en":"Maiquetía","fr":"Maiquetía"}},{"country":"VE","name":"Machiques","admin1Code":"VE.23","latitude":10.06077,"longitude":-72.55212,"translations":{"pt":"Machiques","it":"Machiques","ru":"Machiques","uk":"Machiques","de":"Machiques","es":"Machiques","en":"Machiques","fr":"Machiques"}},{"country":"VE","name":"Лос-текес","admin1Code":"VE.15","latitude":10.34447,"longitude":-67.04325,"translations":{"pt":"Los-tekes","it":"Los-tekes","ru":"Лос-текес","uk":"Лос-текес","de":"Los-tekes","es":"Los-tekes","en":"Лос-текес","fr":"Los-tekes"}},{"country":"VE","name":"Los rastrojos","admin1Code":"VE.13","latitude":10.02588,"longitude":-69.24166,"translations":{"pt":"Los rastrojos","it":"Los rastrojos","ru":"Los rastrojos","uk":"Los rastrojos","de":"Los rastrojos","es":"Los rastrojos","en":"Los rastrojos","fr":"Los rastrojos"}},{"country":"VE","name":"Los dos caminos","admin1Code":"VE.15","latitude":10.49389,"longitude":-66.82863,"translations":{"pt":"Los dos caminos","it":"Los dos caminos","ru":"Los dos caminos","uk":"Los dos caminos","de":"Los dos caminos","es":"Los dos caminos","en":"Los dos caminos","fr":"Los dos caminos"}},{"country":"VE","name":"La victoria","admin1Code":"VE.04","latitude":10.22677,"longitude":-67.33122,"translations":{"pt":"La victoria","it":"La victoria","ru":"La victoria","uk":"La victoria","de":"La victoria","es":"La victoria","en":"La victoria","fr":"La victoria"}},{"country":"VE","name":"La vela de coro","admin1Code":"VE.11","latitude":11.46077,"longitude":-69.5657,"translations":{"pt":"La vela de coro","it":"La vela de coro","ru":"La vela de coro","uk":"La vela de coro","de":"La vela de coro","es":"La vela de coro","en":"La vela de coro","fr":"La vela de coro"}},{"country":"VE","name":"Las vegas","admin1Code":"VE.08","latitude":9.53724,"longitude":-68.63022,"translations":{"pt":"Las vegas","it":"Las vegas","ru":"Las vegas","uk":"Las vegas","de":"Las vegas","es":"Las vegas","en":"Las vegas","fr":"Las vegas"}},{"country":"VE","name":"Tejerias","admin1Code":"VE.04","latitude":10.25416,"longitude":-67.17333,"translations":{"pt":"Tejerias","it":"Tejerias","ru":"Tejerias","uk":"Tejerias","de":"Tejerias","es":"Tejerias","en":"Tejerias","fr":"Tejerias"}},{"country":"VE","name":"La paragua","admin1Code":"VE.06","latitude":6.83333,"longitude":-63.33333,"translations":{"pt":"La paragua","it":"La paragua","ru":"La paragua","uk":"La paragua","de":"La paragua","es":"La paragua","en":"La paragua","fr":"La paragua"}},{"country":"VE","name":"Lagunillas","admin1Code":"VE.23","latitude":10.13008,"longitude":-71.25946,"translations":{"pt":"Lagunillas","it":"Lagunillas","ru":"Lagunillas","uk":"Lagunillas","de":"Lagunillas","es":"Lagunillas","en":"Lagunillas","fr":"Lagunillas"}},{"country":"VE","name":"Lagunillas","admin1Code":"VE.14","latitude":8.50457,"longitude":-71.3894,"translations":{"pt":"Lagunillas","it":"Lagunillas","ru":"Lagunillas","uk":"Lagunillas","de":"Lagunillas","es":"Lagunillas","en":"Lagunillas","fr":"Lagunillas"}},{"country":"VE","name":"La guaira","admin1Code":"VE.26","latitude":10.60156,"longitude":-66.93293,"translations":{"pt":"La guaira","it":"La guaira","ru":"Ла-гуайра","uk":"Ла-гуайра","de":"La guaira","es":"La guaira","en":"La guaira","fr":"La guaira"}},{"country":"VE","name":"La concepción","admin1Code":"VE.23","latitude":10.61919,"longitude":-71.83814,"translations":{"pt":"La concepción","it":"La concepción","ru":"La concepción","uk":"La concepción","de":"La concepción","es":"La concepción","en":"La concepción","fr":"La concepción"}},{"country":"VE","name":"Concepción","admin1Code":"VE.23","latitude":10.4119,"longitude":-71.68919,"translations":{"pt":"Concepción","it":"Concepción","ru":"Concepción","uk":"Concepción","de":"Concepción","es":"Concepción","en":"Concepción","fr":"Concepción"}},{"country":"VE","name":"La azulita","admin1Code":"VE.14","latitude":8.71364,"longitude":-71.44421,"translations":{"pt":"La azulita","it":"La azulita","ru":"La azulita","uk":"La azulita","de":"La azulita","es":"La azulita","en":"La azulita","fr":"La azulita"}},{"country":"VE","name":"Judibana","admin1Code":"VE.11","latitude":11.75908,"longitude":-70.18418,"translations":{"pt":"Judibana","it":"Judibana","ru":"Judibana","uk":"Judibana","de":"Judibana","es":"Judibana","en":"Judibana","fr":"Judibana"}},{"country":"VE","name":"Juan griego","admin1Code":"VE.17","latitude":11.08172,"longitude":-63.96549,"translations":{"pt":"Juan griego","it":"Juan griego","ru":"Juan griego","uk":"Juan griego","de":"Juan griego","es":"Juan griego","en":"Juan griego","fr":"Juan griego"}},{"country":"VE","name":"Higuerote","admin1Code":"VE.15","latitude":10.48287,"longitude":-66.10096,"translations":{"pt":"Higuerote","it":"Higuerote","ru":"Higuerote","uk":"Higuerote","de":"Higuerote","es":"Higuerote","en":"Higuerote","fr":"Higuerote"}},{"country":"VE","name":"Güiria","admin1Code":"VE.19","latitude":10.57721,"longitude":-62.29841,"translations":{"pt":"Güiria","it":"Güiria","ru":"Güiria","uk":"Güiria","de":"Güiria","es":"Güiria","en":"Güiria","fr":"Güiria"}},{"country":"VE","name":"Güigüe","admin1Code":"VE.07","latitude":10.08344,"longitude":-67.77799,"translations":{"pt":"Güigüe","it":"Güigüe","ru":"Güigüe","uk":"Güigüe","de":"Güigüe","es":"Güigüe","en":"Güigüe","fr":"Güigüe"}},{"country":"VE","name":"Гуатіре","admin1Code":"VE.15","latitude":10.474,"longitude":-66.54241,"translations":{"pt":"Huatire","it":"Huatire","ru":"Гуатире","uk":"Гуатіре","de":"Huatire","es":"Guatire","en":"Гуатіре","fr":"Huatire"}},{"country":"VE","name":"Guasipati","admin1Code":"VE.06","latitude":7.47702,"longitude":-61.89666,"translations":{"pt":"Guasipati","it":"Guasipati","ru":"Guasipati","uk":"Guasipati","de":"Guasipati","es":"Guasipati","en":"Guasipati","fr":"Guasipati"}},{"country":"VE","name":"Guarenas","admin1Code":"VE.15","latitude":10.47027,"longitude":-66.61934,"translations":{"pt":"Guarenas","it":"Guarenas","ru":"Guarenas","uk":"Guarenas","de":"Guarenas","es":"Guarenas","en":"Guarenas","fr":"Guarenas"}},{"country":"VE","name":"Guanarito","admin1Code":"VE.18","latitude":8.69625,"longitude":-69.20832,"translations":{"pt":"Guanarito","it":"Guanarito","ru":"Guanarito","uk":"Guanarito","de":"Guanarito","es":"Guanarito","en":"Guanarito","fr":"Guanarito"}},{"country":"VE","name":"Guanare","admin1Code":"VE.18","latitude":9.04183,"longitude":-69.74206,"translations":{"pt":"Guanare","it":"Guanare","ru":"Гуанаре","uk":"Гуанаре","de":"Guanare","es":"Guanare","en":"Guanare","fr":"Guanare"}},{"country":"VE","name":"Guama","admin1Code":"VE.22","latitude":10.26638,"longitude":-68.81986,"translations":{"pt":"Guama","it":"Guama","ru":"Guama","uk":"Guama","de":"Guama","es":"Guama","en":"Guama","fr":"Guama"}},{"country":"VE","name":"Guacara","admin1Code":"VE.07","latitude":10.22609,"longitude":-67.877,"translations":{"pt":"Guacara","it":"Guacara","ru":"Guacara","uk":"Guacara","de":"Guacara","es":"Guacara","en":"Guacara","fr":"Guacara"}},{"country":"VE","name":"Escuque","admin1Code":"VE.21","latitude":9.29687,"longitude":-70.67189,"translations":{"pt":"Escuque","it":"Escuque","ru":"Escuque","uk":"Escuque","de":"Escuque","es":"Escuque","en":"Escuque","fr":"Escuque"}},{"country":"VE","name":"Encontrados","admin1Code":"VE.23","latitude":9.05983,"longitude":-72.2346,"translations":{"pt":"Encontrados","it":"Encontrados","ru":"Encontrados","uk":"Encontrados","de":"Encontrados","es":"Encontrados","en":"Encontrados","fr":"Encontrados"}},{"country":"VE","name":"El vigía","admin1Code":"VE.14","latitude":8.6135,"longitude":-71.65702,"translations":{"pt":"El vigía","it":"El vigía","ru":"Эль-вихия","uk":"El vigía","de":"El vigía","es":"El vigía","en":"El vigía","fr":"El vigía"}},{"country":"VE","name":"El tocuyo","admin1Code":"VE.13","latitude":9.78709,"longitude":-69.79294,"translations":{"pt":"El tocuyo","it":"El tocuyo","ru":"Эль-токуйо","uk":"Ель-токуйо","de":"El tocuyo","es":"El tocuyo","en":"El tocuyo","fr":"El tocuyo"}},{"country":"VE","name":"El tigre","admin1Code":"VE.02","latitude":8.88902,"longitude":-64.2527,"translations":{"pt":"El tigre","it":"El tigre","ru":"El tigre","uk":"El tigre","de":"El tigre","es":"El tigre","en":"El tigre","fr":"El tigre"}},{"country":"VE","name":"El sombrero","admin1Code":"VE.12","latitude":9.3863,"longitude":-67.05818,"translations":{"pt":"El sombrero","it":"El sombrero","ru":"El sombrero","uk":"El sombrero","de":"El sombrero","es":"El sombrero","en":"El sombrero","fr":"El sombrero"}},{"country":"VE","name":"El pao","admin1Code":"VE.08","latitude":9.63926,"longitude":-68.12917,"translations":{"pt":"El pao","it":"El pao","ru":"El pao","uk":"El pao","de":"El pao","es":"El pao","en":"El pao","fr":"El pao"}},{"country":"VE","name":"Elorza","admin1Code":"VE.03","latitude":7.06088,"longitude":-69.49765,"translations":{"pt":"Elorza","it":"Elorza","ru":"Elorza","uk":"Elorza","de":"Elorza","es":"Elorza","en":"Elorza","fr":"Elorza"}},{"country":"VE","name":"Lecherías","admin1Code":"VE.02","latitude":10.19167,"longitude":-64.69207,"translations":{"pt":"Lecherías","it":"Lecherías","ru":"Lecherías","uk":"Lecherías","de":"Lecherías","es":"Lecherías","en":"Lecherías","fr":"Lecherías"}},{"country":"VE","name":"El limón","admin1Code":"VE.04","latitude":10.30589,"longitude":-67.63212,"translations":{"pt":"El limón","it":"El limón","ru":"El limón","uk":"El limón","de":"El limón","es":"El limón","en":"El limón","fr":"El limón"}},{"country":"VE","name":"El hatillo municipality","admin1Code":"VE.15","latitude":10.42411,"longitude":-66.82581,"translations":{"pt":"El hatillo municipality","it":"El hatillo municipality","ru":"El hatillo municipality","uk":"El hatillo municipality","de":"El hatillo municipality","es":"Pueblo el hatillo","en":"El hatillo municipality","fr":"El hatillo municipality"}},{"country":"VE","name":"El dorado","admin1Code":"VE.06","latitude":6.71581,"longitude":-61.63738,"translations":{"pt":"El dorado","it":"El dorado","ru":"El dorado","uk":"El dorado","de":"El dorado","es":"El dorado","en":"El dorado","fr":"El dorado"}},{"country":"VE","name":"El dividive","admin1Code":"VE.21","latitude":9.4751,"longitude":-70.73493,"translations":{"pt":"El dividive","it":"El dividive","ru":"El dividive","uk":"El dividive","de":"El dividive","es":"El dividive","en":"El dividive","fr":"El dividive"}},{"country":"VE","name":"Эхидо","admin1Code":"VE.14","latitude":8.54665,"longitude":-71.24087,"translations":{"pt":"Эkhydo","it":"Эkhydo","ru":"Эхидо","uk":"Эхидо","de":"Эkhydo","es":"Эkhydo","en":"Эхидо","fr":"Эkhydo"}},{"country":"VE","name":"Duaca","admin1Code":"VE.13","latitude":10.28554,"longitude":-69.16244,"translations":{"pt":"Duaca","it":"Duaca","ru":"Duaca","uk":"Duaca","de":"Duaca","es":"Duaca","en":"Duaca","fr":"Duaca"}},{"country":"VE","name":"Dabajuro","admin1Code":"VE.11","latitude":11.02273,"longitude":-70.67769,"translations":{"pt":"Dabajuro","it":"Dabajuro","ru":"Dabajuro","uk":"Dabajuro","de":"Dabajuro","es":"Dabajuro","en":"Dabajuro","fr":"Dabajuro"}},{"country":"VE","name":"Cumanacoa","admin1Code":"VE.19","latitude":10.25056,"longitude":-63.91938,"translations":{"pt":"Cumanacoa","it":"Cumanacoa","ru":"Cumanacoa","uk":"Cumanacoa","de":"Cumanacoa","es":"Cumanacoa","en":"Cumanacoa","fr":"Cumanacoa"}},{"country":"VE","name":"Cumaná","admin1Code":"VE.19","latitude":10.4639,"longitude":-64.17859,"translations":{"pt":"Cumaná","it":"Cumaná","ru":"Кумана","uk":"Кумана","de":"Cumaná","es":"Cumaná","en":"Cumaná","fr":"Cumaná"}},{"country":"VE","name":"Куа","admin1Code":"VE.15","latitude":10.16245,"longitude":-66.88248,"translations":{"pt":"Kua","it":"Kua","ru":"Куа","uk":"Куа","de":"Kua","es":"Kua","en":"Куа","fr":"Kua"}},{"country":"VE","name":"Coro","admin1Code":"VE.11","latitude":11.4045,"longitude":-69.67344,"translations":{"pt":"Coro","it":"Coro","ru":"Коро","uk":"Санта-ана-де-коро","de":"Coro","es":"Coro","en":"Coro","fr":"Coro"}},{"country":"VE","name":"Coloncito","admin1Code":"VE.20","latitude":8.32611,"longitude":-72.08742,"translations":{"pt":"Coloncito","it":"Coloncito","ru":"Coloncito","uk":"Coloncito","de":"Coloncito","es":"Coloncito","en":"Coloncito","fr":"Coloncito"}},{"country":"VE","name":"Cocorote","admin1Code":"VE.22","latitude":10.31954,"longitude":-68.78298,"translations":{"pt":"Cocorote","it":"Cocorote","ru":"Cocorote","uk":"Cocorote","de":"Cocorote","es":"Cocorote","en":"Cocorote","fr":"Cocorote"}},{"country":"VE","name":"Clarines","admin1Code":"VE.02","latitude":9.93991,"longitude":-65.16517,"translations":{"pt":"Clarines","it":"Clarines","ru":"Clarines","uk":"Clarines","de":"Clarines","es":"Clarines","en":"Clarines","fr":"Clarines"}},{"country":"VE","name":"Cidade pilar","admin1Code":"VE.06","latitude":7.45209,"longitude":-63.31992,"translations":{"pt":"Cidade pilar","it":"Cidade pilar","ru":"Cidade pilar","uk":"Cidade pilar","de":"Cidade pilar","es":"Cidade pilar","en":"Cidade pilar","fr":"Cidade pilar"}},{"country":"VE","name":"Ciudad ojeda","admin1Code":"VE.23","latitude":10.20161,"longitude":-71.3148,"translations":{"pt":"Ciudad ojeda","it":"Ciudad ojeda","ru":"Ciudad ojeda","uk":"Ciudad ojeda","de":"Ciudad ojeda","es":"Ciudad ojeda","en":"Ciudad ojeda","fr":"Ciudad ojeda"}},{"country":"VE","name":"Ciudad guayana","admin1Code":"VE.06","latitude":8.35122,"longitude":-62.64102,"translations":{"pt":"Cidade guaiana","it":"Ciudad guayana","ru":"Сьюдад-гуаяна","uk":"Ciudad guayana","de":"Ciudad guayana","es":"Ciudad guayana","en":"Ciudad guayana","fr":"Ciudad guayana"}},{"country":"VE","name":"Ciudad bolivia","admin1Code":"VE.05","latitude":8.35304,"longitude":-70.57121,"translations":{"pt":"Ciudad bolivia","it":"Ciudad bolivia","ru":"Ciudad bolivia","uk":"Ciudad bolivia","de":"Ciudad bolivia","es":"Ciudad bolivia","en":"Ciudad bolivia","fr":"Ciudad bolivia"}},{"country":"VE","name":"Ciudad bolívar","admin1Code":"VE.06","latitude":8.12923,"longitude":-63.54086,"translations":{"pt":"Ciudad bolívar","it":"Ciudad bolívar","ru":"Сьюдад-боливар","uk":"Сьюдад-болівар","de":"Ciudad bolívar","es":"Ciudad bolívar","en":"Ciudad bolívar","fr":"Ciudad bolívar"}},{"country":"VE","name":"Chivacoa","admin1Code":"VE.22","latitude":10.15951,"longitude":-68.89453,"translations":{"pt":"Chivacoa","it":"Chivacoa","ru":"Chivacoa","uk":"Chivacoa","de":"Chivacoa","es":"Chivacoa","en":"Chivacoa","fr":"Chivacoa"}},{"country":"VE","name":"Chiquinquirá","admin1Code":"VE.23","latitude":10.44333,"longitude":-71.64722,"translations":{"pt":"Chiquinquirá","it":"Chiquinquirá","ru":"Chiquinquirá","uk":"Chiquinquirá","de":"Chiquinquirá","es":"Chiquinquirá","en":"Chiquinquirá","fr":"Chiquinquirá"}},{"country":"VE","name":"Charallave","admin1Code":"VE.15","latitude":10.24247,"longitude":-66.85723,"translations":{"pt":"Charallave","it":"Charallave","ru":"Charallave","uk":"Charallave","de":"Charallave","es":"Charallave","en":"Charallave","fr":"Charallave"}},{"country":"VE","name":"Chaguaramas","admin1Code":"VE.12","latitude":9.33754,"longitude":-66.25282,"translations":{"pt":"Chaguaramas","it":"Chaguaramas","ru":"Chaguaramas","uk":"Chaguaramas","de":"Chaguaramas","es":"Chaguaramas","en":"Chaguaramas","fr":"Chaguaramas"}},{"country":"VE","name":"Chacao","admin1Code":"VE.15","latitude":10.49581,"longitude":-66.85367,"translations":{"pt":"Chacao","it":"Chacao","ru":"Chacao","uk":"Chacao","de":"Chacao","es":"Chacao","en":"Chacao","fr":"Chacao"}},{"country":"VE","name":"Tacarigua","admin1Code":"VE.07","latitude":10.08621,"longitude":-67.91982,"translations":{"pt":"Tacarigua","it":"Tacarigua","ru":"Tacarigua","uk":"Tacarigua","de":"Tacarigua","es":"Tacarigua","en":"Tacarigua","fr":"Tacarigua"}},{"country":"VE","name":"Caucagüito","admin1Code":"VE.15","latitude":10.48666,"longitude":-66.73799,"translations":{"pt":"Caucagüito","it":"Caucagüito","ru":"Caucagüito","uk":"Caucagüito","de":"Caucagüito","es":"Caucagüito","en":"Caucagüito","fr":"Caucagüito"}},{"country":"VE","name":"Caucagua","admin1Code":"VE.15","latitude":10.2831,"longitude":-66.37591,"translations":{"pt":"Caucagua","it":"Caucagua","ru":"Caucagua","uk":"Caucagua","de":"Caucagua","es":"Caucagua","en":"Caucagua","fr":"Caucagua"}},{"country":"VE","name":"Catia de la mar","admin1Code":"VE.26","latitude":10.60545,"longitude":-67.03238,"translations":{"pt":"Catia la mar","it":"Catia la mar","ru":"Catia de la mar","uk":"Catia de la mar","de":"Catia la mar","es":"Catia la mar","en":"Catia de la mar","fr":"Catia la mar"}},{"country":"VE","name":"Casigua-el cubo","admin1Code":"VE.23","latitude":8.74602,"longitude":-72.51889,"translations":{"pt":"Casigua-el cubo","it":"Casigua-el cubo","ru":"Casigua-el cubo","uk":"Casigua-el cubo","de":"Casigua-el cubo","es":"Casigua-el cubo","en":"Casigua-el cubo","fr":"Casigua-el cubo"}},{"country":"VE","name":"Casanay","admin1Code":"VE.19","latitude":10.5042,"longitude":-63.41729,"translations":{"pt":"Casanay","it":"Casanay","ru":"Casanay","uk":"Casanay","de":"Casanay","es":"Casanay","en":"Casanay","fr":"Casanay"}},{"country":"VE","name":"Carúpano","admin1Code":"VE.19","latitude":10.66516,"longitude":-63.25387,"translations":{"pt":"Carúpano","it":"Carúpano","ru":"Carúpano","uk":"Carúpano","de":"Carúpano","es":"Carúpano","en":"Carúpano","fr":"Carúpano"}},{"country":"VE","name":"Каррисаль","admin1Code":"VE.15","latitude":10.34985,"longitude":-66.98632,"translations":{"pt":"Karrysal'","it":"Karrysal'","ru":"Каррисаль","uk":"Каррисаль","de":"Karrysal'","es":"Karrysal'","en":"Каррисаль","fr":"Karrysal'"}},{"country":"VE","name":"Carora","admin1Code":"VE.13","latitude":10.17283,"longitude":-70.081,"translations":{"pt":"Carora","it":"Carora","ru":"Carora","uk":"Carora","de":"Carora","es":"Carora","en":"Carora","fr":"Carora"}},{"country":"VE","name":"Caripito","admin1Code":"VE.16","latitude":10.11135,"longitude":-63.09985,"translations":{"pt":"Caripito","it":"Caripito","ru":"Caripito","uk":"Caripito","de":"Caripito","es":"Caripito","en":"Caripito","fr":"Caripito"}},{"country":"VE","name":"Cariaco","admin1Code":"VE.19","latitude":10.49682,"longitude":-63.55286,"translations":{"pt":"Cariaco","it":"Cariaco","ru":"Cariaco","uk":"Cariaco","de":"Cariaco","es":"Cariaco","en":"Cariaco","fr":"Cariaco"}},{"country":"VE","name":"Caracas","admin1Code":"VE.25","latitude":10.48801,"longitude":-66.87919,"translations":{"pt":"Caracas","it":"Caracas","ru":"Каракас","uk":"Каракас","de":"Caracas","es":"Caracas","en":"Caracas","fr":"Caracas"}},{"country":"VE","name":"Caraballeda","admin1Code":"VE.26","latitude":10.61216,"longitude":-66.85192,"translations":{"pt":"Caraballeda","it":"Caraballeda","ru":"Caraballeda","uk":"Caraballeda","de":"Caraballeda","es":"Caraballeda","en":"Caraballeda","fr":"Caraballeda"}},{"country":"VE","name":"Cantaura","admin1Code":"VE.02","latitude":9.30571,"longitude":-64.35841,"translations":{"pt":"Cantaura","it":"Cantaura","ru":"Cantaura","uk":"Cantaura","de":"Cantaura","es":"Cantaura","en":"Cantaura","fr":"Cantaura"}},{"country":"VE","name":"Camaguán","admin1Code":"VE.12","latitude":8.10732,"longitude":-67.60738,"translations":{"pt":"Camaguán","it":"Camaguán","ru":"Camaguán","uk":"Camaguán","de":"Camaguán","es":"Camaguán","en":"Camaguán","fr":"Camaguán"}},{"country":"VE","name":"Calabozo","admin1Code":"VE.12","latitude":8.92416,"longitude":-67.42929,"translations":{"pt":"Calabozo","it":"Calabozo","ru":"Calabozo","uk":"Calabozo","de":"Calabozo","es":"Calabozo","en":"Calabozo","fr":"Calabozo"}},{"country":"VE","name":"Caja seca","admin1Code":"VE.23","latitude":9.14151,"longitude":-71.06741,"translations":{"pt":"Caja seca","it":"Caja seca","ru":"Caja seca","uk":"Caja seca","de":"Caja seca","es":"Caja seca","en":"Caja seca","fr":"Caja seca"}},{"country":"VE","name":"Caicara","admin1Code":"VE.16","latitude":9.81755,"longitude":-63.61331,"translations":{"pt":"Caicara","it":"Caicara","ru":"Caicara","uk":"Caicara","de":"Caicara","es":"Caicara","en":"Caicara","fr":"Caicara"}},{"country":"VE","name":"Caicara del orinoco","admin1Code":"VE.06","latitude":7.63501,"longitude":-66.16815,"translations":{"pt":"Caicara del orinoco","it":"Caicara del orinoco","ru":"Caicara del orinoco","uk":"Caicara del orinoco","de":"Caicara del orinoco","es":"Caicara del orinoco","en":"Caicara del orinoco","fr":"Caicara del orinoco"}},{"country":"VE","name":"Cagua","admin1Code":"VE.04","latitude":10.18634,"longitude":-67.45935,"translations":{"pt":"Cagua","it":"Cagua","ru":"Cagua","uk":"Cagua","de":"Cagua","es":"Cagua","en":"Cagua","fr":"Cagua"}},{"country":"VE","name":"Cabudare","admin1Code":"VE.13","latitude":10.02658,"longitude":-69.26203,"translations":{"pt":"Cabudare","it":"Cabudare","ru":"Cabudare","uk":"Cabudare","de":"Cabudare","es":"Cabudare","en":"Cabudare","fr":"Cabudare"}},{"country":"VE","name":"Cabimas","admin1Code":"VE.23","latitude":10.39907,"longitude":-71.45206,"translations":{"pt":"Cabimas","it":"Cabimas","ru":"Кабимас","uk":"Cabimas","de":"Cabimas","es":"Cabimas","en":"Cabimas","fr":"Cabimas"}},{"country":"VE","name":"Boraure","admin1Code":"VE.22","latitude":10.24752,"longitude":-68.76966,"translations":{"pt":"Boraure","it":"Boraure","ru":"Boraure","uk":"Boraure","de":"Boraure","es":"Boraure","en":"Boraure","fr":"Boraure"}},{"country":"VE","name":"Boconoito","admin1Code":"VE.18","latitude":8.84659,"longitude":-69.98032,"translations":{"pt":"Boconoito","it":"Boconoito","ru":"Boconoito","uk":"Boconoito","de":"Boconoito","es":"Boconoito","en":"Boconoito","fr":"Boconoito"}},{"country":"VE","name":"Boconó","admin1Code":"VE.21","latitude":9.25385,"longitude":-70.25105,"translations":{"pt":"Boconó","it":"Boconó","ru":"Boconó","uk":"Boconó","de":"Boconó","es":"Boconó","en":"Boconó","fr":"Boconó"}},{"country":"VE","name":"Biruaca","admin1Code":"VE.03","latitude":7.84483,"longitude":-67.51679,"translations":{"pt":"Biruaca","it":"Biruaca","ru":"Biruaca","uk":"Biruaca","de":"Biruaca","es":"Biruaca","en":"Biruaca","fr":"Biruaca"}},{"country":"VE","name":"Bejuma","admin1Code":"VE.07","latitude":10.17383,"longitude":-68.25892,"translations":{"pt":"Bejuma","it":"Bejuma","ru":"Bejuma","uk":"Bejuma","de":"Bejuma","es":"Bejuma","en":"Bejuma","fr":"Bejuma"}},{"country":"VE","name":"Nuestra señora del rosario de baruta","admin1Code":"VE.15","latitude":10.43424,"longitude":-66.87558,"translations":{"pt":"Nuestra señora del rosario de baruta","it":"Nuestra señora del rosario de baruta","ru":"Nuestra señora del rosario de baruta","uk":"Nuestra señora del rosario de baruta","de":"Nuestra señora del rosario de baruta","es":"Nuestra señora del rosario de baruta","en":"Nuestra señora del rosario de baruta","fr":"Nuestra señora del rosario de baruta"}},{"country":"VE","name":"Barrancas","admin1Code":"VE.05","latitude":8.76962,"longitude":-70.11086,"translations":{"pt":"Barrancas","it":"Barrancas","ru":"Barrancas","uk":"Barrancas","de":"Barrancas","es":"Barrancas","en":"Barrancas","fr":"Barrancas"}},{"country":"VE","name":"Barrancas","admin1Code":"VE.16","latitude":8.6989,"longitude":-62.19656,"translations":{"pt":"Barrancas","it":"Barrancas","ru":"Barrancas","uk":"Barrancas","de":"Barrancas","es":"Barrancas","en":"Barrancas","fr":"Barrancas"}},{"country":"VE","name":"Barquisimeto","admin1Code":"VE.13","latitude":10.0647,"longitude":-69.35703,"translations":{"pt":"Barquisimeto","it":"Barquisimeto","ru":"Баркисимето","uk":"Баркісімето","de":"Barquisimeto","es":"Barquisimeto","en":"Barquisimeto","fr":"Barquisimeto"}},{"country":"VE","name":"Barinitas","admin1Code":"VE.05","latitude":8.76171,"longitude":-70.41199,"translations":{"pt":"Barinitas","it":"Barinitas","ru":"Barinitas","uk":"Barinitas","de":"Barinitas","es":"Barinitas","en":"Barinitas","fr":"Barinitas"}},{"country":"VE","name":"Barinas","admin1Code":"VE.05","latitude":8.62261,"longitude":-70.20749,"translations":{"pt":"Barinas","it":"Barinas","ru":"Баринас","uk":"Барінас","de":"Barinas","es":"Barinas","en":"Barinas","fr":"Barinas"}},{"country":"VE","name":"Barcelona","admin1Code":"VE.02","latitude":10.13625,"longitude":-64.68618,"translations":{"pt":"Barcelona","it":"Barcelona","ru":"Барселона","uk":"Barcelona","de":"Barcelona","es":"Barcelona","en":"Barcelona","fr":"Barcelona"}},{"country":"VE","name":"Bailadores","admin1Code":"VE.14","latitude":8.25347,"longitude":-71.82818,"translations":{"pt":"Bailadores","it":"Bailadores","ru":"Байладорес","uk":"Bailadores","de":"Bailadores","es":"Bailadores","en":"Bailadores","fr":"Bailadores"}},{"country":"VE","name":"Aroa","admin1Code":"VE.22","latitude":10.43949,"longitude":-68.89496,"translations":{"pt":"Aroa","it":"Aroa","ru":"Aroa","uk":"Aroa","de":"Aroa","es":"Aroa","en":"Aroa","fr":"Aroa"}},{"country":"VE","name":"Araya","admin1Code":"VE.19","latitude":10.57998,"longitude":-64.25548,"translations":{"pt":"Araya","it":"Araya","ru":"Araya","uk":"Araya","de":"Araya","es":"Araya","en":"Araya","fr":"Araya"}},{"country":"VE","name":"Araure","admin1Code":"VE.18","latitude":9.58144,"longitude":-69.23851,"translations":{"pt":"Araure","it":"Araure","ru":"Araure","uk":"Araure","de":"Araure","es":"Araure","en":"Araure","fr":"Araure"}},{"country":"VE","name":"Aragua de barcelona","admin1Code":"VE.02","latitude":9.45588,"longitude":-64.82928,"translations":{"pt":"Aragua de barcelona","it":"Aragua de barcelona","ru":"Aragua de barcelona","uk":"Aragua de barcelona","de":"Aragua de barcelona","es":"Aragua de barcelona","en":"Aragua de barcelona","fr":"Aragua de barcelona"}},{"country":"VE","name":"Altagracia de orituco","admin1Code":"VE.12","latitude":9.86005,"longitude":-66.38139,"translations":{"pt":"Altagracia de orituco","it":"Altagracia de orituco","ru":"Altagracia de orituco","uk":"Altagracia de orituco","de":"Altagracia de orituco","es":"Altagracia de orituco","en":"Altagracia de orituco","fr":"Altagracia de orituco"}},{"country":"VE","name":"Los puertos de altagracia","admin1Code":"VE.23","latitude":10.71492,"longitude":-71.52168,"translations":{"pt":"Los puertos de altagracia","it":"Los puertos de altagracia","ru":"Los puertos de altagracia","uk":"Los puertos de altagracia","de":"Los puertos de altagracia","es":"Los puertos de altagracia","en":"Los puertos de altagracia","fr":"Los puertos de altagracia"}},{"country":"VE","name":"Achaguas","admin1Code":"VE.03","latitude":7.77917,"longitude":-68.22373,"translations":{"pt":"Achaguas","it":"Achaguas","ru":"Achaguas","uk":"Achaguas","de":"Achaguas","es":"Achaguas","en":"Achaguas","fr":"Achaguas"}},{"country":"VE","name":"Acarigua","admin1Code":"VE.18","latitude":9.55451,"longitude":-69.19564,"translations":{"pt":"Acarigua","it":"Acarigua","ru":"Акаригуа","uk":"Акарігуа","de":"Acarigua","es":"Acarigua","en":"Acarigua","fr":"Acarigua"}},{"country":"VE","name":"San josecito","admin1Code":"VE.20","latitude":7.66106,"longitude":-72.22009,"translations":{"pt":"San josecito","it":"San josecito","ru":"San josecito","uk":"San josecito","de":"San josecito","es":"San josecito","en":"San josecito","fr":"San josecito"}},{"country":"VE","name":"Maturín","admin1Code":"VE.16","latitude":9.74569,"longitude":-63.18323,"translations":{"pt":"Maturín","it":"Maturín","ru":"Матурин","uk":"Матурін","de":"Maturín","es":"Maturín","en":"Maturín","fr":"Maturín"}},{"country":"VE","name":"La fría","admin1Code":"VE.20","latitude":8.21523,"longitude":-72.24888,"translations":{"pt":"La fría","it":"La fría","ru":"La fría","uk":"La fría","de":"La fría","es":"La fría","en":"La fría","fr":"La fría"}},{"country":"VE","name":"La grita","admin1Code":"VE.20","latitude":8.13316,"longitude":-71.9839,"translations":{"pt":"La grita","it":"La grita","ru":"La grita","uk":"La grita","de":"La grita","es":"La grita","en":"La grita","fr":"La grita"}},{"country":"VE","name":"Capacho nuevo","admin1Code":"VE.20","latitude":7.82472,"longitude":-72.3084,"translations":{"pt":"Capacho nuevo","it":"Capacho nuevo","ru":"Capacho nuevo","uk":"Capacho nuevo","de":"Capacho nuevo","es":"Capacho nuevo","en":"Capacho nuevo","fr":"Capacho nuevo"}},{"country":"VE","name":"El cafetal","admin1Code":"VE.15","latitude":10.46541,"longitude":-66.82951,"translations":{"pt":"El cafetal","it":"El cafetal","ru":"El cafetal","uk":"El cafetal","de":"El cafetal","es":"El cafetal","en":"El cafetal","fr":"El cafetal"}},{"country":"VE","name":"La dolorita","admin1Code":"VE.15","latitude":10.4883,"longitude":-66.78608,"translations":{"pt":"La dolorita","it":"La dolorita","ru":"La dolorita","uk":"La dolorita","de":"La dolorita","es":"La dolorita","en":"La dolorita","fr":"La dolorita"}},{"country":"VE","name":"Guasdualito","admin1Code":"VE.03","latitude":7.24241,"longitude":-70.73235,"translations":{"pt":"Guasdualito","it":"Guasdualito","ru":"Guasdualito","uk":"Guasdualito","de":"Guasdualito","es":"Guasdualito","en":"Guasdualito","fr":"Guasdualito"}},{"country":"VE","name":"San fernando de apure","admin1Code":"VE.03","latitude":7.88782,"longitude":-67.47236,"translations":{"pt":"San fernando de apure","it":"San fernando de apure","ru":"San fernando de apure","uk":"San fernando de apure","de":"San fernando de apure","es":"San fernando de apure","en":"San fernando de apure","fr":"San fernando de apure"}},{"country":"VE","name":"Santa cruz de los taques","admin1Code":"VE.11","latitude":11.8235,"longitude":-70.25637,"translations":{"pt":"Santa cruz de los taques","it":"Santa cruz de los taques","ru":"Santa cruz de los taques","uk":"Santa cruz de los taques","de":"Santa cruz de los taques","es":"Santa cruz de los taques","en":"Santa cruz de los taques","fr":"Santa cruz de los taques"}}]