[{"country":"EC","name":"Zamora","admin1Code":"EC.20","latitude":-4.06685,"longitude":-78.95488,"translations":{"pt":"Zamora","it":"Zamora","ru":"Zamora","uk":"Zamora","de":"Zamora","es":"Zamora","en":"Zamora","fr":"Zamora"}},{"country":"EC","name":"Yaguachi nuevo","admin1Code":"EC.10","latitude":-2.09757,"longitude":-79.69261,"translations":{"pt":"Yaguachi nuevo","it":"Yaguachi nuevo","ru":"Yaguachi nuevo","uk":"Yaguachi nuevo","de":"Yaguachi nuevo","es":"Yaguachi nuevo","en":"Yaguachi nuevo","fr":"Yaguachi nuevo"}},{"country":"EC","name":"Vinces","admin1Code":"EC.13","latitude":-1.55637,"longitude":-79.75249,"translations":{"pt":"Vinces","it":"Vinces","ru":"Vinces","uk":"Vinces","de":"Vinces","es":"Vinces","en":"Vinces","fr":"Vinces"}},{"country":"EC","name":"Ventanas","admin1Code":"EC.13","latitude":-1.44285,"longitude":-79.46274,"translations":{"pt":"Ventanas","it":"Ventanas","ru":"Ventanas","uk":"Ventanas","de":"Ventanas","es":"Ventanas","en":"Ventanas","fr":"Ventanas"}},{"country":"EC","name":"El empalme","admin1Code":"EC.10","latitude":-1.04491,"longitude":-79.6384,"translations":{"pt":"El empalme","it":"El empalme","ru":"El empalme","uk":"El empalme","de":"El empalme","es":"El empalme","en":"El empalme","fr":"El empalme"}},{"country":"EC","name":"Tulcán","admin1Code":"EC.05","latitude":0.81187,"longitude":-77.71727,"translations":{"pt":"Tulcán","it":"Tulcán","ru":"Тулькан","uk":"Тулькан","de":"Tulcán","es":"Tulcán","en":"Tulcán","fr":"Tulcán"}},{"country":"EC","name":"Tena","admin1Code":"EC.23","latitude":-0.9938,"longitude":-77.81286,"translations":{"pt":"Tena","it":"Tena","ru":"Tena","uk":"Tena","de":"Tena","es":"Tena","en":"Tena","fr":"Tena"}},{"country":"EC","name":"Sucre","admin1Code":"EC.14","latitude":-1.27987,"longitude":-80.41776,"translations":{"pt":"Sucre","it":"Sucre","ru":"Sucre","uk":"Sucre","de":"Sucre","es":"Sucre","en":"Sucre","fr":"Sucre"}},{"country":"EC","name":"Santo domingo de los colorados","admin1Code":"EC.26","latitude":-0.25305,"longitude":-79.17536,"translations":{"pt":"Santo domingo de los colorados","it":"Santo domingo de los colorados","ru":"Санто-доминго-де-лос-колорадос","uk":"Santo domingo de los colorados","de":"Santo domingo de los colorados","es":"Santo domingo de los colorados","en":"Santo domingo de los colorados","fr":"Santo domingo de los colorados"}},{"country":"EC","name":"Santa rosa","admin1Code":"EC.08","latitude":-3.45571,"longitude":-79.9637,"translations":{"pt":"Santa rosa","it":"Santa rosa","ru":"Santa rosa","uk":"Santa rosa","de":"Santa rosa","es":"Santa rosa","en":"Santa rosa","fr":"Santa rosa"}},{"country":"EC","name":"Santa elena","admin1Code":"EC.25","latitude":-2.22622,"longitude":-80.85873,"translations":{"pt":"Santa elena","it":"Santa elena","ru":"Santa elena","uk":"Santa elena","de":"Santa elena","es":"Santa elena","en":"Santa elena","fr":"Santa elena"}},{"country":"EC","name":"San lorenzo de esmeraldas","admin1Code":"EC.09","latitude":1.28626,"longitude":-78.83514,"translations":{"pt":"San lorenzo de esmeraldas","it":"San lorenzo de esmeraldas","ru":"San lorenzo de esmeraldas","uk":"San lorenzo de esmeraldas","de":"San lorenzo de esmeraldas","es":"San lorenzo de esmeraldas","en":"San lorenzo de esmeraldas","fr":"San lorenzo de esmeraldas"}},{"country":"EC","name":"Samborondón","admin1Code":"EC.10","latitude":-1.96071,"longitude":-79.72566,"translations":{"pt":"Samborondón","it":"Samborondón","ru":"Samborondón","uk":"Samborondón","de":"Samborondón","es":"Samborondón","en":"Samborondón","fr":"Samborondón"}},{"country":"EC","name":"Салинас","admin1Code":"EC.25","latitude":-2.21452,"longitude":-80.95151,"translations":{"pt":"Salynas","it":"Salynas","ru":"Салинас","uk":"Салінас","de":"Salynas","es":"Salynas","en":"Салинас","fr":"Salynas"}},{"country":"EC","name":"Rosa zarate","admin1Code":"EC.09","latitude":0.32779,"longitude":-79.47407,"translations":{"pt":"Rosa zarate","it":"Rosa zarate","ru":"Rosa zarate","uk":"Rosa zarate","de":"Rosa zarate","es":"Rosa zarate","en":"Rosa zarate","fr":"Rosa zarate"}},{"country":"EC","name":"Riobamba","admin1Code":"EC.06","latitude":-1.67098,"longitude":-78.64712,"translations":{"pt":"Riobamba","it":"Riobamba","ru":"Риобамба","uk":"Ріобамба","de":"Riobamba","es":"Riobamba","en":"Riobamba","fr":"Riobamba"}},{"country":"EC","name":"Quito","admin1Code":"EC.18","latitude":-0.22985,"longitude":-78.52495,"translations":{"pt":"Quito","it":"Quito","ru":"Кито","uk":"Кіто","de":"Quito","es":"Quito","en":"Quito","fr":"Quito"}},{"country":"EC","name":"Кеведо","admin1Code":"EC.13","latitude":-1.02881,"longitude":-79.46264,"translations":{"pt":"Kevedo","it":"Kevedo","ru":"Кеведо","uk":"Кеведо","de":"Kevedo","es":"Kevedo","en":"Кеведо","fr":"Kevedo"}},{"country":"EC","name":"Пуйо","admin1Code":"EC.17","latitude":-1.48369,"longitude":-78.00257,"translations":{"pt":"Pujo","it":"Pujo","ru":"Пуйо","uk":"Пуйо","de":"Pujo","es":"Pujo","en":"Пуйо","fr":"Pujo"}},{"country":"EC","name":"Pujilí","admin1Code":"EC.07","latitude":-0.95759,"longitude":-78.69636,"translations":{"pt":"Pujilí","it":"Pujilí","ru":"Pujilí","uk":"Pujilí","de":"Pujilí","es":"Pujilí","en":"Pujilí","fr":"Pujilí"}},{"country":"EC","name":"Puerto francisco de orellana","admin1Code":"EC.24","latitude":-0.46645,"longitude":-76.98719,"translations":{"pt":"Puerto francisco de orellana","it":"Puerto francisco de orellana","ru":"Puerto francisco de orellana","uk":"Puerto francisco de orellana","de":"Puerto francisco de orellana","es":"Puerto francisco de orellana","en":"Puerto francisco de orellana","fr":"Puerto francisco de orellana"}},{"country":"EC","name":"Posorja","admin1Code":"EC.10","latitude":-2.70924,"longitude":-80.24719,"translations":{"pt":"Posorja","it":"Posorja","ru":"Posorja","uk":"Posorja","de":"Posorja","es":"Posorja","en":"Posorja","fr":"Posorja"}},{"country":"EC","name":"Портовьехо","admin1Code":"EC.14","latitude":-1.05458,"longitude":-80.45445,"translations":{"pt":"Portov'ekho","it":"Portov'ekho","ru":"Портовьехо","uk":"Портовьехо","de":"Portov'ekho","es":"Portov'ekho","en":"Портовьехо","fr":"Portov'ekho"}},{"country":"EC","name":"Pomasqui","admin1Code":"EC.18","latitude":-0.0542,"longitude":-78.45382,"translations":{"pt":"Pomasqui","it":"Pomasqui","ru":"Pomasqui","uk":"Pomasqui","de":"Pomasqui","es":"Pomasqui","en":"Pomasqui","fr":"Pomasqui"}},{"country":"EC","name":"General villamil","admin1Code":"EC.10","latitude":-2.63199,"longitude":-80.38808,"translations":{"pt":"General villamil","it":"General villamil","ru":"General villamil","uk":"General villamil","de":"General villamil","es":"General villamil","en":"General villamil","fr":"General villamil"}},{"country":"EC","name":"Piñas","admin1Code":"EC.08","latitude":-3.68017,"longitude":-79.68169,"translations":{"pt":"Piñas","it":"Piñas","ru":"Piñas","uk":"Piñas","de":"Piñas","es":"Piñas","en":"Piñas","fr":"Piñas"}},{"country":"EC","name":"Pelileo","admin1Code":"EC.19","latitude":-1.33057,"longitude":-78.54523,"translations":{"pt":"Pelileo","it":"Pelileo","ru":"Pelileo","uk":"Pelileo","de":"Pelileo","es":"Pelileo","en":"Pelileo","fr":"Pelileo"}},{"country":"EC","name":"Pedro carbo","admin1Code":"EC.10","latitude":-1.81619,"longitude":-80.23431,"translations":{"pt":"Pedro carbo","it":"Pedro carbo","ru":"Pedro carbo","uk":"Pedro carbo","de":"Pedro carbo","es":"Pedro carbo","en":"Pedro carbo","fr":"Pedro carbo"}},{"country":"EC","name":"Pasaje","admin1Code":"EC.08","latitude":-3.32561,"longitude":-79.80697,"translations":{"pt":"Pasaje","it":"Pasaje","ru":"Pasaje","uk":"Pasaje","de":"Pasaje","es":"Pasaje","en":"Pasaje","fr":"Pasaje"}},{"country":"EC","name":"Otavalo","admin1Code":"EC.11","latitude":0.23457,"longitude":-78.26248,"translations":{"pt":"Otavalo","it":"Otavalo","ru":"Отавало","uk":"Отавало","de":"Otavalo","es":"Otavalo","en":"Otavalo","fr":"Otavalo"}},{"country":"EC","name":"Naranjito","admin1Code":"EC.10","latitude":-2.17071,"longitude":-79.465,"translations":{"pt":"Naranjito","it":"Naranjito","ru":"Naranjito","uk":"Naranjito","de":"Naranjito","es":"Naranjito","en":"Naranjito","fr":"Naranjito"}},{"country":"EC","name":"Naranjal","admin1Code":"EC.10","latitude":-2.67638,"longitude":-79.61735,"translations":{"pt":"Naranjal","it":"Naranjal","ru":"Naranjal","uk":"Naranjal","de":"Naranjal","es":"Naranjal","en":"Naranjal","fr":"Naranjal"}},{"country":"EC","name":"Montecristi","admin1Code":"EC.14","latitude":-1.04576,"longitude":-80.65889,"translations":{"pt":"Montecristi","it":"Montecristi","ru":"Montecristi","uk":"Montecristi","de":"Montecristi","es":"Montecristi","en":"Montecristi","fr":"Montecristi"}},{"country":"EC","name":"Montalvo","admin1Code":"EC.13","latitude":-1.79008,"longitude":-79.28759,"translations":{"pt":"Montalvo","it":"Montalvo","ru":"Montalvo","uk":"Montalvo","de":"Montalvo","es":"Montalvo","en":"Montalvo","fr":"Montalvo"}},{"country":"EC","name":"Milagro","admin1Code":"EC.10","latitude":-2.13396,"longitude":-79.59337,"translations":{"pt":"Milagro","it":"Milagro","ru":"Милагро","uk":"Мілагро","de":"Milagro","es":"Milagro","en":"Milagro","fr":"Milagro"}},{"country":"EC","name":"Manta","admin1Code":"EC.14","latitude":-0.94937,"longitude":-80.73137,"translations":{"pt":"Manta","it":"Manta","ru":"Манта","uk":"Manta","de":"Manta","es":"Manta","en":"Manta","fr":"Manta ecuador"}},{"country":"EC","name":"Machala","admin1Code":"EC.08","latitude":-3.25861,"longitude":-79.96053,"translations":{"pt":"Machala","it":"Machala","ru":"Мачала","uk":"Мачала","de":"Machala","es":"Machala","en":"Machala","fr":"Machala"}},{"country":"EC","name":"Machachi","admin1Code":"EC.18","latitude":-0.51273,"longitude":-78.57066,"translations":{"pt":"Machachi","it":"Machachi","ru":"Machachi","uk":"Machachi","de":"Machachi","es":"Machachi","en":"Machachi","fr":"Machachi"}},{"country":"EC","name":"Macas","admin1Code":"EC.15","latitude":-2.30868,"longitude":-78.11135,"translations":{"pt":"Macas","it":"Macas","ru":"Macas","uk":"Macas","de":"Macas","es":"Macas","en":"Macas","fr":"Macas"}},{"country":"EC","name":"Loja","admin1Code":"EC.12","latitude":-3.99313,"longitude":-79.20422,"translations":{"pt":"Loja","it":"Loja","ru":"Лоха","uk":"Loja","de":"Loja","es":"Loja","en":"Loja","fr":"Loja"}},{"country":"EC","name":"La troncal","admin1Code":"EC.04","latitude":-2.42466,"longitude":-79.34159,"translations":{"pt":"La troncal","it":"La troncal","ru":"La troncal","uk":"La troncal","de":"La troncal","es":"La troncal","en":"La troncal","fr":"La troncal"}},{"country":"EC","name":"Latacunga","admin1Code":"EC.07","latitude":-0.93521,"longitude":-78.61554,"translations":{"pt":"Latacunga","it":"Latacunga","ru":"Латакунга","uk":"Latacunga","de":"Latacunga","es":"Latacunga","en":"Latacunga","fr":"Latacunga"}},{"country":"EC","name":"La maná","admin1Code":"EC.07","latitude":-0.94096,"longitude":-79.22655,"translations":{"pt":"La maná","it":"La maná","ru":"La maná","uk":"La maná","de":"La maná","es":"La maná","en":"La maná","fr":"La maná"}},{"country":"EC","name":"La libertad","admin1Code":"EC.10","latitude":-2.233,"longitude":-80.91039,"translations":{"pt":"La libertad","it":"La libertad","ru":"La libertad","uk":"La libertad","de":"La libertad","es":"La libertad","en":"La libertad","fr":"La libertad"}},{"country":"EC","name":"Нуэва-лоха","admin1Code":"EC.22","latitude":0.086,"longitude":-76.89528,"translations":{"pt":"Nuэva-lokha","it":"Nuэva-lokha","ru":"Нуэва-лоха","uk":"Нуева-лоха","de":"Nuэva-lokha","es":"Nuэva-lokha","en":"Нуэва-лоха","fr":"Nuэva-lokha"}},{"country":"EC","name":"Jipijapa","admin1Code":"EC.14","latitude":-1.34841,"longitude":-80.57913,"translations":{"pt":"Jipijapa","it":"Jipijapa","ru":"Jipijapa","uk":"Jipijapa","de":"Jipijapa","es":"Jipijapa","en":"Jipijapa","fr":"Jipijapa"}},{"country":"EC","name":"Ibarra","admin1Code":"EC.11","latitude":0.35171,"longitude":-78.12233,"translations":{"pt":"Ibarra","it":"Ibarra","ru":"Ибарра","uk":"Ibarra","de":"Ibarra","es":"Ibarra","en":"Ibarra","fr":"Ibarra"}},{"country":"EC","name":"Huaquillas","admin1Code":"EC.08","latitude":-3.47523,"longitude":-80.23084,"translations":{"pt":"Huaquillas","it":"Huaquillas","ru":"Huaquillas","uk":"Huaquillas","de":"Huaquillas","es":"Huaquillas","en":"Huaquillas","fr":"Huaquillas"}},{"country":"EC","name":"Guayaquil","admin1Code":"EC.10","latitude":-2.19616,"longitude":-79.88621,"translations":{"pt":"Guaiaquil","it":"Guayaquil","ru":"Гуаякиль","uk":"Ґуаякіль","de":"Guayaquil","es":"Guayaquil","en":"Guayaquil","fr":"Guayaquil"}},{"country":"EC","name":"Guaranda","admin1Code":"EC.03","latitude":-1.59263,"longitude":-79.00098,"translations":{"pt":"Guaranda","it":"Guaranda","ru":"Гуаранда","uk":"Ґуаранда","de":"Guaranda","es":"Guaranda","en":"Guaranda","fr":"Guaranda"}},{"country":"EC","name":"Gualaceo","admin1Code":"EC.02","latitude":-2.89418,"longitude":-78.77907,"translations":{"pt":"Gualaceo","it":"Gualaceo","ru":"Gualaceo","uk":"Gualaceo","de":"Gualaceo","es":"Gualaceo","en":"Gualaceo","fr":"Gualaceo"}},{"country":"EC","name":"Esmeraldas","admin1Code":"EC.09","latitude":0.9592,"longitude":-79.65397,"translations":{"pt":"Esmeraldas","it":"Esmeraldas","ru":"Esmeraldas","uk":"Esmeraldas","de":"Esmeraldas","es":"Esmeraldas","en":"Esmeraldas","fr":"Esmeraldas"}},{"country":"EC","name":"El triunfo","admin1Code":"EC.10","latitude":-1.93333,"longitude":-79.96667,"translations":{"pt":"El triunfo","it":"El triunfo","ru":"El triunfo","uk":"El triunfo","de":"El triunfo","es":"El triunfo","en":"El triunfo","fr":"El triunfo"}},{"country":"EC","name":"Durán","admin1Code":"EC.10","latitude":-2.16919,"longitude":-79.83987,"translations":{"pt":"Durán","it":"Durán","ru":"Durán","uk":"Durán","de":"Durán","es":"Durán","en":"Durán","fr":"Durán"}},{"country":"EC","name":"Daule","admin1Code":"EC.10","latitude":-1.86032,"longitude":-79.97683,"translations":{"pt":"Daule","it":"Daule","ru":"Daule","uk":"Daule","de":"Daule","es":"Daule","en":"Daule","fr":"Daule"}},{"country":"EC","name":"Cuenca","admin1Code":"EC.02","latitude":-2.90055,"longitude":-79.00453,"translations":{"pt":"Cuenca","it":"Cuenca","ru":"Куэнка","uk":"Куенка","de":"Cuenca","es":"Cuenca","en":"Cuenca","fr":"Cuenca"}},{"country":"EC","name":"Chone","admin1Code":"EC.14","latitude":-0.6985,"longitude":-80.0925,"translations":{"pt":"Chone","it":"Chone","ru":"Chone","uk":"Chone","de":"Chone","es":"Chone","en":"Chone","fr":"Chone"}},{"country":"EC","name":"Каямбе","admin1Code":"EC.18","latitude":0.04103,"longitude":-78.14636,"translations":{"pt":"Kajambe","it":"Kajambe","ru":"Каямбе","uk":"Каямбе","de":"Kajambe","es":"Kajambe","en":"Каямбе","fr":"Kajambe"}},{"country":"EC","name":"Catamayo","admin1Code":"EC.12","latitude":-3.98661,"longitude":-79.35763,"translations":{"pt":"Catamayo","it":"Catamayo","ru":"Catamayo","uk":"Catamayo","de":"Catamayo","es":"Catamayo","en":"Catamayo","fr":"Catamayo"}},{"country":"EC","name":"Cariamanga","admin1Code":"EC.12","latitude":-4.32804,"longitude":-79.55575,"translations":{"pt":"Cariamanga","it":"Cariamanga","ru":"Cariamanga","uk":"Cariamanga","de":"Cariamanga","es":"Cariamanga","en":"Cariamanga","fr":"Cariamanga"}},{"country":"EC","name":"Calceta","admin1Code":"EC.14","latitude":-0.84582,"longitude":-80.16389,"translations":{"pt":"Calceta","it":"Calceta","ru":"Calceta","uk":"Calceta","de":"Calceta","es":"Calceta","en":"Calceta","fr":"Calceta"}},{"country":"EC","name":"Boca suno","admin1Code":"EC.24","latitude":-0.69832,"longitude":-77.14083,"translations":{"pt":"Boca suno","it":"Boca suno","ru":"Boca suno","uk":"Boca suno","de":"Boca suno","es":"Boca suno","en":"Boca suno","fr":"Boca suno"}},{"country":"EC","name":"Balzar","admin1Code":"EC.10","latitude":-1.36553,"longitude":-79.90507,"translations":{"pt":"Balzar","it":"Balzar","ru":"Balzar","uk":"Balzar","de":"Balzar","es":"Balzar","en":"Balzar","fr":"Balzar"}},{"country":"EC","name":"Bahía de caráquez","admin1Code":"EC.14","latitude":-0.60033,"longitude":-80.42444,"translations":{"pt":"Bahia de caraquez","it":"Bahía de caráquez","ru":"Bahía de caráquez","uk":"Bahía de caráquez","de":"Bahía de caráquez","es":"Bahía de caráquez","en":"Bahía de caráquez","fr":"Bahía de caráquez"}},{"country":"EC","name":"Babahoyo","admin1Code":"EC.13","latitude":-1.80217,"longitude":-79.53443,"translations":{"pt":"Babahoyo","it":"Babahoyo","ru":"Babahoyo","uk":"Babahoyo","de":"Babahoyo","es":"Babahoyo","en":"Babahoyo","fr":"Babahoyo"}},{"country":"EC","name":"Azogues","admin1Code":"EC.04","latitude":-2.73969,"longitude":-78.8486,"translations":{"pt":"Azogues","it":"Azogues","ru":"Azogues","uk":"Azogues","de":"Azogues","es":"Azogues","en":"Azogues","fr":"Azogues"}},{"country":"EC","name":"Atuntaqui","admin1Code":"EC.11","latitude":0.32759,"longitude":-78.21908,"translations":{"pt":"Atuntaqui","it":"Atuntaqui","ru":"Atuntaqui","uk":"Atuntaqui","de":"Atuntaqui","es":"Atuntaqui","en":"Atuntaqui","fr":"Atuntaqui"}},{"country":"EC","name":"Ambato","admin1Code":"EC.19","latitude":-1.24908,"longitude":-78.61675,"translations":{"pt":"Ambato","it":"Ambato","ru":"Амбато","uk":"Амбато","de":"Ambato","es":"Ambato","en":"Ambato","fr":"Ambato"}}]