[{"country":"TT","name":"Tunapuna","admin1Code":"TT.TUP","latitude":10.65245,"longitude":-61.38878,"translations":{"pt":"Tunapuna","it":"Tunapuna","ru":"Tunapuna","uk":"Tunapuna","de":"Tunapuna","es":"Tunapuna","en":"Tunapuna","fr":"Tunapuna"}},{"country":"TT","name":"Scarborough","admin1Code":"TT.11","latitude":11.18229,"longitude":-60.73525,"translations":{"pt":"Scarborough","it":"Scarborough","ru":"Scarborough","uk":"Scarborough","de":"Scarborough","es":"Scarborough","en":"Scarborough","fr":"Scarborough"}},{"country":"TT","name":"Sangre grande","admin1Code":"TT.SGE","latitude":10.58705,"longitude":-61.13008,"translations":{"pt":"Sangre grande","it":"Sangre grande","ru":"Sangre grande","uk":"Sangre grande","de":"Sangre grande","es":"Sangre grande","en":"Sangre grande","fr":"Sangre grande"}},{"country":"TT","name":"San fernando","admin1Code":"TT.10","latitude":10.27969,"longitude":-61.46835,"translations":{"pt":"San fernando","it":"San fernando","ru":"San fernando","uk":"San fernando","de":"San fernando","es":"San fernando","en":"San fernando","fr":"San fernando"}},{"country":"TT","name":"Río claro","admin1Code":"TT.03","latitude":10.30594,"longitude":-61.17556,"translations":{"pt":"Río claro","it":"Río claro","ru":"Río claro","uk":"Río claro","de":"Río claro","es":"Río claro","en":"Río claro","fr":"Río claro"}},{"country":"TT","name":"Port of spain","admin1Code":"TT.05","latitude":10.66668,"longitude":-61.51889,"translations":{"pt":"Port of spain","it":"Port of spain","ru":"Порт-оф-спейн","uk":"Порт-оф-спейн","de":"Port-of-spain","es":"Puerto españa","en":"Port of spain","fr":"Port-d'espagne"}},{"country":"TT","name":"Point  fortin","admin1Code":"TT.PTF","latitude":10.17411,"longitude":-61.68407,"translations":{"pt":"Point  fortin","it":"Point  fortin","ru":"Point  fortin","uk":"Point  fortin","de":"Point  fortin","es":"Point  fortin","en":"Point  fortin","fr":"Point  fortin"}},{"country":"TT","name":"Paradise","admin1Code":"TT.TUP","latitude":10.65298,"longitude":-61.36298,"translations":{"pt":"Paradise","it":"Paradise","ru":"Paradise","uk":"Paradise","de":"Paradise","es":"Paradise","en":"Paradise","fr":"Paradise"}},{"country":"TT","name":"Mon repos","admin1Code":"TT.10","latitude":10.27979,"longitude":-61.4459,"translations":{"pt":"Mon repos","it":"Mon repos","ru":"Mon repos","uk":"Mon repos","de":"Mon repos","es":"Mon repos","en":"Mon repos","fr":"Mon repos"}},{"country":"TT","name":"Marabella","admin1Code":"TT.10","latitude":10.30618,"longitude":-61.44671,"translations":{"pt":"Marabella","it":"Marabella","ru":"Марабелла","uk":"Marabella","de":"Marabella","es":"Marabella","en":"Marabella","fr":"Marabella"}},{"country":"TT","name":"Laventille","admin1Code":"TT.SJL","latitude":10.64917,"longitude":-61.49889,"translations":{"pt":"Laventille","it":"Laventille","ru":"Laventille","uk":"Laventille","de":"Laventille","es":"Laventille","en":"Laventille","fr":"Laventille"}},{"country":"TT","name":"Diego martin","admin1Code":"TT.DMN","latitude":10.72081,"longitude":-61.56616,"translations":{"pt":"Diego martin","it":"Diego martin","ru":"Diego martin","uk":"Diego martin","de":"Diego martin","es":"Diego martin","en":"Diego martin","fr":"Diego martin"}},{"country":"TT","name":"Chaguanas","admin1Code":"TT.CHA","latitude":10.51667,"longitude":-61.41667,"translations":{"pt":"Chaguanas","it":"Chaguanas","ru":"Chaguanas","uk":"Chaguanas","de":"Chaguanas","es":"Chaguanas","en":"Chaguanas","fr":"Chaguanas"}},{"country":"TT","name":"Arima","admin1Code":"TT.01","latitude":10.63737,"longitude":-61.28228,"translations":{"pt":"Arima","it":"Arima","ru":"Arima","uk":"Arima","de":"Arima","es":"Arima","en":"Arima","fr":"Arima"}}]