[{"country":"BA","name":"Zenica","admin1Code":"BA.01","latitude":44.20169,"longitude":17.90397,"translations":{"pt":"Zenica","it":"Zenica","ru":"Зеница","uk":"Зениця","de":"Zenica","es":"Zenica","en":"Zenica","fr":"Zenica"}},{"country":"BA","name":"Visoko","admin1Code":"BA.01","latitude":43.98889,"longitude":18.17806,"translations":{"pt":"Visoko","it":"Visoko","ru":"Високо","uk":"Visoko","de":"Visoko","es":"Visoko","en":"Visoko","fr":"Visoko"}},{"country":"BA","name":"Velika kladuša","admin1Code":"BA.01","latitude":45.18497,"longitude":15.80579,"translations":{"pt":"Velika kladuša","it":"Velika kladuša","ru":"Велика-кладуша","uk":"Velika kladuša","de":"Velika kladuša","es":"Velika kladuša","en":"Velika kladuša","fr":"Velika kladuša"}},{"country":"BA","name":"Tuzla","admin1Code":"BA.01","latitude":44.53842,"longitude":18.66709,"translations":{"pt":"Tuzla","it":"Tuzla","ru":"Тузла","uk":"Тузла","de":"Tuzla","es":"Tuzla","en":"Tuzla","fr":"Tuzla"}},{"country":"BA","name":"Trebinje","admin1Code":"BA.02","latitude":42.71197,"longitude":18.34362,"translations":{"pt":"Trebinje","it":"Trebinje","ru":"Требинье","uk":"Trebinje","de":"Trebinje","es":"Trebinje","en":"Trebinje","fr":"Trebinje"}},{"country":"BA","name":"Travnik","admin1Code":"BA.01","latitude":44.22637,"longitude":17.66583,"translations":{"pt":"Travnik","it":"Travnik","ru":"Травник","uk":"Травник","de":"Travnik","es":"Travnik","en":"Travnik","fr":"Travnik"}},{"country":"BA","name":"Sarajevo","admin1Code":"BA.01","latitude":43.84864,"longitude":18.35644,"translations":{"pt":"Sarajevo","it":"Sarajevo","ru":"Сараево","uk":"Сараєво","de":"Sarajevo","es":"Sarajevo","en":"Sarajevo","fr":"Sarajevo"}},{"country":"BA","name":"Prijedor","admin1Code":"BA.02","latitude":44.97991,"longitude":16.71401,"translations":{"pt":"Prijedor","it":"Prijedor","ru":"Приедора","uk":"Прієдор","de":"Prijedor","es":"Prijedor","en":"Prijedor","fr":"Prijedor"}},{"country":"BA","name":"Mostar","admin1Code":"BA.01","latitude":43.34333,"longitude":17.80806,"translations":{"pt":"Mostar","it":"Mostar","ru":"Мостар","uk":"Мостар","de":"Mostar","es":"Mostar","en":"Mostar","fr":"Mostar"}},{"country":"BA","name":"Lukavac","admin1Code":"BA.01","latitude":44.54245,"longitude":18.52618,"translations":{"pt":"Lukavac","it":"Lukavac","ru":"Lukavac","uk":"Lukavac","de":"Lukavac","es":"Lukavac","en":"Lukavac","fr":"Lukavac"}},{"country":"BA","name":"Илиджа","admin1Code":"BA.01","latitude":43.83148,"longitude":18.30697,"translations":{"pt":"Ylydzha","it":"Ylydzha","ru":"Илиджа","uk":"Илиджа","de":"Ylydzha","es":"Ylydzha","en":"Илиджа","fr":"Ylydzha"}},{"country":"BA","name":"Градачац","admin1Code":"BA.01","latitude":44.87851,"longitude":18.42764,"translations":{"pt":"Hradachats","it":"Hradachats","ru":"Градачац","uk":"Градачац","de":"Hradachats","es":"Hradachats","en":"Градачац","fr":"Hradachats"}},{"country":"BA","name":"Грачаница","admin1Code":"BA.01","latitude":44.70307,"longitude":18.3101,"translations":{"pt":"Hrachanytsa","it":"Hrachanytsa","ru":"Грачаница","uk":"Грачаница","de":"Hrachanytsa","es":"Hrachanytsa","en":"Грачаница","fr":"Hrachanytsa"}},{"country":"BA","name":"Goražde","admin1Code":"BA.01","latitude":43.66795,"longitude":18.97564,"translations":{"pt":"Goražde","it":"Goražde","ru":"Горажде","uk":"Горажде","de":"Goražde","es":"Goražde","en":"Goražde","fr":"Goražde"}},{"country":"BA","name":"Добой","admin1Code":"BA.02","latitude":44.73179,"longitude":18.08698,"translations":{"pt":"Doboj","it":"Doboj","ru":"Добой","uk":"Добой","de":"Doboj","es":"Doboj","en":"Добой","fr":"Doboj"}},{"country":"BA","name":"Cazin","admin1Code":"BA.01","latitude":44.96694,"longitude":15.94306,"translations":{"pt":"Cazin","it":"Cazin","ru":"Cazin","uk":"Cazin","de":"Cazin","es":"Cazin","en":"Cazin","fr":"Cazin"}},{"country":"BA","name":"Bugojno","admin1Code":"BA.01","latitude":44.05722,"longitude":17.45083,"translations":{"pt":"Bugojno","it":"Bugojno","ru":"Бугойно","uk":"Bugojno","de":"Bugojno","es":"Bugojno","en":"Bugojno","fr":"Bugojno"}},{"country":"BA","name":"Brčko","admin1Code":"BA.BRC","latitude":44.86995,"longitude":18.81012,"translations":{"pt":"Brčko","it":"Brčko","ru":"Брчко","uk":"Брчко","de":"Brčko","es":"Brčko","en":"Brčko","fr":"Brčko"}},{"country":"BA","name":"Босанска крупа","admin1Code":"BA.01","latitude":44.8825,"longitude":16.15139,"translations":{"pt":"Bosanska krupa","it":"Bosanska krupa","ru":"Босанска крупа","uk":"Босанска крупа","de":"Bosanska krupa","es":"Bosanska krupa","en":"Босанска крупа","fr":"Bosanska krupa"}},{"country":"BA","name":"Bijeljina","admin1Code":"BA.02","latitude":44.75874,"longitude":19.21437,"translations":{"pt":"Bijeljina","it":"Bijeljina","ru":"Биелине","uk":"Бієліна","de":"Bijeljina","es":"Bijeljina","en":"Bijeljina","fr":"Bijeljina"}},{"country":"BA","name":"Bihać","admin1Code":"BA.01","latitude":44.81694,"longitude":15.87083,"translations":{"pt":"Bihać","it":"Bihać","ru":"Бихач","uk":"Біхач","de":"Bihać","es":"Bihać","en":"Bihać","fr":"Bihać"}},{"country":"BA","name":"Banja luka","admin1Code":"BA.02","latitude":44.77842,"longitude":17.19386,"translations":{"pt":"Banja luka","it":"Banja luka","ru":"Баня-лука","uk":"Баня-лука","de":"Banja luka","es":"Bania luka","en":"Banja luka","fr":"Banja luka"}},{"country":"BA","name":"Konjic","admin1Code":"BA.01","latitude":43.65126,"longitude":17.96082,"translations":{"pt":"Konjic","it":"Konjic","ru":"Konjic","uk":"Konjic","de":"Konjic","es":"Konjic","en":"Konjic","fr":"Konjic"}}]