[{"country":"JO","name":"Wadi al seer","admin1Code":"JO.16","latitude":31.9545,"longitude":35.81831,"translations":{"pt":"Wadi al seer","it":"Wadi al seer","ru":"Wadi al seer","uk":"Wadi al seer","de":"Wadi al seer","es":"Wadi al seer","en":"Wadi al seer","fr":"Wadi al seer"}},{"country":"JO","name":"Umm as summāq","admin1Code":"JO.16","latitude":31.88542,"longitude":35.8543,"translations":{"pt":"Umm as summāq","it":"Umm as summāq","ru":"Umm as summāq","uk":"Umm as summāq","de":"Umm as summāq","es":"Umm as summāq","en":"Umm as summāq","fr":"Umm as summāq"}},{"country":"JO","name":"Сахаб","admin1Code":"JO.16","latitude":31.87032,"longitude":36.00479,"translations":{"pt":"Sakhab","it":"Sakhab","ru":"Сахаб","uk":"Сахаб","de":"Sakhab","es":"Sakhab","en":"Сахаб","fr":"Sakhab"}},{"country":"JO","name":"Madaba","admin1Code":"JO.23","latitude":31.71599,"longitude":35.79392,"translations":{"pt":"Madaba","it":"Madaba","ru":"Мадаба","uk":"Madaba","de":"Madaba","es":"Madaba","en":"Madaba","fr":"Madaba"}},{"country":"JO","name":"Ma'an","admin1Code":"JO.19","latitude":30.19624,"longitude":35.73405,"translations":{"pt":"Ma'an","it":"Ma'an","ru":"Ma'an","uk":"Ma'an","de":"Ma'an","es":"Ma'an","en":"Ma'an","fr":"Ma'an"}},{"country":"JO","name":"Kurayyimah","admin1Code":"JO.18","latitude":32.27639,"longitude":35.59938,"translations":{"pt":"Kurayyimah","it":"Kurayyimah","ru":"Kurayyimah","uk":"Kurayyimah","de":"Kurayyimah","es":"Kurayyimah","en":"Kurayyimah","fr":"Kurayyimah"}},{"country":"JO","name":"Khuraybat as sūq","admin1Code":"JO.16","latitude":31.87913,"longitude":35.92098,"translations":{"pt":"Khuraybat as sūq","it":"Khuraybat as sūq","ru":"Khuraybat as sūq","uk":"Khuraybat as sūq","de":"Khuraybat as sūq","es":"Khuraybat as sūq","en":"Khuraybat as sūq","fr":"Khuraybat as sūq"}},{"country":"JO","name":"Judita","admin1Code":"JO.18","latitude":32.40792,"longitude":35.70802,"translations":{"pt":"Judita","it":"Judita","ru":"Judita","uk":"Judita","de":"Judita","es":"Judita","en":"Judita","fr":"Judita"}},{"country":"JO","name":"Jerash","admin1Code":"JO.22","latitude":32.28082,"longitude":35.89929,"translations":{"pt":"Jerash","it":"Jerash","ru":"Джераш","uk":"Jerash","de":"Gerasa","es":"Jerash","en":"Jerash","fr":"Jerash"}},{"country":"JO","name":"‘izrā","admin1Code":"JO.09","latitude":31.15889,"longitude":35.69278,"translations":{"pt":"‘izrā","it":"‘izrā","ru":"‘izrā","uk":"‘izrā","de":"‘izrā","es":"‘izrā","en":"‘izrā","fr":"‘izrā"}},{"country":"JO","name":"Irbid","admin1Code":"JO.18","latitude":32.55556,"longitude":35.85,"translations":{"pt":"Irbid","it":"Irbid","ru":"Ирбид","uk":"Ірбід","de":"Irbid","es":"Irbid","en":"Irbid","fr":"Irbid"}},{"country":"JO","name":"Zarqa","admin1Code":"JO.17","latitude":32.07275,"longitude":36.08796,"translations":{"pt":"Zarqa","it":"Zarqa","ru":"Эз-зарка","uk":"Zarqa","de":"Zarqa","es":"Zarqa","en":"Zarqa","fr":"Zarka"}},{"country":"JO","name":"Aydūn","admin1Code":"JO.18","latitude":32.50528,"longitude":35.85809,"translations":{"pt":"Aydūn","it":"Aydūn","ru":"Aydūn","uk":"Aydūn","de":"Aydūn","es":"Aydūn","en":"Aydūn","fr":"Aydūn"}},{"country":"JO","name":"Тафила","admin1Code":"JO.12","latitude":30.83752,"longitude":35.60442,"translations":{"pt":"Tafyla","it":"Tafyla","ru":"Тафила","uk":"Тафила","de":"Tafyla","es":"Tafyla","en":"Тафила","fr":"Tafyla"}},{"country":"JO","name":"Salt","admin1Code":"JO.02","latitude":32.03917,"longitude":35.72722,"translations":{"pt":"Salt","it":"Salt","ru":"Ас-сальт","uk":"Salt","de":"Salt","es":"Salt","en":"Salt","fr":"Salt"}},{"country":"JO","name":"As safi","admin1Code":"JO.09","latitude":31.03608,"longitude":35.46544,"translations":{"pt":"As safi","it":"As safi","ru":"Сафи","uk":"As safi","de":"As safi","es":"As safi","en":"As safi","fr":"As safi"}},{"country":"JO","name":"Ar ramtha","admin1Code":"JO.18","latitude":32.55873,"longitude":36.00816,"translations":{"pt":"Ar ramtha","it":"Ar ramtha","ru":"Ar ramtha","uk":"Ar ramtha","de":"Ar ramtha","es":"Ar ramtha","en":"Ar ramtha","fr":"Ar ramtha"}},{"country":"JO","name":"‘anjarah","admin1Code":"JO.20","latitude":32.30667,"longitude":35.75443,"translations":{"pt":"‘anjarah","it":"‘anjarah","ru":"‘anjarah","uk":"‘anjarah","de":"‘anjarah","es":"‘anjarah","en":"‘anjarah","fr":"‘anjarah"}},{"country":"JO","name":"Amman","admin1Code":"JO.16","latitude":31.95522,"longitude":35.94503,"translations":{"pt":"Amã","it":"Amman","ru":"Амман","uk":"Амман","de":"Amman","es":"Ammán","en":"Amman","fr":"Amman"}},{"country":"JO","name":"Ḩayy al quwaysimah","admin1Code":"JO.16","latitude":31.91037,"longitude":35.94975,"translations":{"pt":"Ḩayy al quwaysimah","it":"Ḩayy al quwaysimah","ru":"Ḩayy al quwaysimah","uk":"Ḩayy al quwaysimah","de":"Ḩayy al quwaysimah","es":"Ḩayy al quwaysimah","en":"Ḩayy al quwaysimah","fr":"Ḩayy al quwaysimah"}},{"country":"JO","name":"Al mafraq","admin1Code":"JO.15","latitude":32.34289,"longitude":36.20804,"translations":{"pt":"Al mafraq","it":"Al mafraq","ru":"Эль-мафрак","uk":"Al mafraq","de":"Al mafraq","es":"Al mafraq","en":"Al mafraq","fr":"Al mafraq"}},{"country":"JO","name":"Эль-карак","admin1Code":"JO.19","latitude":31.18248,"longitude":35.69999,"translations":{"pt":"Эl'-karak","it":"Эl'-karak","ru":"Эль-карак","uk":"Эль-карак","de":"Эl'-karak","es":"Эl'-karak","en":"Эль-карак","fr":"Эl'-karak"}},{"country":"JO","name":"Al jubayhah","admin1Code":"JO.16","latitude":32.01071,"longitude":35.89802,"translations":{"pt":"Al jubayhah","it":"Al jubayhah","ru":"Al jubayhah","uk":"Al jubayhah","de":"Al jubayhah","es":"Al jubayhah","en":"Al jubayhah","fr":"Al jubayhah"}},{"country":"JO","name":"Aqaba","admin1Code":"JO.21","latitude":29.52667,"longitude":35.00778,"translations":{"pt":"Aqaba","it":"Aqaba","ru":"Акаба","uk":"Акаба","de":"Aqaba","es":"Aqaba","en":"Aqaba","fr":"Aqaba"}},{"country":"JO","name":"Ajloun","admin1Code":"JO.20","latitude":32.33326,"longitude":35.75279,"translations":{"pt":"Ajloun","it":"Ajloun","ru":"Аджлун","uk":"Ajloun","de":"Ajloun","es":"Ajloun","en":"Ajloun","fr":"Ajloun"}},{"country":"JO","name":"Karak","admin1Code":"JO.09","latitude":31.16368,"longitude":35.76204,"translations":{"pt":"Karak","it":"Karak","ru":"Карак","uk":"Karak","de":"Karak","es":"Karak","en":"Karak","fr":"Karak"}},{"country":"JO","name":"Russeifa","admin1Code":"JO.17","latitude":32.01778,"longitude":36.04639,"translations":{"pt":"Russeifa","it":"Russeifa","ru":"Ар-русайфа","uk":"Ер-руссайфа","de":"Russeifa","es":"Russeifa","en":"Russeifa","fr":"Russeifa"}},{"country":"JO","name":"Rukban","admin1Code":"JO.15","latitude":33.31405,"longitude":38.70342,"translations":{"pt":"Rukban","it":"Rukban","ru":"Rukban","uk":"Rukban","de":"Rukban","es":"Rukban","en":"Rukban","fr":"Rukban"}}]