[{"country":"MQ","name":"Saint-joseph","admin1Code":"MQ.MQ","latitude":14.67099,"longitude":-61.03905,"translations":{"pt":"Saint-joseph","it":"Saint-joseph","ru":"Saint-joseph","uk":"Saint-joseph","de":"Saint-joseph","es":"Saint-joseph","en":"Saint-joseph","fr":"Saint-joseph"}},{"country":"MQ","name":"Сент-мари","admin1Code":"MQ.MQ","latitude":14.78352,"longitude":-60.99227,"translations":{"pt":"Sent-mary","it":"Sent-mary","ru":"Сент-мари","uk":"Сент-мари","de":"Sent-mary","es":"Sent-mary","en":"Сент-мари","fr":"Sent-mary"}},{"country":"MQ","name":"Ле-робер","admin1Code":"MQ.MQ","latitude":14.67751,"longitude":-60.94228,"translations":{"pt":"Le-rober","it":"Le-rober","ru":"Ле-робер","uk":"Ле-робер","de":"Le-rober","es":"Le-rober","en":"Ле-робер","fr":"Le-rober"}},{"country":"MQ","name":"Ле-ламантен","admin1Code":"MQ.MQ","latitude":14.61341,"longitude":-60.99964,"translations":{"pt":"Le-lamanten","it":"Le-lamanten","ru":"Ле-ламантен","uk":"Ле-ламантен","de":"Le-lamanten","es":"Le-lamanten","en":"Ле-ламантен","fr":"Le-lamanten"}},{"country":"MQ","name":"Ле-франсуа","admin1Code":"MQ.MQ","latitude":14.61513,"longitude":-60.90311,"translations":{"pt":"Le-fransua","it":"Le-fransua","ru":"Ле-франсуа","uk":"Ле-франсуа","de":"Le-fransua","es":"Le-fransua","en":"Ле-франсуа","fr":"Le-fransua"}},{"country":"MQ","name":"La trinité","admin1Code":"MQ.MQ","latitude":14.73807,"longitude":-60.96319,"translations":{"pt":"La trinité","it":"La trinité","ru":"La trinité","uk":"La trinité","de":"La trinité","es":"La trinité","en":"La trinité","fr":"La trinité"}},{"country":"MQ","name":"Fort-de-france","admin1Code":"MQ.MQ","latitude":14.60365,"longitude":-61.07418,"translations":{"pt":"Fort-de-france","it":"Fort-de-france","ru":"Форт-де-франс","uk":"Фор-де-франс","de":"Fort-de-france","es":"Fort-de-france","en":"Fort-de-france","fr":"Fort-de-france"}},{"country":"MQ","name":"Ducos","admin1Code":"MQ.MQ","latitude":14.57529,"longitude":-60.97453,"translations":{"pt":"Ducos","it":"Ducos","ru":"Ducos","uk":"Ducos","de":"Ducos","es":"Ducos","en":"Ducos","fr":"Ducos"}}]