[{"country":"CY","name":"Protaras","admin1Code":"CY.01","latitude":35.0125,"longitude":34.05833,"translations":{"pt":"Protaras","it":"Protaras","ru":"Протарас","uk":"Протарас","de":"Protaras","es":"Protaras","en":"Protaras","fr":"Protaras"}},{"country":"CY","name":"Germasogeia","admin1Code":"CY.05","latitude":34.72073,"longitude":33.08447,"translations":{"pt":"Germasogeia","it":"Germasogeia","ru":"Germasogeia","uk":"Germasogeia","de":"Germasogeia","es":"Germasogeia","en":"Germasogeia","fr":"Germasogeia"}},{"country":"CY","name":"Строволос","admin1Code":"CY.04","latitude":35.14867,"longitude":33.33384,"translations":{"pt":"Strovolos","it":"Strovolos","ru":"Строволос","uk":"Строволос","de":"Strovolos","es":"Strovolos","en":"Строволос","fr":"Strovolos"}},{"country":"CY","name":"Paphos","admin1Code":"CY.06","latitude":34.77679,"longitude":32.42451,"translations":{"pt":"Paphos","it":"Pafo","ru":"Пафос","uk":"Paphos","de":"Paphos","es":"Pafos","en":"Paphos","fr":"Paphos"}},{"country":"CY","name":"Nicosia","admin1Code":"CY.04","latitude":35.17531,"longitude":33.3642,"translations":{"pt":"Nicósia","it":"Nicosia","ru":"Никосия","uk":"Нікосія","de":"Nikosia","es":"Nicosia","en":"Nicosia","fr":"Nicosie"}},{"country":"CY","name":"Mórfou","admin1Code":"CY.04","latitude":35.19869,"longitude":32.99338,"translations":{"pt":"Mórfou","it":"Mórfou","ru":"Mórfou","uk":"Mórfou","de":"Mórfou","es":"Mórfou","en":"Mórfou","fr":"Mórfou"}},{"country":"CY","name":"Limassol","admin1Code":"CY.05","latitude":34.68406,"longitude":33.03794,"translations":{"pt":"Limassol","it":"Limisso","ru":"Лимасол","uk":"Лімасол","de":"Limassol","es":"Limassol","en":"Limassol","fr":"Limassol"}},{"country":"CY","name":"Larnaca","admin1Code":"CY.03","latitude":34.9221,"longitude":33.62794,"translations":{"pt":"Lárnaca","it":"Larnaka","ru":"Ларнака","uk":"Ларнака","de":"Larnaka","es":"Lárnaca","en":"Larnaca","fr":"Larnaca"}},{"country":"CY","name":"Kyrenia","admin1Code":"CY.02","latitude":35.33634,"longitude":33.31729,"translations":{"pt":"Cirénia","it":"Kyrenia","ru":"Кирения","uk":"Кіренія","de":"Kyrenia","es":"Kyrenia","en":"Kyrenia","fr":"Kyrenia"}},{"country":"CY","name":"Kato polemidia","admin1Code":"CY.05","latitude":34.69721,"longitude":32.99324,"translations":{"pt":"Kato polemidia","it":"Kato polemidia","ru":"Kato polemidia","uk":"Kato polemidia","de":"Kato polemidia","es":"Kato polemidia","en":"Kato polemidia","fr":"Kato polemidia"}},{"country":"CY","name":"Káto lakatámeia","admin1Code":"CY.04","latitude":35.11755,"longitude":33.32539,"translations":{"pt":"Káto lakatámeia","it":"Káto lakatámeia","ru":"Káto lakatámeia","uk":"Káto lakatámeia","de":"Káto lakatámeia","es":"Káto lakatámeia","en":"Káto lakatámeia","fr":"Káto lakatámeia"}},{"country":"CY","name":"Famagusta","admin1Code":"CY.01","latitude":35.12489,"longitude":33.94135,"translations":{"pt":"Famagusta","it":"Famagosta","ru":"Фамагуста","uk":"Фамагуста","de":"Famagusta","es":"Famagusta","en":"Famagusta","fr":"Famagouste"}},{"country":"CY","name":"Aglantzia","admin1Code":"CY.04","latitude":35.15422,"longitude":33.39643,"translations":{"pt":"Aglantzia","it":"Aglantzia","ru":"Aglantzia","uk":"Aglantzia","de":"Aglantzia","es":"Aglantzia","en":"Aglantzia","fr":"Aglantzia"}},{"country":"CY","name":"Égkomi","admin1Code":"CY.01","latitude":35.16272,"longitude":33.88322,"translations":{"pt":"Égkomi","it":"Égkomi","ru":"Égkomi","uk":"Égkomi","de":"Égkomi","es":"Égkomi","en":"Égkomi","fr":"Égkomi"}},{"country":"CY","name":"Aradhippou","admin1Code":"CY.03","latitude":34.94779,"longitude":33.58813,"translations":{"pt":"Aradhippou","it":"Aradhippou","ru":"Aradhippou","uk":"Aradhippou","de":"Aradhippou","es":"Aradhippou","en":"Aradhippou","fr":"Aradhippou"}}]