[{"country":"KG","name":"Сулюкта","admin1Code":"KG.09","latitude":39.93652,"longitude":69.56779,"translations":{"pt":"Suljukta","it":"Suljukta","ru":"Сулюкта","uk":"Сулюкта","de":"Suljukta","es":"Suljukta","en":"Сулюкта","fr":"Suljukta"}},{"country":"KG","name":"Исфана","admin1Code":"KG.09","latitude":39.83895,"longitude":69.5276,"translations":{"pt":"Ysfana","it":"Ysfana","ru":"Исфана","uk":"Ісфана","de":"Ysfana","es":"Ysfana","en":"Исфана","fr":"Ysfana"}},{"country":"KG","name":"Balykchy","admin1Code":"KG.07","latitude":42.46017,"longitude":76.18709,"translations":{"pt":"Balykchy","it":"Balykčy","ru":"Балыкчи","uk":"Баликчі","de":"Balyktschy","es":"Balikci","en":"Balykchy","fr":"Balyktchy"}},{"country":"KG","name":"Tokmok","admin1Code":"KG.02","latitude":42.84194,"longitude":75.30149,"translations":{"pt":"Tokmok","it":"Tokmok","ru":"Токмак","uk":"Tokmok","de":"Tokmok","es":"Tokmak","en":"Tokmok","fr":"Tokmok"}},{"country":"KG","name":"Таш-кумыр","admin1Code":"KG.03","latitude":41.34612,"longitude":72.21707,"translations":{"pt":"Tash-kumыr","it":"Tash-kumыr","ru":"Таш-кумыр","uk":"Таш-кумыр","de":"Tash-kumыr","es":"Tash-kumыr","en":"Таш-кумыр","fr":"Tash-kumыr"}},{"country":"KG","name":"Талас","admin1Code":"KG.06","latitude":42.52277,"longitude":72.24274,"translations":{"pt":"Talas","it":"Talas","ru":"Талас","uk":"Талас","de":"Talas","es":"Talas","en":"Талас","fr":"Talas"}},{"country":"KG","name":"Сузак","admin1Code":"KG.03","latitude":40.8982,"longitude":72.90481,"translations":{"pt":"Suzak","it":"Suzak","ru":"Сузак","uk":"Сузак","de":"Suzak","es":"Suzak","en":"Сузак","fr":"Suzak"}},{"country":"KG","name":"Покровка","admin1Code":"KG.07","latitude":42.34211,"longitude":78.00644,"translations":{"pt":"Pokrovka","it":"Pokrovka","ru":"Покровка","uk":"Покровка","de":"Pokrovka","es":"Pokrovka","en":"Покровка","fr":"Pokrovka"}},{"country":"KG","name":"Узген","admin1Code":"KG.08","latitude":40.76994,"longitude":73.30068,"translations":{"pt":"Uzhen","it":"Uzhen","ru":"Узген","uk":"Узген","de":"Ösgön","es":"Uzhen","en":"Узген","fr":"Uzhen"}},{"country":"KG","name":"Osh","admin1Code":"KG.08","latitude":40.52828,"longitude":72.7985,"translations":{"pt":"Osh","it":"Oš","ru":"Ош","uk":"Ош","de":"Osch","es":"Osh","en":"Osh","fr":"Och"}},{"country":"KG","name":"Naryn","admin1Code":"KG.04","latitude":41.42866,"longitude":75.99111,"translations":{"pt":"Naryn","it":"Naryn","ru":"Нарын","uk":"Naryn","de":"Naryn","es":"Naryn","en":"Naryn","fr":"Naryn"}},{"country":"KG","name":"Ленин-джол","admin1Code":"KG.03","latitude":41.0601,"longitude":72.63285,"translations":{"pt":"Lenyn-dzhol","it":"Lenyn-dzhol","ru":"Ленин-джол","uk":"Ленин-джол","de":"Lenyn-dzhol","es":"Lenyn-dzhol","en":"Ленин-джол","fr":"Lenyn-dzhol"}},{"country":"KG","name":"Лебединовка","admin1Code":"KG.02","latitude":42.88454,"longitude":74.67819,"translations":{"pt":"Lebedynovka","it":"Lebedynovka","ru":"Лебединовка","uk":"Лебединовка","de":"Lebedynovka","es":"Lebedynovka","en":"Лебединовка","fr":"Lebedynovka"}},{"country":"KG","name":"Kzyl-kiya","admin1Code":"KG.09","latitude":40.25684,"longitude":72.12793,"translations":{"pt":"Kzyl-kiya","it":"Kzyl-kiya","ru":"Кызыл-кия","uk":"Kzyl-kiya","de":"Kzyl-kiya","es":"Kzyl-kiya","en":"Kzyl-kiya","fr":"Kzyl-kiya"}},{"country":"KG","name":"Kochkor-ata","admin1Code":"KG.03","latitude":41.03709,"longitude":72.4832,"translations":{"pt":"Kochkor-ata","it":"Kočkor-ata","ru":"Кочкор-ата","uk":"Kochkor-ata","de":"Kotschkor-ata","es":"Kochkor-ata","en":"Kochkor-ata","fr":"Kotchkor-ata"}},{"country":"KG","name":"Кара-суу","admin1Code":"KG.08","latitude":40.7046,"longitude":72.86666,"translations":{"pt":"Kara-suu","it":"Kara-suu","ru":"Кара-суу","uk":"Кара-суу","de":"Kara-suu","es":"Kara-suu","en":"Кара-суу","fr":"Kara-suu"}},{"country":"KG","name":"Karakol","admin1Code":"KG.07","latitude":42.49068,"longitude":78.39362,"translations":{"pt":"Karakol","it":"Karakol","ru":"Каракол","uk":"Каракол","de":"Karakol","es":"Karakol","en":"Karakol","fr":"Karakol"}},{"country":"KG","name":"Кара-балта","admin1Code":"KG.02","latitude":42.81423,"longitude":73.84813,"translations":{"pt":"Kara-balta","it":"Kara-balta","ru":"Кара-балта","uk":"Кара-балта","de":"Kara-balta","es":"Kara-balta","en":"Кара-балта","fr":"Kara-balta"}},{"country":"KG","name":"Кант","admin1Code":"KG.02","latitude":42.89106,"longitude":74.85077,"translations":{"pt":"Kant","it":"Kant","ru":"Кант","uk":"Кант","de":"Kant","es":"Kant","en":"Кант","fr":"Kant"}},{"country":"KG","name":"Jalal-abad","admin1Code":"KG.03","latitude":40.93333,"longitude":73.0,"translations":{"pt":"Jalal-abad","it":"Žalalabad","ru":"Джалал-абад","uk":"Джалал-абад","de":"Dschalalabat","es":"Jalal-abad","en":"Jalal-abad","fr":"Djalalabad"}},{"country":"KG","name":"Ивановка","admin1Code":"KG.02","latitude":42.88778,"longitude":75.085,"translations":{"pt":"Yvanovka","it":"Yvanovka","ru":"Ивановка","uk":"Ивановка","de":"Yvanovka","es":"Yvanovka","en":"Ивановка","fr":"Yvanovka"}},{"country":"KG","name":"Iradan","admin1Code":"KG.09","latitude":40.26667,"longitude":72.1,"translations":{"pt":"Iradan","it":"Iradan","ru":"Iradan","uk":"Iradan","de":"Iradan","es":"Iradan","en":"Iradan","fr":"Iradan"}},{"country":"KG","name":"Nookat","admin1Code":"KG.08","latitude":40.26597,"longitude":72.61834,"translations":{"pt":"Nookat","it":"Nookat","ru":"Nookat","uk":"Nookat","de":"Nookat","es":"Nookat","en":"Nookat","fr":"Nookat"}},{"country":"KG","name":"Bishkek","admin1Code":"KG.01","latitude":42.87,"longitude":74.59,"translations":{"pt":"Bisqueque","it":"Biškek","ru":"Бишкек","uk":"Бішкек","de":"Bischkek","es":"Biskek","en":"Bishkek","fr":"Bichkek"}},{"country":"KG","name":"Беловодское","admin1Code":"KG.02","latitude":42.82944,"longitude":74.1083,"translations":{"pt":"Belovodskoe","it":"Belovodskoe","ru":"Беловодское","uk":"Беловодское","de":"Belovodskoe","es":"Belovodskoe","en":"Беловодское","fr":"Belovodskoe"}},{"country":"KG","name":"Bazar-korgon","admin1Code":"KG.03","latitude":41.0376,"longitude":72.74586,"translations":{"pt":"Bazar-korgon","it":"Bazar-korgon","ru":"Базар-коргон","uk":"Bazar-korgon","de":"Bazar-korgon","es":"Bazar-korgon","en":"Bazar-korgon","fr":"Bazar-korgon"}},{"country":"KG","name":"Batken","admin1Code":"KG.09","latitude":40.06259,"longitude":70.81939,"translations":{"pt":"Batken","it":"Batken","ru":"Баткен","uk":"Баткен","de":"Batken","es":"Batken","en":"Batken","fr":"Batken"}},{"country":"KG","name":"Ala-buka","admin1Code":"KG.03","latitude":41.4105,"longitude":71.48628,"translations":{"pt":"Ala-buka","it":"Ala-buka","ru":"Ала-бука","uk":"Ala-buka","de":"Ala-buka","es":"Ala-buka","en":"Ala-buka","fr":"Ala-buka"}},{"country":"KG","name":"Токтогул","admin1Code":"KG.03","latitude":41.87442,"longitude":72.94192,"translations":{"pt":"Toktohul","it":"Toktohul","ru":"Токтогул","uk":"Токтогул","de":"Toktohul","es":"Toktohul","en":"Токтогул","fr":"Toktohul"}},{"country":"KG","name":"Kara-kul’dzha","admin1Code":"KG.08","latitude":40.63223,"longitude":73.59249,"translations":{"pt":"Kara-kul’dzha","it":"Kara-kul’dzha","ru":"Kara-kul’dzha","uk":"Kara-kul’dzha","de":"Kara-kul’dzha","es":"Kara-kul’dzha","en":"Kara-kul’dzha","fr":"Kara-kul’dzha"}}]