[{"country":"TR","name":"Yüksekova","admin1Code":"TR.70","latitude":37.57362,"longitude":44.28716,"translations":{"pt":"Yüksekova","it":"Yüksekova","ru":"Юксекова","uk":"Yüksekova","de":"Yüksekova","es":"Yüksekova","en":"Yüksekova","fr":"Yüksekova"}},{"country":"TR","name":"Yozgat","admin1Code":"TR.66","latitude":39.82,"longitude":34.80444,"translations":{"pt":"Yozgat","it":"Yozgat","ru":"Йозгат","uk":"Йозгат","de":"Yozgat","es":"Yozgat","en":"Yozgat","fr":"Yozgat"}},{"country":"TR","name":"Yeşilova","admin1Code":"TR.81","latitude":38.15566,"longitude":36.25758,"translations":{"pt":"Yeşilova","it":"Yeşilova","ru":"Yeşilova","uk":"Yeşilova","de":"Yeşilova","es":"Yeşilova","en":"Yeşilova","fr":"Yeşilova"}},{"country":"TR","name":"Yeşilli","admin1Code":"TR.72","latitude":37.33813,"longitude":40.81739,"translations":{"pt":"Yeşilli","it":"Yeşilli","ru":"Yeşilli","uk":"Yeşilli","de":"Yeşilli","es":"Yeşilli","en":"Yeşilli","fr":"Yeşilli"}},{"country":"TR","name":"Эрзин","admin1Code":"TR.31","latitude":36.95348,"longitude":36.19839,"translations":{"pt":"Эrzyn","it":"Эrzyn","ru":"Эрзин","uk":"Эрзин","de":"Эrzyn","es":"Эrzyn","en":"Эрзин","fr":"Эrzyn"}},{"country":"TR","name":"Yerköy","admin1Code":"TR.66","latitude":39.63806,"longitude":34.46722,"translations":{"pt":"Yerköy","it":"Yerköy","ru":"Yerköy","uk":"Yerköy","de":"Yerköy","es":"Yerköy","en":"Yerköy","fr":"Yerköy"}},{"country":"TR","name":"Didim","admin1Code":"TR.09","latitude":37.38496,"longitude":27.25643,"translations":{"pt":"Didim","it":"Didim","ru":"Дидимы","uk":"Didim","de":"Didim","es":"Didim","en":"Didim","fr":"Didim"}},{"country":"TR","name":"Yatağan","admin1Code":"TR.48","latitude":37.34025,"longitude":28.14279,"translations":{"pt":"Yatağan","it":"Yatağan","ru":"Yatağan","uk":"Yatağan","de":"Yatağan","es":"Yatağan","en":"Yatağan","fr":"Yatağan"}},{"country":"TR","name":"Ялвач","admin1Code":"TR.33","latitude":38.29556,"longitude":31.17778,"translations":{"pt":"Jalvach","it":"Jalvach","ru":"Ялвач","uk":"Ялвач","de":"Jalvach","es":"Jalvach","en":"Ялвач","fr":"Jalvach"}},{"country":"TR","name":"Yahyalı","admin1Code":"TR.38","latitude":38.10228,"longitude":35.35704,"translations":{"pt":"Yahyalı","it":"Yahyalı","ru":"Яхьялы","uk":"Yahyalı","de":"Yahyalı","es":"Yahyalı","en":"Yahyalı","fr":"Yahyalı"}},{"country":"TR","name":"Viranşehir","admin1Code":"TR.63","latitude":37.22349,"longitude":39.75519,"translations":{"pt":"Viranşehir","it":"Viranşehir","ru":"Вираншехире","uk":"Viranşehir","de":"Viranşehir","es":"Viranşehir","en":"Viranşehir","fr":"Viranşehir"}},{"country":"TR","name":"Varto","admin1Code":"TR.49","latitude":39.17375,"longitude":41.45402,"translations":{"pt":"Varto","it":"Varto","ru":"Varto","uk":"Varto","de":"Varto","es":"Varto","en":"Varto","fr":"Varto"}},{"country":"TR","name":"Van","admin1Code":"TR.65","latitude":38.49457,"longitude":43.38323,"translations":{"pt":"Van","it":"Van","ru":"Ван","uk":"Ван","de":"Van","es":"Van","en":"Van","fr":"Van"}},{"country":"TR","name":"Cimin","admin1Code":"TR.24","latitude":39.70947,"longitude":39.70015,"translations":{"pt":"Cimin","it":"Cimin","ru":"Cimin","uk":"Cimin","de":"Cimin","es":"Cimin","en":"Cimin","fr":"Cimin"}},{"country":"TR","name":"Uşak","admin1Code":"TR.64","latitude":38.67351,"longitude":29.4058,"translations":{"pt":"Uşak","it":"Uşak","ru":"Ушак","uk":"Ушак","de":"Uşak","es":"Uşak","en":"Uşak","fr":"Uşak"}},{"country":"TR","name":"Урла","admin1Code":"TR.35","latitude":38.32292,"longitude":26.76403,"translations":{"pt":"Urla","it":"Urla","ru":"Урла","uk":"Урла","de":"Urla","es":"Urla","en":"Урла","fr":"Urla"}},{"country":"TR","name":"Ürgüp","admin1Code":"TR.50","latitude":38.6296,"longitude":34.91199,"translations":{"pt":"Ürgüp","it":"Ürgüp","ru":"Ürgüp","uk":"Ürgüp","de":"Ürgüp","es":"Ürgüp","en":"Ürgüp","fr":"Ürgüp"}},{"country":"TR","name":"Sanliurfa","admin1Code":"TR.63","latitude":37.16708,"longitude":38.79392,"translations":{"pt":"Sanliurfa","it":"Sanliurfa","ru":"Эдесса","uk":"Sanliurfa","de":"Sanliurfa","es":"Sanliurfa","en":"Sanliurfa","fr":"Édesse"}},{"country":"TR","name":"Turgutlu","admin1Code":"TR.45","latitude":38.49533,"longitude":27.6997,"translations":{"pt":"Turgutlu","it":"Turgutlu","ru":"Turgutlu","uk":"Turgutlu","de":"Turgutlu","es":"Turgutlu","en":"Turgutlu","fr":"Turgutlu"}},{"country":"TR","name":"Тунджели","admin1Code":"TR.62","latitude":39.09921,"longitude":39.54351,"translations":{"pt":"Tundzhely","it":"Tundzhely","ru":"Тунджели","uk":"Тунджелі","de":"Tundzhely","es":"Tundzhely","en":"Тунджели","fr":"Tundzhely"}},{"country":"TR","name":"Торбалы","admin1Code":"TR.35","latitude":38.1519,"longitude":27.36223,"translations":{"pt":"Torbalы","it":"Torbalы","ru":"Торбалы","uk":"Торбалы","de":"Torbalы","es":"Torbalы","en":"Торбалы","fr":"Torbalы"}},{"country":"TR","name":"Tire","admin1Code":"TR.35","latitude":38.08877,"longitude":27.73508,"translations":{"pt":"Tire","it":"Tire","ru":"Tire","uk":"Tire","de":"Tire","es":"Tire","en":"Tire","fr":"Tire"}},{"country":"TR","name":"Tavşanlı","admin1Code":"TR.43","latitude":39.54237,"longitude":29.49866,"translations":{"pt":"Tavşanlı","it":"Tavşanlı","ru":"Tavşanlı","uk":"Tavşanlı","de":"Tavşanlı","es":"Tavşanlı","en":"Tavşanlı","fr":"Tavşanlı"}},{"country":"TR","name":"Tatvan","admin1Code":"TR.13","latitude":38.49221,"longitude":42.28269,"translations":{"pt":"Tatvan","it":"Tatvan","ru":"Татван","uk":"Tatvan","de":"Tatvan","es":"Tatvan","en":"Tatvan","fr":"Tatvan"}},{"country":"TR","name":"Taşucu","admin1Code":"TR.32","latitude":36.3214,"longitude":33.88165,"translations":{"pt":"Taşucu","it":"Taşucu","ru":"Taşucu","uk":"Taşucu","de":"Taşucu","es":"Taşucu","en":"Taşucu","fr":"Taşucu"}},{"country":"TR","name":"Tarsus","admin1Code":"TR.32","latitude":36.91766,"longitude":34.89277,"translations":{"pt":"Tarsus","it":"Tarso","ru":"Тарсус","uk":"Тарс","de":"Tarsus","es":"Tarso","en":"Tarsus","fr":"Tarse"}},{"country":"TR","name":"Талас","admin1Code":"TR.38","latitude":38.6908,"longitude":35.5538,"translations":{"pt":"Talas","it":"Talas","ru":"Талас","uk":"Талас","de":"Talas","es":"Talas","en":"Талас","fr":"Talas"}},{"country":"TR","name":"Susurluk","admin1Code":"TR.10","latitude":39.91361,"longitude":28.15778,"translations":{"pt":"Susurluk","it":"Susurluk","ru":"Susurluk","uk":"Susurluk","de":"Susurluk","es":"Susurluk","en":"Susurluk","fr":"Susurluk"}},{"country":"TR","name":"Суруч","admin1Code":"TR.63","latitude":36.97612,"longitude":38.42533,"translations":{"pt":"Suruch","it":"Suruch","ru":"Суруч","uk":"Суруч","de":"Suruch","es":"Suruch","en":"Суруч","fr":"Suruch"}},{"country":"TR","name":"Соргуне","admin1Code":"TR.66","latitude":39.81012,"longitude":35.18596,"translations":{"pt":"Sorhune","it":"Sorhune","ru":"Соргуне","uk":"Соргуне","de":"Sorhune","es":"Sorhune","en":"Соргуне","fr":"Sorhune"}},{"country":"TR","name":"Soma","admin1Code":"TR.45","latitude":39.18554,"longitude":27.60945,"translations":{"pt":"Soma","it":"Distretto di soma","ru":"Сомы","uk":"Soma","de":"Soma","es":"Soma","en":"Soma","fr":"Soma"}},{"country":"TR","name":"Solhan","admin1Code":"TR.12","latitude":38.96525,"longitude":41.05443,"translations":{"pt":"Solhan","it":"Solhan","ru":"Solhan","uk":"Solhan","de":"Solhan","es":"Solhan","en":"Solhan","fr":"Solhan"}},{"country":"TR","name":"Сок","admin1Code":"TR.09","latitude":37.7482,"longitude":27.40614,"translations":{"pt":"Sok","it":"Sok","ru":"Сок","uk":"Сок","de":"Sok","es":"Sok","en":"Сок","fr":"Sok"}},{"country":"TR","name":"Сивереке","admin1Code":"TR.63","latitude":37.75503,"longitude":39.31667,"translations":{"pt":"Syvereke","it":"Syvereke","ru":"Сивереке","uk":"Сивереке","de":"Syvereke","es":"Syvereke","en":"Сивереке","fr":"Syvereke"}},{"country":"TR","name":"Sivas","admin1Code":"TR.58","latitude":39.74833,"longitude":37.01611,"translations":{"pt":"Sivas","it":"Sivas","ru":"Сивас","uk":"Сівас","de":"Sivas","es":"Sivas","en":"Sivas","fr":"Sivas"}},{"country":"TR","name":"Ширнак","admin1Code":"TR.80","latitude":37.51393,"longitude":42.45432,"translations":{"pt":"Shyrnak","it":"Shyrnak","ru":"Ширнак","uk":"Ширнак","de":"Shyrnak","es":"Shyrnak","en":"Ширнак","fr":"Shyrnak"}},{"country":"TR","name":"Simav","admin1Code":"TR.43","latitude":39.0882,"longitude":28.97767,"translations":{"pt":"Simav","it":"Simav","ru":"Simav","uk":"Simav","de":"Simav","es":"Simav","en":"Simav","fr":"Simav"}},{"country":"TR","name":"Miepherkeim","admin1Code":"TR.21","latitude":38.13708,"longitude":41.00817,"translations":{"pt":"Miepherkeim","it":"Miepherkeim","ru":"Сильван","uk":"Сильван","de":"Miepherkeim","es":"Miepherkeim","en":"Miepherkeim","fr":"Miepherkeim"}},{"country":"TR","name":"Silopi","admin1Code":"TR.80","latitude":37.24379,"longitude":42.46345,"translations":{"pt":"Silopi","it":"Silopi","ru":"Силопи","uk":"Silopi","de":"Silopi","es":"Silopi","en":"Silopi","fr":"Silopi"}},{"country":"TR","name":"Silifke","admin1Code":"TR.32","latitude":36.37778,"longitude":33.93444,"translations":{"pt":"Silifke","it":"Silifke","ru":"Силифке","uk":"Silifke","de":"Silifke","es":"Silifke","en":"Silifke","fr":"Silifke"}},{"country":"TR","name":"Siirt","admin1Code":"TR.74","latitude":37.9293,"longitude":41.94134,"translations":{"pt":"Siirt","it":"Siirt","ru":"Сиирт","uk":"Сіїрт","de":"Siirt","es":"Siirt","en":"Siirt","fr":"Siirt"}},{"country":"TR","name":"Seydişehir","admin1Code":"TR.71","latitude":37.41926,"longitude":31.84527,"translations":{"pt":"Seydişehir","it":"Seydişehir","ru":"Seydişehir","uk":"Seydişehir","de":"Seydişehir","es":"Seydişehir","en":"Seydişehir","fr":"Seydişehir"}},{"country":"TR","name":"Serinyol","admin1Code":"TR.31","latitude":36.36139,"longitude":36.21361,"translations":{"pt":"Serinyol","it":"Serinyol","ru":"Serinyol","uk":"Serinyol","de":"Serinyol","es":"Serinyol","en":"Serinyol","fr":"Serinyol"}},{"country":"TR","name":"Серик","admin1Code":"TR.07","latitude":36.91694,"longitude":31.09889,"translations":{"pt":"Seryk","it":"Seryk","ru":"Серик","uk":"Серик","de":"Seryk","es":"Seryk","en":"Серик","fr":"Seryk"}},{"country":"TR","name":"Şereflikoçhisar","admin1Code":"TR.68","latitude":38.93925,"longitude":33.5386,"translations":{"pt":"Şereflikoçhisar","it":"Şereflikoçhisar","ru":"Şereflikoçhisar","uk":"Şereflikoçhisar","de":"Şereflikoçhisar","es":"Şereflikoçhisar","en":"Şereflikoçhisar","fr":"Şereflikoçhisar"}},{"country":"TR","name":"Senirkent","admin1Code":"TR.33","latitude":38.10444,"longitude":30.54861,"translations":{"pt":"Senirkent","it":"Senirkent","ru":"Senirkent","uk":"Senirkent","de":"Senirkent","es":"Senirkent","en":"Senirkent","fr":"Senirkent"}},{"country":"TR","name":"Şemdinli","admin1Code":"TR.70","latitude":37.30514,"longitude":44.5742,"translations":{"pt":"Şemdinli","it":"Şemdinli","ru":"Şemdinli","uk":"Şemdinli","de":"Şemdinli","es":"Şemdinli","en":"Şemdinli","fr":"Şemdinli"}},{"country":"TR","name":"Сельчук","admin1Code":"TR.35","latitude":37.95137,"longitude":27.36849,"translations":{"pt":"Sel'chuk","it":"Sel'chuk","ru":"Сельчук","uk":"Сельчук","de":"Sel'chuk","es":"Sel'chuk","en":"Сельчук","fr":"Sel'chuk"}},{"country":"TR","name":"Seferihisar","admin1Code":"TR.35","latitude":38.1975,"longitude":26.83881,"translations":{"pt":"Seferihisar","it":"Seferihisar","ru":"Seferihisar","uk":"Seferihisar","de":"Seferihisar","es":"Seferihisar","en":"Seferihisar","fr":"Seferihisar"}},{"country":"TR","name":"Şarkışla","admin1Code":"TR.58","latitude":39.35186,"longitude":36.40976,"translations":{"pt":"Şarkışla","it":"Şarkışla","ru":"Şarkışla","uk":"Şarkışla","de":"Şarkışla","es":"Şarkışla","en":"Şarkışla","fr":"Şarkışla"}},{"country":"TR","name":"Şarkîkaraağaç","admin1Code":"TR.33","latitude":38.07944,"longitude":31.36639,"translations":{"pt":"Şarkîkaraağaç","it":"Şarkîkaraağaç","ru":"Şarkîkaraağaç","uk":"Şarkîkaraağaç","de":"Şarkîkaraağaç","es":"Şarkîkaraağaç","en":"Şarkîkaraağaç","fr":"Şarkîkaraağaç"}},{"country":"TR","name":"Sarayköy","admin1Code":"TR.20","latitude":37.92448,"longitude":28.92516,"translations":{"pt":"Sarayköy","it":"Sarayköy","ru":"Sarayköy","uk":"Sarayköy","de":"Sarayköy","es":"Sarayköy","en":"Sarayköy","fr":"Sarayköy"}},{"country":"TR","name":"Сандикли","admin1Code":"TR.03","latitude":38.46472,"longitude":30.26946,"translations":{"pt":"Sandykly","it":"Sandykly","ru":"Сандикли","uk":"Сандикли","de":"Sandykly","es":"Sandykly","en":"Сандикли","fr":"Sandykly"}},{"country":"TR","name":"Samandağ","admin1Code":"TR.31","latitude":36.08012,"longitude":35.97603,"translations":{"pt":"Samandağ","it":"Samandağ","ru":"Samandağ","uk":"Samandağ","de":"Samandağ","es":"Samandağ","en":"Samandağ","fr":"Samandağ"}},{"country":"TR","name":"Salihli","admin1Code":"TR.45","latitude":38.48258,"longitude":28.14774,"translations":{"pt":"Salihli","it":"Salihli","ru":"Salihli","uk":"Salihli","de":"Salihli","es":"Salihli","en":"Salihli","fr":"Salihli"}},{"country":"TR","name":"Рейханлы","admin1Code":"TR.31","latitude":36.26791,"longitude":36.56747,"translations":{"pt":"Rejkhanlы","it":"Rejkhanlы","ru":"Рейханлы","uk":"Рейханлы","de":"Rejkhanlы","es":"Rejkhanlы","en":"Рейханлы","fr":"Rejkhanlы"}},{"country":"TR","name":"Polatlı","admin1Code":"TR.68","latitude":39.57715,"longitude":32.14132,"translations":{"pt":"Polatlı","it":"Polatlı","ru":"Polatlı","uk":"Polatlı","de":"Polatlı","es":"Polatlı","en":"Polatlı","fr":"Polatlı"}},{"country":"TR","name":"Пазарджик","admin1Code":"TR.46","latitude":37.48685,"longitude":37.29961,"translations":{"pt":"Pazardzhyk","it":"Pazardzhyk","ru":"Пазарджик","uk":"Пазарджик","de":"Pazardzhyk","es":"Pazardzhyk","en":"Пазарджик","fr":"Pazardzhyk"}},{"country":"TR","name":"Patnos","admin1Code":"TR.04","latitude":39.22493,"longitude":42.85693,"translations":{"pt":"Patnos","it":"Patnos","ru":"Patnos","uk":"Patnos","de":"Patnos","es":"Patnos","en":"Patnos","fr":"Patnos"}},{"country":"TR","name":"Pasinler","admin1Code":"TR.25","latitude":39.97975,"longitude":41.66997,"translations":{"pt":"Pasinler","it":"Pasinler","ru":"Pasinler","uk":"Pasinler","de":"Pasinler","es":"Pasinler","en":"Pasinler","fr":"Pasinler"}},{"country":"TR","name":"Osmaniye","admin1Code":"TR.91","latitude":37.07417,"longitude":36.24778,"translations":{"pt":"Osmaniye","it":"Osmaniye","ru":"Османие","uk":"Османіє","de":"Osmaniye","es":"Osmaniye","en":"Osmaniye","fr":"Osmaniye"}},{"country":"TR","name":"Ortaköy","admin1Code":"TR.75","latitude":38.73728,"longitude":34.03866,"translations":{"pt":"Ortaköy","it":"Ortaköy","ru":"Ortaköy","uk":"Ortaköy","de":"Ortaköy","es":"Ortaköy","en":"Ortaköy","fr":"Ortaköy"}},{"country":"TR","name":"Ortaca","admin1Code":"TR.48","latitude":36.83915,"longitude":28.76457,"translations":{"pt":"Ortaca","it":"Ortaca","ru":"Ortaca","uk":"Ortaca","de":"Ortaca","es":"Ortaca","en":"Ortaca","fr":"Ortaca"}},{"country":"TR","name":"Ödemiş","admin1Code":"TR.35","latitude":38.2278,"longitude":27.96955,"translations":{"pt":"Ödemiş","it":"Ödemiş","ru":"Ödemiş","uk":"Ödemiş","de":"Ödemiş","es":"Ödemiş","en":"Ödemiş","fr":"Ödemiş"}},{"country":"TR","name":"Nisibis","admin1Code":"TR.72","latitude":37.07028,"longitude":41.21465,"translations":{"pt":"Nisibis","it":"Nisibis","ru":"Нузайбин","uk":"Nisibis","de":"Nisibis","es":"Nisibis","en":"Nisibis","fr":"Nisibis"}},{"country":"TR","name":"Низипе","admin1Code":"TR.83","latitude":37.00972,"longitude":37.79417,"translations":{"pt":"Nyzype","it":"Nyzype","ru":"Низипе","uk":"Низипе","de":"Nyzype","es":"Nyzype","en":"Низипе","fr":"Nyzype"}},{"country":"TR","name":"Niğde","admin1Code":"TR.73","latitude":37.96583,"longitude":34.67935,"translations":{"pt":"Niğde","it":"Niğde","ru":"Нигде","uk":"Niğde","de":"Niğde","es":"Niğde","en":"Niğde","fr":"Niğde"}},{"country":"TR","name":"Nevşehir","admin1Code":"TR.50","latitude":38.625,"longitude":34.71222,"translations":{"pt":"Nevşehir","it":"Nevşehir","ru":"Невшехир","uk":"Nevşehir","de":"Nevşehir","es":"Nevşehir","en":"Nevşehir","fr":"Nevşehir"}},{"country":"TR","name":"Nazilli","admin1Code":"TR.09","latitude":37.91631,"longitude":28.32225,"translations":{"pt":"Nazilli","it":"Nazilli","ru":"Назилли","uk":"Nazilli","de":"Nazilli","es":"Nazilli","en":"Nazilli","fr":"Nazilli"}},{"country":"TR","name":"Mut","admin1Code":"TR.32","latitude":36.64389,"longitude":33.43885,"translations":{"pt":"Mut","it":"Mut","ru":"Mut","uk":"Mut","de":"Mut","es":"Mut","en":"Mut","fr":"Mut"}},{"country":"TR","name":"Muş","admin1Code":"TR.49","latitude":38.73163,"longitude":41.48482,"translations":{"pt":"Muş","it":"Muş","ru":"Муш","uk":"Муш","de":"Muş","es":"Muş","en":"Muş","fr":"Muş"}},{"country":"TR","name":"Мугла","admin1Code":"TR.48","latitude":37.21807,"longitude":28.3665,"translations":{"pt":"Muhla","it":"Muhla","ru":"Мугла","uk":"Мугла","de":"Muhla","es":"Muhla","en":"Мугла","fr":"Muhla"}},{"country":"TR","name":"Mucur","admin1Code":"TR.40","latitude":39.06147,"longitude":34.38286,"translations":{"pt":"Mucur","it":"Mucur","ru":"Mucur","uk":"Mucur","de":"Mucur","es":"Mucur","en":"Mucur","fr":"Mucur"}},{"country":"TR","name":"Milas","admin1Code":"TR.48","latitude":37.31639,"longitude":27.78389,"translations":{"pt":"Milas","it":"Milas","ru":"Милас","uk":"Milas","de":"Milas","es":"Milas","en":"Milas","fr":"Milas"}},{"country":"TR","name":"Midyat","admin1Code":"TR.72","latitude":37.41908,"longitude":41.33909,"translations":{"pt":"Midyat","it":"Midyat","ru":"Мидьят","uk":"Мідьят","de":"Midyat","es":"Midyat","en":"Midyat","fr":"Midyat"}},{"country":"TR","name":"Mersin","admin1Code":"TR.32","latitude":36.81196,"longitude":34.63886,"translations":{"pt":"Mersin","it":"Mersin","ru":"Мерсин","uk":"Mersin","de":"Mersin","es":"Mersin","en":"Mersin","fr":"Myrte"}},{"country":"TR","name":"Менемен","admin1Code":"TR.35","latitude":38.60754,"longitude":27.06938,"translations":{"pt":"Menemen","it":"Distretto di menemen","ru":"Менемен","uk":"Менемен","de":"Menemen","es":"Menemen","en":"Менемен","fr":"Menemen"}},{"country":"TR","name":"Marmaris","admin1Code":"TR.48","latitude":36.855,"longitude":28.27417,"translations":{"pt":"Marmaris","it":"Marmaris","ru":"Мармарис","uk":"Мармарис","de":"Marmaris","es":"Marmaris","en":"Marmaris","fr":"Marmaris"}},{"country":"TR","name":"Mardin","admin1Code":"TR.72","latitude":37.31309,"longitude":40.74357,"translations":{"pt":"Mardin","it":"Mardin","ru":"Мардин","uk":"Мардін","de":"Mardin","es":"Mardin","en":"Mardin","fr":"Mardin"}},{"country":"TR","name":"Magnesia am sipylos","admin1Code":"TR.45","latitude":38.61202,"longitude":27.42647,"translations":{"pt":"Magnesia am sipylos","it":"Magnesia am sipylos","ru":"Маниса","uk":"Magnesia am sipylos","de":"Magnesia am sipylos","es":"Magnesia am sipylos","en":"Magnesia am sipylos","fr":"Magnesia am sipylos"}},{"country":"TR","name":"Manavgat","admin1Code":"TR.07","latitude":36.78667,"longitude":31.44306,"translations":{"pt":"Manavgat","it":"Manavgat","ru":"Манавгат","uk":"Manavgat","de":"Manavgat","es":"Manavgat","en":"Manavgat","fr":"Manavgat"}},{"country":"TR","name":"Malazgirt","admin1Code":"TR.49","latitude":39.1465,"longitude":42.53536,"translations":{"pt":"Malazgirt","it":"Malazgirt","ru":"Malazgirt","uk":"Malazgirt","de":"Malazgirt","es":"Malazgirt","en":"Malazgirt","fr":"Malazgirt"}},{"country":"TR","name":"Malatya","admin1Code":"TR.44","latitude":38.35018,"longitude":38.31667,"translations":{"pt":"Malatya","it":"Malatya","ru":"Малатья","uk":"Малатья","de":"Malatya","es":"Malatya","en":"Malatya","fr":"Malatya"}},{"country":"TR","name":"Mahmutlar","admin1Code":"TR.07","latitude":36.49463,"longitude":32.09085,"translations":{"pt":"Mahmutlar","it":"Mahmutlar","ru":"Mahmutlar","uk":"Mahmutlar","de":"Mahmutlar","es":"Mahmutlar","en":"Mahmutlar","fr":"Mahmutlar"}},{"country":"TR","name":"Lice","admin1Code":"TR.21","latitude":38.45821,"longitude":40.63888,"translations":{"pt":"Lice","it":"Lice","ru":"Lice","uk":"Lice","de":"Lice","es":"Lice","en":"Lice","fr":"Lice"}},{"country":"TR","name":"Kütahya","admin1Code":"TR.43","latitude":39.42417,"longitude":29.98333,"translations":{"pt":"Kütahya","it":"Kütahya","ru":"Кютахья","uk":"Кютахя","de":"Kütahya","es":"Kütahya","en":"Kütahya","fr":"Kütahya"}},{"country":"TR","name":"Kusadasi","admin1Code":"TR.09","latitude":37.86014,"longitude":27.25713,"translations":{"pt":"Kusadasi","it":"Kusadasi","ru":"Кушадасы","uk":"Кушадаси","de":"Kuşadası","es":"Kusadasi","en":"Kusadasi","fr":"Kuşadası"}},{"country":"TR","name":"Kurtalan","admin1Code":"TR.74","latitude":37.92533,"longitude":41.68493,"translations":{"pt":"Kurtalan","it":"Kurtalan","ru":"Kurtalan","uk":"Kurtalan","de":"Kurtalan","es":"Kurtalan","en":"Kurtalan","fr":"Kurtalan"}},{"country":"TR","name":"Beykonak","admin1Code":"TR.07","latitude":36.32573,"longitude":30.30302,"translations":{"pt":"Beykonak","it":"Beykonak","ru":"Beykonak","uk":"Beykonak","de":"Beykonak","es":"Beykonak","en":"Beykonak","fr":"Beykonak"}},{"country":"TR","name":"Kulu","admin1Code":"TR.71","latitude":39.09513,"longitude":33.07989,"translations":{"pt":"Kulu","it":"Kulu","ru":"Kulu","uk":"Kulu","de":"Kulu","es":"Kulu","en":"Kulu","fr":"Kulu"}},{"country":"TR","name":"Kulp","admin1Code":"TR.21","latitude":38.49754,"longitude":41.00668,"translations":{"pt":"Kulp","it":"Kulp","ru":"Kulp","uk":"Kulp","de":"Kulp","es":"Kulp","en":"Kulp","fr":"Kulp"}},{"country":"TR","name":"Кул","admin1Code":"TR.45","latitude":38.54726,"longitude":28.64976,"translations":{"pt":"Kul","it":"Kul","ru":"Кул","uk":"Кул","de":"Kul","es":"Kul","en":"Кул","fr":"Kul"}},{"country":"TR","name":"Kozluk","admin1Code":"TR.76","latitude":38.19118,"longitude":41.47775,"translations":{"pt":"Kozluk","it":"Kozluk","ru":"Kozluk","uk":"Kozluk","de":"Kozluk","es":"Kozluk","en":"Kozluk","fr":"Kozluk"}},{"country":"TR","name":"Kozan","admin1Code":"TR.81","latitude":37.45517,"longitude":35.81573,"translations":{"pt":"Kozan","it":"Kozan","ru":"Kozan","uk":"Kozan","de":"Kozan","es":"Kozan","en":"Kozan","fr":"Kozan"}},{"country":"TR","name":"Kovancılar","admin1Code":"TR.23","latitude":38.71882,"longitude":39.86268,"translations":{"pt":"Kovancılar","it":"Kovancılar","ru":"Kovancılar","uk":"Kovancılar","de":"Kovancılar","es":"Kovancılar","en":"Kovancılar","fr":"Kovancılar"}},{"country":"TR","name":"Коркутели","admin1Code":"TR.07","latitude":37.06498,"longitude":30.19565,"translations":{"pt":"Korkutely","it":"Korkutely","ru":"Коркутели","uk":"Коркутели","de":"Korkutely","es":"Korkutely","en":"Коркутели","fr":"Korkutely"}},{"country":"TR","name":"Konya","admin1Code":"TR.71","latitude":37.87135,"longitude":32.48464,"translations":{"pt":"Konya","it":"Iconio","ru":"Конья","uk":"Конья","de":"Konya","es":"Konya","en":"Konya","fr":"Konya"}},{"country":"TR","name":"Konakli","admin1Code":"TR.07","latitude":36.59251,"longitude":31.89539,"translations":{"pt":"Konakli","it":"Konakli","ru":"Konakli","uk":"Konakli","de":"Konakli","es":"Konakli","en":"Konakli","fr":"Konakli"}},{"country":"TR","name":"Кызылтепе","admin1Code":"TR.72","latitude":37.18836,"longitude":40.57723,"translations":{"pt":"Kыzыltepe","it":"Kыzыltepe","ru":"Кызылтепе","uk":"Кызылтепе","de":"Kыzыltepe","es":"Kыzыltepe","en":"Кызылтепе","fr":"Kыzыltepe"}},{"country":"TR","name":"Serinhisar","admin1Code":"TR.20","latitude":37.58105,"longitude":29.26639,"translations":{"pt":"Serinhisar","it":"Serinhisar","ru":"Serinhisar","uk":"Serinhisar","de":"Serinhisar","es":"Serinhisar","en":"Serinhisar","fr":"Serinhisar"}},{"country":"TR","name":"Kırşehir","admin1Code":"TR.40","latitude":39.14583,"longitude":34.16389,"translations":{"pt":"Kırşehir","it":"Kırşehir","ru":"Кыршехир","uk":"Киршехір","de":"Kırşehir","es":"Kırşehir","en":"Kırşehir","fr":"Kırşehir"}},{"country":"TR","name":"Kırkağaç","admin1Code":"TR.45","latitude":39.10638,"longitude":27.66925,"translations":{"pt":"Kırkağaç","it":"Kırkağaç","ru":"Kırkağaç","uk":"Kırkağaç","de":"Kırkağaç","es":"Kırkağaç","en":"Kırkağaç","fr":"Kırkağaç"}},{"country":"TR","name":"Кырыккале","admin1Code":"TR.79","latitude":39.84528,"longitude":33.50639,"translations":{"pt":"Kыrыkkale","it":"Kыrыkkale","ru":"Кырыккале","uk":"Кириккале","de":"Kыrыkkale","es":"Kыrыkkale","en":"Кырыккале","fr":"Kыrыkkale"}},{"country":"TR","name":"Kırıkhan","admin1Code":"TR.31","latitude":36.49939,"longitude":36.35755,"translations":{"pt":"Kırıkhan","it":"Kırıkhan","ru":"Kırıkhan","uk":"Kırıkhan","de":"Kırıkhan","es":"Kırıkhan","en":"Kırıkhan","fr":"Kırıkhan"}},{"country":"TR","name":"Kireçocağı","admin1Code":"TR.81","latitude":37.05,"longitude":35.23333,"translations":{"pt":"Kireçocağı","it":"Kireçocağı","ru":"Kireçocağı","uk":"Kireçocağı","de":"Kireçocağı","es":"Kireçocağı","en":"Kireçocağı","fr":"Kireçocağı"}},{"country":"TR","name":"Kilis","admin1Code":"TR.90","latitude":36.71611,"longitude":37.115,"translations":{"pt":"Kilis","it":"Kilis","ru":"Килис","uk":"Кіліс","de":"Kilis","es":"Kilis","en":"Kilis","fr":"Kilis"}},{"country":"TR","name":"Кескин","admin1Code":"TR.79","latitude":39.67306,"longitude":33.61361,"translations":{"pt":"Keskyn","it":"Keskyn","ru":"Кескин","uk":"Кескин","de":"Keskyn","es":"Keskyn","en":"Кескин","fr":"Keskyn"}},{"country":"TR","name":"Кемер","admin1Code":"TR.07","latitude":36.59778,"longitude":30.56056,"translations":{"pt":"Kemer","it":"Kemer","ru":"Кемер","uk":"Кемер","de":"Kemer","es":"Kemer","en":"Кемер","fr":"Kemer"}},{"country":"TR","name":"Кемальпаша","admin1Code":"TR.35","latitude":38.42621,"longitude":27.41731,"translations":{"pt":"Kemal'pasha","it":"Kemal'pasha","ru":"Кемальпаша","uk":"Кемальпаша","de":"Kemal'pasha","es":"Kemal'pasha","en":"Кемальпаша","fr":"Kemal'pasha"}},{"country":"TR","name":"Kayseri","admin1Code":"TR.38","latitude":38.73222,"longitude":35.48528,"translations":{"pt":"Kayseri","it":"Cesarea in cappadocia","ru":"Кайсери","uk":"Кайсері","de":"Kayseri","es":"Kayseri","en":"Kayseri","fr":"Kayseri"}},{"country":"TR","name":"Karapınar","admin1Code":"TR.71","latitude":37.71596,"longitude":33.55064,"translations":{"pt":"Karapınar","it":"Karapınar","ru":"Karapınar","uk":"Karapınar","de":"Karapınar","es":"Karapınar","en":"Karapınar","fr":"Karapınar"}},{"country":"TR","name":"Karaman","admin1Code":"TR.78","latitude":37.18111,"longitude":33.215,"translations":{"pt":"Karaman","it":"Karaman","ru":"Караман","uk":"Караман","de":"Karaman","es":"Karaman","en":"Karaman","fr":"Karaman"}},{"country":"TR","name":"Ağrı","admin1Code":"TR.04","latitude":39.71467,"longitude":43.04015,"translations":{"pt":"Ağrı","it":"Ağrı","ru":"Агры","uk":"Агри","de":"Ağrı","es":"Ağrı","en":"Ağrı","fr":"Ağrı"}},{"country":"TR","name":"Каракоджана","admin1Code":"TR.23","latitude":38.95178,"longitude":40.02706,"translations":{"pt":"Karakodzhana","it":"Karakodzhana","ru":"Каракоджана","uk":"Каракоджана","de":"Karakodzhana","es":"Karakodzhana","en":"Каракоджана","fr":"Karakodzhana"}},{"country":"TR","name":"Karaçoban","admin1Code":"TR.25","latitude":39.34364,"longitude":42.09918,"translations":{"pt":"Karaçoban","it":"Karaçoban","ru":"Karaçoban","uk":"Karaçoban","de":"Karaçoban","es":"Karaçoban","en":"Karaçoban","fr":"Karaçoban"}},{"country":"TR","name":"Каман","admin1Code":"TR.40","latitude":39.3575,"longitude":33.72389,"translations":{"pt":"Kaman","it":"Kaman","ru":"Каман","uk":"Каман","de":"Kaman","es":"Kaman","en":"Каман","fr":"Kaman"}},{"country":"TR","name":"Кахта","admin1Code":"TR.02","latitude":37.78552,"longitude":38.6237,"translations":{"pt":"Kakhta","it":"Kakhta","ru":"Кахта","uk":"Кахта","de":"Kakhta","es":"Kakhta","en":"Кахта","fr":"Kakhta"}},{"country":"TR","name":"Kahramanmaraş","admin1Code":"TR.46","latitude":37.5847,"longitude":36.92641,"translations":{"pt":"Kahramanmaraş","it":"Kahramanmaraş","ru":"Кахраманмараш","uk":"Кахраманмараш","de":"Kahramanmaraş","es":"Kahramanmaraş","en":"Kahramanmaraş","fr":"Kahramanmaraş"}},{"country":"TR","name":"Kadirli","admin1Code":"TR.91","latitude":37.37389,"longitude":36.09611,"translations":{"pt":"Kadirli","it":"Kadirli","ru":"Kadirli","uk":"Kadirli","de":"Kadirli","es":"Kadirli","en":"Kadirli","fr":"Kadirli"}},{"country":"TR","name":"Kadınhanı","admin1Code":"TR.71","latitude":38.23972,"longitude":32.21139,"translations":{"pt":"Kadınhanı","it":"Kadınhanı","ru":"Kadınhanı","uk":"Kadınhanı","de":"Kadınhanı","es":"Kadınhanı","en":"Kadınhanı","fr":"Kadınhanı"}},{"country":"TR","name":"Izmir","admin1Code":"TR.35","latitude":38.41273,"longitude":27.13838,"translations":{"pt":"Esmirna","it":"Smirne","ru":"Измир","uk":"Izmir","de":"Izmir","es":"Esmirna","en":"Izmir","fr":"Izmir"}},{"country":"TR","name":"Isparta","admin1Code":"TR.33","latitude":37.76444,"longitude":30.55222,"translations":{"pt":"Isparta","it":"Isparta","ru":"Испарта","uk":"Испарта","de":"Isparta","es":"Isparta","en":"Isparta","fr":"Isparta"}},{"country":"TR","name":"İskenderun","admin1Code":"TR.31","latitude":36.58718,"longitude":36.17347,"translations":{"pt":"İskenderun","it":"İskenderun","ru":"Искендерун","uk":"Іскендерун","de":"İskenderun","es":"Alejandreta","en":"İskenderun","fr":"İskenderun"}},{"country":"TR","name":"İncirliova","admin1Code":"TR.09","latitude":37.85222,"longitude":27.72361,"translations":{"pt":"İncirliova","it":"İncirliova","ru":"İncirliova","uk":"İncirliova","de":"İncirliova","es":"İncirliova","en":"İncirliova","fr":"İncirliova"}},{"country":"TR","name":"İmamoğlu","admin1Code":"TR.81","latitude":37.26506,"longitude":35.65717,"translations":{"pt":"İmamoğlu","it":"İmamoğlu","ru":"İmamoğlu","uk":"İmamoğlu","de":"İmamoğlu","es":"İmamoğlu","en":"İmamoğlu","fr":"İmamoğlu"}},{"country":"TR","name":"Ilgın","admin1Code":"TR.71","latitude":38.27917,"longitude":31.91389,"translations":{"pt":"Ilgın","it":"Ilgın","ru":"Ilgın","uk":"Ilgın","de":"Ilgın","es":"Ilgın","en":"Ilgın","fr":"Ilgın"}},{"country":"TR","name":"Iğdır","admin1Code":"TR.88","latitude":39.92371,"longitude":44.045,"translations":{"pt":"Iğdır","it":"Iğdır","ru":"Игдир","uk":"Игдир","de":"Iğdır","es":"Iğdır","en":"Iğdır","fr":"Iğdır"}},{"country":"TR","name":"Идиль","admin1Code":"TR.80","latitude":37.33481,"longitude":41.88944,"translations":{"pt":"Ydyl'","it":"Distretto di i̇dil","ru":"Идиль","uk":"Идиль","de":"Ydyl'","es":"Ydyl'","en":"Идиль","fr":"Ydyl'"}},{"country":"TR","name":"Hizan","admin1Code":"TR.13","latitude":38.22498,"longitude":42.4183,"translations":{"pt":"Hizan","it":"Hizan","ru":"Hizan","uk":"Hizan","de":"Hizan","es":"Hizan","en":"Hizan","fr":"Hizan"}},{"country":"TR","name":"Hınıs","admin1Code":"TR.25","latitude":39.35766,"longitude":41.69253,"translations":{"pt":"Hınıs","it":"Hınıs","ru":"Hınıs","uk":"Hınıs","de":"Hınıs","es":"Hınıs","en":"Hınıs","fr":"Hınıs"}},{"country":"TR","name":"Hilvan","admin1Code":"TR.63","latitude":37.58687,"longitude":38.95505,"translations":{"pt":"Hilvan","it":"Hilvan","ru":"Hilvan","uk":"Hilvan","de":"Hilvan","es":"Hilvan","en":"Hilvan","fr":"Hilvan"}},{"country":"TR","name":"Hıdırbey","admin1Code":"TR.31","latitude":36.20802,"longitude":36.12787,"translations":{"pt":"Hıdırbey","it":"Hıdırbey","ru":"Hıdırbey","uk":"Hıdırbey","de":"Hıdırbey","es":"Hıdırbey","en":"Hıdırbey","fr":"Hıdırbey"}},{"country":"TR","name":"Хадим","admin1Code":"TR.71","latitude":36.98776,"longitude":32.45674,"translations":{"pt":"Khadym","it":"Khadym","ru":"Хадим","uk":"Хадим","de":"Khadym","es":"Khadym","en":"Хадим","fr":"Khadym"}},{"country":"TR","name":"Hacılar","admin1Code":"TR.38","latitude":38.64631,"longitude":35.44937,"translations":{"pt":"Hacılar","it":"Hacılar","ru":"Hacılar","uk":"Hacılar","de":"Hacılar","es":"Hacılar","en":"Hacılar","fr":"Hacılar"}},{"country":"TR","name":"Güroymak","admin1Code":"TR.13","latitude":38.5758,"longitude":42.01558,"translations":{"pt":"Güroymak","it":"Güroymak","ru":"Güroymak","uk":"Güroymak","de":"Güroymak","es":"Güroymak","en":"Güroymak","fr":"Güroymak"}},{"country":"TR","name":"Гёльбаши","admin1Code":"TR.02","latitude":37.78361,"longitude":37.63667,"translations":{"pt":"Hёl'bashy","it":"Hёl'bashy","ru":"Гёльбаши","uk":"Гёльбаши","de":"Hёl'bashy","es":"Hёl'bashy","en":"Гёльбаши","fr":"Hёl'bashy"}},{"country":"TR","name":"Göksun","admin1Code":"TR.46","latitude":38.02096,"longitude":36.4973,"translations":{"pt":"Göksun","it":"Göksun","ru":"Göksun","uk":"Göksun","de":"Göksun","es":"Göksun","en":"Göksun","fr":"Göksun"}},{"country":"TR","name":"Генк","admin1Code":"TR.12","latitude":38.74773,"longitude":40.55343,"translations":{"pt":"Henk","it":"Henk","ru":"Генк","uk":"Генк","de":"Henk","es":"Henk","en":"Генк","fr":"Henk"}},{"country":"TR","name":"Gemerek","admin1Code":"TR.58","latitude":39.18342,"longitude":36.07189,"translations":{"pt":"Gemerek","it":"Gemerek","ru":"Gemerek","uk":"Gemerek","de":"Gemerek","es":"Gemerek","en":"Gemerek","fr":"Gemerek"}},{"country":"TR","name":"Гедиз","admin1Code":"TR.43","latitude":38.99389,"longitude":29.39131,"translations":{"pt":"Hedyz","it":"Hedyz","ru":"Гедиз","uk":"Гедиз","de":"Hedyz","es":"Hedyz","en":"Гедиз","fr":"Hedyz"}},{"country":"TR","name":"Gazipaşa","admin1Code":"TR.07","latitude":36.26942,"longitude":32.31792,"translations":{"pt":"Gazipaşa","it":"Gazipaşa","ru":"Gazipaşa","uk":"Gazipaşa","de":"Gazipaşa","es":"Gazipaşa","en":"Gazipaşa","fr":"Gazipaşa"}},{"country":"TR","name":"Gaziantep","admin1Code":"TR.83","latitude":37.05944,"longitude":37.3825,"translations":{"pt":"Gaziantep","it":"Gaziantep","ru":"Газиантеп","uk":"Ґазіантеп","de":"Gaziantep","es":"Gaziantep","en":"Gaziantep","fr":"Gaziantep"}},{"country":"TR","name":"Foça","admin1Code":"TR.35","latitude":38.6703,"longitude":26.75656,"translations":{"pt":"Foça","it":"Foça","ru":"Foça","uk":"Foça","de":"Foça","es":"Foça","en":"Foça","fr":"Foça"}},{"country":"TR","name":"Fethiye","admin1Code":"TR.48","latitude":36.64038,"longitude":29.12758,"translations":{"pt":"Fethiye","it":"Fethiye","ru":"Фетхие","uk":"Фетхіє","de":"Fethiye","es":"Fethiye","en":"Fethiye","fr":"Fethiye"}},{"country":"TR","name":"Ezine","admin1Code":"TR.17","latitude":39.78561,"longitude":26.34083,"translations":{"pt":"Ezine","it":"Ezine","ru":"Ezine","uk":"Ezine","de":"Ezine","es":"Ezine","en":"Ezine","fr":"Ezine"}},{"country":"TR","name":"Etlik","admin1Code":"TR.68","latitude":39.98205,"longitude":32.82459,"translations":{"pt":"Etlik","it":"Etlik","ru":"Etlik","uk":"Etlik","de":"Etlik","es":"Etlik","en":"Etlik","fr":"Etlik"}},{"country":"TR","name":"Eskişehir","admin1Code":"TR.26","latitude":39.77667,"longitude":30.52056,"translations":{"pt":"Eskişehir","it":"Eskişehir","ru":"Эскишехир","uk":"Ескішехір","de":"Eskişehir","es":"Eskişehir","en":"Eskişehir","fr":"Eskişehir"}},{"country":"TR","name":"Erzurum","admin1Code":"TR.25","latitude":39.90861,"longitude":41.27694,"translations":{"pt":"Erzurum","it":"Erzurum","ru":"Эрзурум","uk":"Ерзурум","de":"Erzurum","es":"Erzurum","en":"Erzurum","fr":"Erzurum"}},{"country":"TR","name":"Erzincan","admin1Code":"TR.24","latitude":39.73919,"longitude":39.49015,"translations":{"pt":"Erzincan","it":"Erzincam","ru":"Эрзинджан","uk":"Ерзінджан","de":"Erzincan","es":"Erzincan","en":"Erzincan","fr":"Erzincan"}},{"country":"TR","name":"Ermenek","admin1Code":"TR.78","latitude":36.64043,"longitude":32.89179,"translations":{"pt":"Ermenek","it":"Ermenek","ru":"Ermenek","uk":"Ermenek","de":"Ermenek","es":"Ermenek","en":"Ermenek","fr":"Ermenek"}},{"country":"TR","name":"Эграни","admin1Code":"TR.21","latitude":38.26899,"longitude":39.75446,"translations":{"pt":"Эhrany","it":"Эhrany","ru":"Эграни","uk":"Эграни","de":"Эhrany","es":"Эhrany","en":"Эграни","fr":"Эhrany"}},{"country":"TR","name":"Heraclea","admin1Code":"TR.71","latitude":37.51333,"longitude":34.04672,"translations":{"pt":"Heraclea","it":"Heraclea","ru":"Эрегли","uk":"Ереглі","de":"Ereğli","es":"Heraclea","en":"Heraclea","fr":"Héraclée"}},{"country":"TR","name":"Эрдемли","admin1Code":"TR.32","latitude":36.60498,"longitude":34.30836,"translations":{"pt":"Эrdemly","it":"Эrdemly","ru":"Эрдемли","uk":"Эрдемли","de":"Эrdemly","es":"Эrdemly","en":"Эрдемли","fr":"Эrdemly"}},{"country":"TR","name":"Erciş","admin1Code":"TR.65","latitude":39.02587,"longitude":43.35964,"translations":{"pt":"Erciş","it":"Erciş","ru":"Erciş","uk":"Erciş","de":"Erciş","es":"Erciş","en":"Erciş","fr":"Erciş"}},{"country":"TR","name":"Distretto di emirdağ","admin1Code":"TR.03","latitude":39.01972,"longitude":31.15,"translations":{"pt":"Distretto di emirdağ","it":"Distretto di emirdağ","ru":"Distretto di emirdağ","uk":"Distretto di emirdağ","de":"Distretto di emirdağ","es":"Distretto di emirdağ","en":"Distretto di emirdağ","fr":"Distretto di emirdağ"}},{"country":"TR","name":"Эмет","admin1Code":"TR.43","latitude":39.343,"longitude":29.25847,"translations":{"pt":"Эmet","it":"Эmet","ru":"Эмет","uk":"Эмет","de":"Эmet","es":"Эmet","en":"Эмет","fr":"Эmet"}},{"country":"TR","name":"Элмалы","admin1Code":"TR.07","latitude":36.73583,"longitude":29.91775,"translations":{"pt":"Эlmalы","it":"Эlmalы","ru":"Элмалы","uk":"Элмалы","de":"Эlmalы","es":"Эlmalы","en":"Элмалы","fr":"Эlmalы"}},{"country":"TR","name":"Elmadağ","admin1Code":"TR.68","latitude":39.92083,"longitude":33.23083,"translations":{"pt":"Elmadağ","it":"Elmadağ","ru":"Elmadağ","uk":"Elmadağ","de":"Elmadağ","es":"Elmadağ","en":"Elmadağ","fr":"Elmadağ"}},{"country":"TR","name":"Eleşkirt","admin1Code":"TR.04","latitude":39.79803,"longitude":42.67574,"translations":{"pt":"Eleşkirt","it":"Eleşkirt","ru":"Eleşkirt","uk":"Eleşkirt","de":"Eleşkirt","es":"Eleşkirt","en":"Eleşkirt","fr":"Eleşkirt"}},{"country":"TR","name":"Elbistan","admin1Code":"TR.46","latitude":38.20591,"longitude":37.1983,"translations":{"pt":"Elbistan","it":"Elbistan","ru":"Эльбистан","uk":"Elbistan","de":"Elbistan","es":"Elbistan","en":"Elbistan","fr":"Elbistan"}},{"country":"TR","name":"Elâzığ","admin1Code":"TR.23","latitude":38.67431,"longitude":39.22321,"translations":{"pt":"Elâzığ","it":"Elâzığ","ru":"Элязыг","uk":"Елязиг","de":"Elazığ","es":"Elâzığ","en":"Elâzığ","fr":"Elazığ"}},{"country":"TR","name":"Eğirdir","admin1Code":"TR.33","latitude":37.87462,"longitude":30.85042,"translations":{"pt":"Eğirdir","it":"Eğirdir","ru":"Eğirdir","uk":"Eğirdir","de":"Eğirdir","es":"Eğirdir","en":"Eğirdir","fr":"Eğirdir"}},{"country":"TR","name":"Эдремит","admin1Code":"TR.10","latitude":39.59611,"longitude":27.02444,"translations":{"pt":"Эdremyt","it":"Distretto di edremit","ru":"Эдремит","uk":"Эдремит","de":"Эdremyt","es":"Эdremyt","en":"Эдремит","fr":"Эdremyt"}},{"country":"TR","name":"Dursunbey","admin1Code":"TR.10","latitude":39.58596,"longitude":28.62568,"translations":{"pt":"Dursunbey","it":"Dursunbey","ru":"Dursunbey","uk":"Dursunbey","de":"Dursunbey","es":"Dursunbey","en":"Dursunbey","fr":"Dursunbey"}},{"country":"TR","name":"Dörtyol","admin1Code":"TR.31","latitude":36.83917,"longitude":36.23025,"translations":{"pt":"Dörtyol","it":"Dörtyol","ru":"Dörtyol","uk":"Dörtyol","de":"Dörtyol","es":"Dörtyol","en":"Dörtyol","fr":"Dörtyol"}},{"country":"TR","name":"Doğubeyazıt","admin1Code":"TR.04","latitude":39.54694,"longitude":44.08417,"translations":{"pt":"Doğubeyazıt","it":"Dogubayazit","ru":"Догубаязит","uk":"Doğubeyazıt","de":"Doğubeyazıt","es":"Doğubeyazıt","en":"Doğubeyazıt","fr":"Doğubeyazıt"}},{"country":"TR","name":"Diyarbakır","admin1Code":"TR.21","latitude":37.91363,"longitude":40.21721,"translations":{"pt":"Diyarbakir","it":"Diyarbakır","ru":"Диярбакыр","uk":"Діярбакир","de":"Diyarbakır","es":"Diyarbakır","en":"Diyarbakır","fr":"Diyarbakır"}},{"country":"TR","name":"Diyadin","admin1Code":"TR.04","latitude":39.54056,"longitude":43.67135,"translations":{"pt":"Diyadin","it":"Diyadin","ru":"Diyadin","uk":"Diyadin","de":"Diyadin","es":"Diyadin","en":"Diyadin","fr":"Diyadin"}},{"country":"TR","name":"Динар","admin1Code":"TR.03","latitude":38.065,"longitude":30.16557,"translations":{"pt":"Dynar","it":"Distretto di dinar","ru":"Динар","uk":"Динар","de":"Dynar","es":"Dynar","en":"Динар","fr":"Dynar"}},{"country":"TR","name":"Develi","admin1Code":"TR.38","latitude":38.39056,"longitude":35.49222,"translations":{"pt":"Develi","it":"Develi","ru":"Develi","uk":"Develi","de":"Develi","es":"Develi","en":"Develi","fr":"Develi"}},{"country":"TR","name":"Denizli","admin1Code":"TR.20","latitude":37.77417,"longitude":29.0875,"translations":{"pt":"Denizli","it":"Denizli","ru":"Денизли","uk":"Денізлі","de":"Denizli","es":"Denizli","en":"Denizli","fr":"Denizli"}},{"country":"TR","name":"Demirci","admin1Code":"TR.45","latitude":39.04607,"longitude":28.65889,"translations":{"pt":"Demirci","it":"Demirci","ru":"Demirci","uk":"Demirci","de":"Demirci","es":"Demirci","en":"Demirci","fr":"Demirci"}},{"country":"TR","name":"Даргечит","admin1Code":"TR.72","latitude":37.54616,"longitude":41.71652,"translations":{"pt":"Darhechyt","it":"Darhechyt","ru":"Даргечит","uk":"Даргечит","de":"Darhechyt","es":"Darhechyt","en":"Даргечит","fr":"Darhechyt"}},{"country":"TR","name":"Даренде","admin1Code":"TR.44","latitude":38.54583,"longitude":37.50583,"translations":{"pt":"Darende","it":"Darende","ru":"Даренде","uk":"Даренде","de":"Darende","es":"Darende","en":"Даренде","fr":"Darende"}},{"country":"TR","name":"Çumra","admin1Code":"TR.71","latitude":37.5732,"longitude":32.77446,"translations":{"pt":"Çumra","it":"Çumra","ru":"Çumra","uk":"Çumra","de":"Çumra","es":"Çumra","en":"Çumra","fr":"Çumra"}},{"country":"TR","name":"Мендерес","admin1Code":"TR.35","latitude":38.24963,"longitude":27.13429,"translations":{"pt":"Menderes","it":"Menderes","ru":"Мендерес","uk":"Мендерес","de":"Menderes","es":"Menderes","en":"Мендерес","fr":"Menderes"}},{"country":"TR","name":"Хаккари","admin1Code":"TR.70","latitude":37.57444,"longitude":43.74083,"translations":{"pt":"Khakkary","it":"Khakkary","ru":"Хаккари","uk":"Хаккари","de":"Khakkary","es":"Khakkary","en":"Хаккари","fr":"Khakkary"}},{"country":"TR","name":"Cizre","admin1Code":"TR.80","latitude":37.33024,"longitude":42.18484,"translations":{"pt":"Cizre","it":"Cizre","ru":"Джизре","uk":"Cizre","de":"Cizre","es":"Cizre","en":"Cizre","fr":"Cizre"}},{"country":"TR","name":"Çine","admin1Code":"TR.09","latitude":37.61266,"longitude":28.05912,"translations":{"pt":"Çine","it":"Çine","ru":"Çine","uk":"Çine","de":"Çine","es":"Çine","en":"Çine","fr":"Çine"}},{"country":"TR","name":"Ceylanpınar","admin1Code":"TR.63","latitude":36.84722,"longitude":40.05,"translations":{"pt":"Ceylanpınar","it":"Ceylanpınar","ru":"Ceylanpınar","uk":"Ceylanpınar","de":"Ceylanpınar","es":"Ceylanpınar","en":"Ceylanpınar","fr":"Ceylanpınar"}},{"country":"TR","name":"Ceyhan","admin1Code":"TR.81","latitude":37.02472,"longitude":35.8175,"translations":{"pt":"Ceyhan","it":"Ceyhan","ru":"Джейхан","uk":"Ceyhan","de":"Ceyhan","es":"Ceyhan","en":"Ceyhan","fr":"Ceyhan"}},{"country":"TR","name":"Чешме","admin1Code":"TR.35","latitude":38.32614,"longitude":26.30574,"translations":{"pt":"Cheshme","it":"Cheshme","ru":"Чешме","uk":"Чешме","de":"Cheshme","es":"Cheshme","en":"Чешме","fr":"Cheshme"}},{"country":"TR","name":"Çermik","admin1Code":"TR.21","latitude":38.13538,"longitude":39.445,"translations":{"pt":"Çermik","it":"Çermik","ru":"Çermik","uk":"Çermik","de":"Çermik","es":"Çermik","en":"Çermik","fr":"Çermik"}},{"country":"TR","name":"Кей","admin1Code":"TR.03","latitude":38.59167,"longitude":31.02861,"translations":{"pt":"Kej","it":"Kej","ru":"Кей","uk":"Кей","de":"Kej","es":"Kej","en":"Кей","fr":"Kej"}},{"country":"TR","name":"Kestel","admin1Code":"TR.07","latitude":36.50861,"longitude":32.08278,"translations":{"pt":"Kestel","it":"Kestel","ru":"Kestel","uk":"Kestel","de":"Kestel","es":"Kestel","en":"Kestel","fr":"Kestel"}},{"country":"TR","name":"Çağlayancerit","admin1Code":"TR.46","latitude":37.74523,"longitude":37.28618,"translations":{"pt":"Çağlayancerit","it":"Çağlayancerit","ru":"Çağlayancerit","uk":"Çağlayancerit","de":"Çağlayancerit","es":"Çağlayancerit","en":"Çağlayancerit","fr":"Çağlayancerit"}},{"country":"TR","name":"Burhaniye","admin1Code":"TR.10","latitude":39.50041,"longitude":26.97269,"translations":{"pt":"Burhaniye","it":"Burhaniye","ru":"Burhaniye","uk":"Burhaniye","de":"Burhaniye","es":"Burhaniye","en":"Burhaniye","fr":"Burhaniye"}},{"country":"TR","name":"Burdur","admin1Code":"TR.15","latitude":37.72028,"longitude":30.29083,"translations":{"pt":"Burdur","it":"Burdur","ru":"Бурдур","uk":"Бурдур","de":"Burdur","es":"Burdur","en":"Burdur","fr":"Burdur"}},{"country":"TR","name":"Bulanık","admin1Code":"TR.49","latitude":39.08656,"longitude":42.27158,"translations":{"pt":"Bulanık","it":"Bulanık","ru":"Bulanık","uk":"Bulanık","de":"Bulanık","es":"Bulanık","en":"Bulanık","fr":"Bulanık"}},{"country":"TR","name":"Буджак","admin1Code":"TR.15","latitude":37.45917,"longitude":30.595,"translations":{"pt":"Budzhak","it":"Budzhak","ru":"Буджак","uk":"Буджак","de":"Budzhak","es":"Budzhak","en":"Буджак","fr":"Budzhak"}},{"country":"TR","name":"Бозязы","admin1Code":"TR.32","latitude":36.1082,"longitude":32.96113,"translations":{"pt":"Bozjazы","it":"Bozjazы","ru":"Бозязы","uk":"Бозязы","de":"Bozjazы","es":"Bozjazы","en":"Бозязы","fr":"Bozjazы"}},{"country":"TR","name":"Bozüyük","admin1Code":"TR.11","latitude":39.90778,"longitude":30.03667,"translations":{"pt":"Bozüyük","it":"Bozüyük","ru":"Bozüyük","uk":"Bozüyük","de":"Bozüyük","es":"Bozüyük","en":"Bozüyük","fr":"Bozüyük"}},{"country":"TR","name":"Бозова","admin1Code":"TR.63","latitude":37.3625,"longitude":38.52667,"translations":{"pt":"Bozova","it":"Bozova","ru":"Бозова","uk":"Бозова","de":"Bozova","es":"Bozova","en":"Бозова","fr":"Bozova"}},{"country":"TR","name":"Бор","admin1Code":"TR.73","latitude":37.89056,"longitude":34.55889,"translations":{"pt":"Bor","it":"Distretto di bor","ru":"Бор","uk":"Бор","de":"Bor","es":"Bor","en":"Бор","fr":"Bor"}},{"country":"TR","name":"Bolvadin","admin1Code":"TR.03","latitude":38.71111,"longitude":31.04861,"translations":{"pt":"Bolvadin","it":"Bolvadin","ru":"Bolvadin","uk":"Bolvadin","de":"Bolvadin","es":"Bolvadin","en":"Bolvadin","fr":"Bolvadin"}},{"country":"TR","name":"Bodrum","admin1Code":"TR.48","latitude":37.03833,"longitude":27.42917,"translations":{"pt":"Bodrum","it":"Bodrum","ru":"Бодрум","uk":"Бодрум","de":"Bodrum","es":"Bodrum","en":"Bodrum","fr":"Bodrum"}},{"country":"TR","name":"Bitlis","admin1Code":"TR.13","latitude":38.40115,"longitude":42.10784,"translations":{"pt":"Bitlis","it":"Bitlis","ru":"Битлис","uk":"Бітліс","de":"Bitlis","es":"Bitlis","en":"Bitlis","fr":"Bitlis"}},{"country":"TR","name":"Bismil","admin1Code":"TR.21","latitude":37.84514,"longitude":40.65931,"translations":{"pt":"Bismil","it":"Bismil","ru":"Bismil","uk":"Bismil","de":"Bismil","es":"Bismil","en":"Bismil","fr":"Bismil"}},{"country":"TR","name":"Биреджик","admin1Code":"TR.63","latitude":37.02577,"longitude":37.97841,"translations":{"pt":"Byredzhyk","it":"Byredzhyk","ru":"Биреджик","uk":"Биреджик","de":"Byredzhyk","es":"Byredzhyk","en":"Биреджик","fr":"Byredzhyk"}},{"country":"TR","name":"Бингол","admin1Code":"TR.12","latitude":38.88472,"longitude":40.49389,"translations":{"pt":"Bynhol","it":"Bynhol","ru":"Бингол","uk":"Бингол","de":"Bynhol","es":"Bynhol","en":"Бингол","fr":"Bynhol"}},{"country":"TR","name":"Bigadiç","admin1Code":"TR.10","latitude":39.3925,"longitude":28.13111,"translations":{"pt":"Bigadiç","it":"Bigadiç","ru":"Bigadiç","uk":"Bigadiç","de":"Bigadiç","es":"Bigadiç","en":"Bigadiç","fr":"Bigadiç"}},{"country":"TR","name":"Бейшехир","admin1Code":"TR.71","latitude":37.67735,"longitude":31.72458,"translations":{"pt":"Bejshekhyr","it":"Bejshekhyr","ru":"Бейшехир","uk":"Бейшехир","de":"Bejshekhyr","es":"Bejshekhyr","en":"Бейшехир","fr":"Bejshekhyr"}},{"country":"TR","name":"Бесни","admin1Code":"TR.02","latitude":37.69278,"longitude":37.86111,"translations":{"pt":"Besny","it":"Besny","ru":"Бесни","uk":"Бесни","de":"Besny","es":"Besny","en":"Бесни","fr":"Besny"}},{"country":"TR","name":"Bergama","admin1Code":"TR.35","latitude":39.12074,"longitude":27.18052,"translations":{"pt":"Pérgamo","it":"Pergamo","ru":"Пергам","uk":"Bergama","de":"Bergama","es":"Pérgamo","en":"Bergama","fr":"Pergame"}},{"country":"TR","name":"Белен","admin1Code":"TR.31","latitude":36.48866,"longitude":36.19489,"translations":{"pt":"Belen","it":"Belen","ru":"Белен","uk":"Белен","de":"Belen","es":"Belen","en":"Белен","fr":"Belen"}},{"country":"TR","name":"Belek","admin1Code":"TR.07","latitude":36.86278,"longitude":31.05556,"translations":{"pt":"Belek","it":"Belek","ru":"Белек","uk":"Белек","de":"Belek","es":"Belek","en":"Belek","fr":"Belek"}},{"country":"TR","name":"Байиндыр","admin1Code":"TR.35","latitude":38.21741,"longitude":27.64744,"translations":{"pt":"Bajyndыr","it":"Bajyndыr","ru":"Байиндыр","uk":"Байиндыр","de":"Bajyndыr","es":"Bajyndыr","en":"Байиндыр","fr":"Bajyndыr"}},{"country":"TR","name":"Батман","admin1Code":"TR.76","latitude":37.88738,"longitude":41.13221,"translations":{"pt":"Batman","it":"Batman","ru":"Батман","uk":"Батман","de":"Batman","es":"Batman","en":"Батман","fr":"Batman"}},{"country":"TR","name":"Baskil","admin1Code":"TR.23","latitude":38.56866,"longitude":38.81634,"translations":{"pt":"Baskil","it":"Baskil","ru":"Baskil","uk":"Baskil","de":"Baskil","es":"Baskil","en":"Baskil","fr":"Baskil"}},{"country":"TR","name":"Banaz","admin1Code":"TR.64","latitude":38.73707,"longitude":29.75194,"translations":{"pt":"Banaz","it":"Banaz","ru":"Banaz","uk":"Banaz","de":"Banaz","es":"Banaz","en":"Banaz","fr":"Banaz"}},{"country":"TR","name":"Balıkesir","admin1Code":"TR.10","latitude":39.64917,"longitude":27.88611,"translations":{"pt":"Balıkesir","it":"Balıkesir","ru":"Балыкесир","uk":"Баликесір","de":"Balıkesir","es":"Balikesir","en":"Balıkesir","fr":"Balıkesir"}},{"country":"TR","name":"Aivali","admin1Code":"TR.10","latitude":39.31927,"longitude":26.69341,"translations":{"pt":"Aivali","it":"Aivali","ru":"Айвалык","uk":"Aivali","de":"Aivali","es":"Aivali","en":"Aivali","fr":"Aivali"}},{"country":"TR","name":"Aydin","admin1Code":"TR.09","latitude":37.84501,"longitude":27.83963,"translations":{"pt":"Aydin","it":"Tralli","ru":"Айдын","uk":"Айдин","de":"Tralleis","es":"Aydin","en":"Aydin","fr":"Aydin"}},{"country":"TR","name":"Aşkale","admin1Code":"TR.25","latitude":39.92083,"longitude":40.695,"translations":{"pt":"Aşkale","it":"Aşkale","ru":"Aşkale","uk":"Aşkale","de":"Aşkale","es":"Aşkale","en":"Aşkale","fr":"Aşkale"}},{"country":"TR","name":"Antalya","admin1Code":"TR.07","latitude":36.90812,"longitude":30.69556,"translations":{"pt":"Antalya","it":"Adalia","ru":"Анталия","uk":"Анталья","de":"Antalya","es":"Antalya","en":"Antalya","fr":"Antalya"}},{"country":"TR","name":"Antakya","admin1Code":"TR.31","latitude":36.20655,"longitude":36.15722,"translations":{"pt":"Antioquia","it":"Antiochia di siria","ru":"Антиохия","uk":"Antakya","de":"Antakya","es":"Antioquía","en":"Antakya","fr":"Antioche"}},{"country":"TR","name":"Ankara","admin1Code":"TR.68","latitude":39.91987,"longitude":32.85427,"translations":{"pt":"Ancara","it":"Ankara","ru":"Анкара","uk":"Анкара","de":"Ankara","es":"Ankara","en":"Ankara","fr":"Ankara"}},{"country":"TR","name":"Анамур","admin1Code":"TR.32","latitude":36.07508,"longitude":32.83691,"translations":{"pt":"Anamur","it":"Anamur","ru":"Анамур","uk":"Анамур","de":"Anamur","es":"Anamur","en":"Анамур","fr":"Anamur"}},{"country":"TR","name":"Алиага","admin1Code":"TR.35","latitude":38.79975,"longitude":26.97203,"translations":{"pt":"Alyaha","it":"Alyaha","ru":"Алиага","uk":"Алиага","de":"Alyaha","es":"Alyaha","en":"Алиага","fr":"Alyaha"}},{"country":"TR","name":"Alaşehir","admin1Code":"TR.45","latitude":38.35083,"longitude":28.51718,"translations":{"pt":"Alaşehir","it":"Alaşehir","ru":"Алашехир","uk":"Алашехір","de":"Alaşehir","es":"Alaşehir","en":"Alaşehir","fr":"Alaşehir"}},{"country":"TR","name":"Alanya","admin1Code":"TR.07","latitude":36.54375,"longitude":31.99982,"translations":{"pt":"Alanya","it":"Alanya","ru":"Аланья","uk":"Аланія","de":"Alanya","es":"Alanya","en":"Alanya","fr":"Alanya"}},{"country":"TR","name":"Akşehir","admin1Code":"TR.71","latitude":38.3575,"longitude":31.41639,"translations":{"pt":"Akşehir","it":"Akşehir","ru":"Akşehir","uk":"Akşehir","de":"Akşehir","es":"Akşehir","en":"Akşehir","fr":"Akşehir"}},{"country":"TR","name":"Aksaray","admin1Code":"TR.75","latitude":38.37255,"longitude":34.02537,"translations":{"pt":"Aksaray","it":"Aksaray","ru":"Аксарай","uk":"Аксарай","de":"Aksaray","es":"Aksaray","en":"Aksaray","fr":"Aksaray"}},{"country":"TR","name":"Akhisar","admin1Code":"TR.45","latitude":38.91852,"longitude":27.84006,"translations":{"pt":"Akhisar","it":"Akhisar","ru":"Акхисар","uk":"Akhisar","de":"Thyatira","es":"Akhisar","en":"Akhisar","fr":"Akhisar"}},{"country":"TR","name":"Akdağmadeni","admin1Code":"TR.66","latitude":39.66028,"longitude":35.88361,"translations":{"pt":"Akdağmadeni","it":"Akdağmadeni","ru":"Akdağmadeni","uk":"Akdağmadeni","de":"Akdağmadeni","es":"Akdağmadeni","en":"Akdağmadeni","fr":"Akdağmadeni"}},{"country":"TR","name":"Akçapınar","admin1Code":"TR.62","latitude":38.94728,"longitude":38.9423,"translations":{"pt":"Akçapınar","it":"Akçapınar","ru":"Akçapınar","uk":"Akçapınar","de":"Akçapınar","es":"Akçapınar","en":"Akçapınar","fr":"Akçapınar"}},{"country":"TR","name":"Акчакале","admin1Code":"TR.63","latitude":36.71111,"longitude":38.9475,"translations":{"pt":"Akchakale","it":"Akchakale","ru":"Акчакале","uk":"Акчакале","de":"Akchakale","es":"Akchakale","en":"Акчакале","fr":"Akchakale"}},{"country":"TR","name":"Ahlat","admin1Code":"TR.13","latitude":38.7489,"longitude":42.48007,"translations":{"pt":"Ahlat","it":"Ahlat","ru":"Ахлат","uk":"Ahlat","de":"Ahlat","es":"Ahlat","en":"Ahlat","fr":"Ahlat"}},{"country":"TR","name":"Afyonkarahisar","admin1Code":"TR.03","latitude":38.75667,"longitude":30.54333,"translations":{"pt":"Afyonkarahisar","it":"Afyonkarahisar","ru":"Афьонкарахисар","uk":"Афьон-карахісар","de":"Afyon","es":"Afyonkarahisar","en":"Afyonkarahisar","fr":"Afyonkarahisar"}},{"country":"TR","name":"Afşin","admin1Code":"TR.46","latitude":38.24769,"longitude":36.91399,"translations":{"pt":"Afşin","it":"Afşin","ru":"Afşin","uk":"Afşin","de":"Afşin","es":"Afşin","en":"Afşin","fr":"Afşin"}},{"country":"TR","name":"Adıyaman","admin1Code":"TR.02","latitude":37.76441,"longitude":38.27629,"translations":{"pt":"Adıyaman","it":"Adıyaman","ru":"Адыяман","uk":"Адияман","de":"Adıyaman","es":"Adiyaman","en":"Adıyaman","fr":"Adiyaman"}},{"country":"TR","name":"Адилджеваз","admin1Code":"TR.13","latitude":38.79911,"longitude":42.73159,"translations":{"pt":"Adyldzhevaz","it":"Adyldzhevaz","ru":"Адилджеваз","uk":"Адилджеваз","de":"Adyldzhevaz","es":"Adyldzhevaz","en":"Адилджеваз","fr":"Adyldzhevaz"}},{"country":"TR","name":"Adana","admin1Code":"TR.81","latitude":36.98615,"longitude":35.32531,"translations":{"pt":"Adana","it":"Adana","ru":"Адана","uk":"Адана","de":"Adana","es":"Adana","en":"Adana","fr":"Adana"}},{"country":"TR","name":"Narlıca","admin1Code":"TR.31","latitude":36.23533,"longitude":36.21458,"translations":{"pt":"Narlıca","it":"Narlıca","ru":"Narlıca","uk":"Narlıca","de":"Narlıca","es":"Narlıca","en":"Narlıca","fr":"Narlıca"}},{"country":"TR","name":"Denizciler","admin1Code":"TR.31","latitude":36.6411,"longitude":36.21418,"translations":{"pt":"Denizciler","it":"Denizciler","ru":"Denizciler","uk":"Denizciler","de":"Denizciler","es":"Denizciler","en":"Denizciler","fr":"Denizciler"}},{"country":"TR","name":"Batikent","admin1Code":"TR.68","latitude":39.96833,"longitude":32.73083,"translations":{"pt":"Batikent","it":"Batikent","ru":"Batikent","uk":"Batikent","de":"Batikent","es":"Batikent","en":"Batikent","fr":"Batikent"}},{"country":"TR","name":"Dalaman","admin1Code":"TR.48","latitude":36.76591,"longitude":28.8028,"translations":{"pt":"Dalaman","it":"Dalaman","ru":"Dalaman","uk":"Dalaman","de":"Dalaman","es":"Dalaman","en":"Dalaman","fr":"Dalaman"}},{"country":"TR","name":"Зонгулдак","admin1Code":"TR.85","latitude":41.45139,"longitude":31.79305,"translations":{"pt":"Zonhuldak","it":"Zonhuldak","ru":"Зонгулдак","uk":"Зонгулдак","de":"Zonhuldak","es":"Zonhuldak","en":"Зонгулдак","fr":"Zonhuldak"}},{"country":"TR","name":"Зил","admin1Code":"TR.60","latitude":40.30306,"longitude":35.88639,"translations":{"pt":"Zyl","it":"Zyl","ru":"Зил","uk":"Зил","de":"Zyl","es":"Zyl","en":"Зил","fr":"Zyl"}},{"country":"TR","name":"Zeytinburnu","admin1Code":"TR.34","latitude":40.99441,"longitude":28.90417,"translations":{"pt":"Zeytinburnu","it":"Zeytinburnu","ru":"Zeytinburnu","uk":"Zeytinburnu","de":"Zeytinburnu","es":"Zeytinburnu","en":"Zeytinburnu","fr":"Zeytinburnu"}},{"country":"TR","name":"Zekeriya","admin1Code":"TR.34","latitude":41.19806,"longitude":29.03028,"translations":{"pt":"Zekeriya","it":"Zekeriya","ru":"Zekeriya","uk":"Zekeriya","de":"Zekeriya","es":"Zekeriya","en":"Zekeriya","fr":"Zekeriya"}},{"country":"TR","name":"Yomra","admin1Code":"TR.61","latitude":40.95326,"longitude":39.85546,"translations":{"pt":"Yomra","it":"Yomra","ru":"Yomra","uk":"Yomra","de":"Yomra","es":"Yomra","en":"Yomra","fr":"Yomra"}},{"country":"TR","name":"Yenişehir","admin1Code":"TR.16","latitude":40.26444,"longitude":29.65306,"translations":{"pt":"Yenişehir","it":"Yenişehir","ru":"Yenişehir","uk":"Yenişehir","de":"Yenişehir","es":"Yenişehir","en":"Yenişehir","fr":"Yenişehir"}},{"country":"TR","name":"Körfez","admin1Code":"TR.41","latitude":40.76704,"longitude":29.78275,"translations":{"pt":"Körfez","it":"Körfez","ru":"Körfez","uk":"Körfez","de":"Körfez","es":"Körfez","en":"Körfez","fr":"Körfez"}},{"country":"TR","name":"Yalova","admin1Code":"TR.92","latitude":40.65501,"longitude":29.27693,"translations":{"pt":"Yalova","it":"Yalova","ru":"Ялова","uk":"Ялова","de":"Yalova","es":"Yalova","en":"Yalova","fr":"Yalova"}},{"country":"TR","name":"Yakuplu","admin1Code":"TR.34","latitude":40.98894,"longitude":28.67582,"translations":{"pt":"Yakuplu","it":"Yakuplu","ru":"Yakuplu","uk":"Yakuplu","de":"Yakuplu","es":"Yakuplu","en":"Yakuplu","fr":"Yakuplu"}},{"country":"TR","name":"Везиркепрю","admin1Code":"TR.55","latitude":41.14361,"longitude":35.45472,"translations":{"pt":"Vezyrkeprju","it":"Vezyrkeprju","ru":"Везиркепрю","uk":"Везиркепрю","de":"Vezyrkeprju","es":"Vezyrkeprju","en":"Везиркепрю","fr":"Vezyrkeprju"}},{"country":"TR","name":"Vakfıkebir","admin1Code":"TR.61","latitude":41.04583,"longitude":39.27639,"translations":{"pt":"Vakfıkebir","it":"Vakfıkebir","ru":"Vakfıkebir","uk":"Vakfıkebir","de":"Vakfıkebir","es":"Vakfıkebir","en":"Vakfıkebir","fr":"Vakfıkebir"}},{"country":"TR","name":"Узункепрю","admin1Code":"TR.22","latitude":41.26914,"longitude":26.68598,"translations":{"pt":"Uzunkeprju","it":"Uzunkeprju","ru":"Узункепрю","uk":"Узункепрю","de":"Uzunkeprju","es":"Uzunkeprju","en":"Узункепрю","fr":"Uzunkeprju"}},{"country":"TR","name":"Üsküdar","admin1Code":"TR.34","latitude":41.02274,"longitude":29.01366,"translations":{"pt":"Üsküdar","it":"Scutari","ru":"Ускюдар","uk":"Üsküdar","de":"Üsküdar","es":"Üsküdar","en":"Üsküdar","fr":"Üsküdar"}},{"country":"TR","name":"Унье","admin1Code":"TR.52","latitude":41.14049,"longitude":37.28851,"translations":{"pt":"Un'e","it":"Un'e","ru":"Унье","uk":"Унье","de":"Un'e","es":"Un'e","en":"Унье","fr":"Un'e"}},{"country":"TR","name":"Umraniye","admin1Code":"TR.34","latitude":41.01643,"longitude":29.12476,"translations":{"pt":"Umraniye","it":"Umraniye","ru":"Umraniye","uk":"Umraniye","de":"Umraniye","es":"Umraniye","en":"Umraniye","fr":"Umraniye"}},{"country":"TR","name":"Turhal","admin1Code":"TR.60","latitude":40.3875,"longitude":36.08111,"translations":{"pt":"Turhal","it":"Turhal","ru":"Турхал","uk":"Turhal","de":"Turhal","es":"Turhal","en":"Turhal","fr":"Turhal"}},{"country":"TR","name":"Trabzon","admin1Code":"TR.61","latitude":41.005,"longitude":39.72694,"translations":{"pt":"Trebizonda","it":"Trebisonda","ru":"Трабзон","uk":"Трабзон","de":"Trabzon","es":"Trebisonda","en":"Trabzon","fr":"Trabzon"}},{"country":"TR","name":"Тося","admin1Code":"TR.37","latitude":41.01545,"longitude":34.04013,"translations":{"pt":"Tosja","it":"Tosja","ru":"Тося","uk":"Тося","de":"Tosja","es":"Tosja","en":"Тося","fr":"Tosja"}},{"country":"TR","name":"Tokat province","admin1Code":"TR.60","latitude":40.31389,"longitude":36.55444,"translations":{"pt":"Tokat province","it":"Tokat province","ru":"Токат","uk":"Токат","de":"Tokat","es":"Provincia de tokat","en":"Tokat province","fr":"Tokat"}},{"country":"TR","name":"Tirebolu","admin1Code":"TR.28","latitude":41.00694,"longitude":38.81389,"translations":{"pt":"Tirebolu","it":"Tirebolu","ru":"Тиреболу","uk":"Tirebolu","de":"Tirebolu","es":"Tirebolu","en":"Tirebolu","fr":"Tirebolu"}},{"country":"TR","name":"Terme","admin1Code":"TR.55","latitude":41.20917,"longitude":36.97389,"translations":{"pt":"Terme","it":"Terme","ru":"Терме","uk":"Terme","de":"Terme","es":"Terme","en":"Terme","fr":"Terme"}},{"country":"TR","name":"Tepecik","admin1Code":"TR.34","latitude":41.02931,"longitude":28.54978,"translations":{"pt":"Tepecik","it":"Tepecik","ru":"Tepecik","uk":"Tepecik","de":"Tepecik","es":"Tepecik","en":"Tepecik","fr":"Tepecik"}},{"country":"TR","name":"Tekkeköy","admin1Code":"TR.55","latitude":41.21167,"longitude":36.46,"translations":{"pt":"Tekkeköy","it":"Tekkeköy","ru":"Теккекей","uk":"Tekkeköy","de":"Tekkeköy","es":"Tekkeköy","en":"Tekkeköy","fr":"Tekkeköy"}},{"country":"TR","name":"Tekirdağ","admin1Code":"TR.59","latitude":40.9781,"longitude":27.51101,"translations":{"pt":"Tekirdağ","it":"Tekirdağ","ru":"Текирдаг","uk":"Текірдаг","de":"Tekirdağ","es":"Tekirdağ","en":"Tekirdağ","fr":"Tekirdağ"}},{"country":"TR","name":"Taşova","admin1Code":"TR.05","latitude":40.75972,"longitude":36.3225,"translations":{"pt":"Taşova","it":"Taşova","ru":"Ташова","uk":"Taşova","de":"Taşova","es":"Taşova","en":"Taşova","fr":"Taşova"}},{"country":"TR","name":"Taşköprü","admin1Code":"TR.37","latitude":41.5098,"longitude":34.21414,"translations":{"pt":"Taşköprü","it":"Taşköprü","ru":"Taşköprü","uk":"Taşköprü","de":"Taşköprü","es":"Taşköprü","en":"Taşköprü","fr":"Taşköprü"}},{"country":"TR","name":"Tarabya","admin1Code":"TR.34","latitude":41.13361,"longitude":29.04639,"translations":{"pt":"Tarabya","it":"Tarabya","ru":"Tarabya","uk":"Tarabya","de":"Tarabya","es":"Tarabya","en":"Tarabya","fr":"Tarabya"}},{"country":"TR","name":"Suşehri","admin1Code":"TR.58","latitude":40.16005,"longitude":38.08413,"translations":{"pt":"Suşehri","it":"Suşehri","ru":"Сушехри","uk":"Suşehri","de":"Suşehri","es":"Suşehri","en":"Suşehri","fr":"Suşehri"}},{"country":"TR","name":"Sürmene","admin1Code":"TR.61","latitude":40.90588,"longitude":40.12792,"translations":{"pt":"Sürmene","it":"Sürmene","ru":"Сюрмене","uk":"Sürmene","de":"Sürmene","es":"Sürmene","en":"Sürmene","fr":"Sürmene"}},{"country":"TR","name":"Сунгурлу","admin1Code":"TR.19","latitude":40.1675,"longitude":34.37389,"translations":{"pt":"Sunhurlu","it":"Sunhurlu","ru":"Сунгурлу","uk":"Сунгурлу","de":"Sunhurlu","es":"Sunhurlu","en":"Сунгурлу","fr":"Sunhurlu"}},{"country":"TR","name":"Suluova","admin1Code":"TR.05","latitude":40.83129,"longitude":35.64788,"translations":{"pt":"Suluova","it":"Suluova","ru":"Suluova","uk":"Suluova","de":"Suluova","es":"Suluova","en":"Suluova","fr":"Suluova"}},{"country":"TR","name":"Şişli","admin1Code":"TR.34","latitude":41.06046,"longitude":28.98717,"translations":{"pt":"Şişli","it":"Şişli","ru":"Şişli","uk":"Şişli","de":"Şişli","es":"Şişli","en":"Şişli","fr":"Şişli"}},{"country":"TR","name":"Sinop","admin1Code":"TR.57","latitude":42.02683,"longitude":35.16253,"translations":{"pt":"Sinop","it":"Sinop","ru":"Синоп","uk":"Синоп","de":"Sinop","es":"Sinop","en":"Sinop","fr":"Sinop"}},{"country":"TR","name":"Siliviri","admin1Code":"TR.34","latitude":41.07393,"longitude":28.24644,"translations":{"pt":"Siliviri","it":"Siliviri","ru":"Siliviri","uk":"Siliviri","de":"Siliviri","es":"Siliviri","en":"Siliviri","fr":"Siliviri"}},{"country":"TR","name":"Şebinkarahisar","admin1Code":"TR.28","latitude":40.28833,"longitude":38.42361,"translations":{"pt":"Şebinkarahisar","it":"Şebinkarahisar","ru":"Шебинкарахисар","uk":"Şebinkarahisar","de":"Şebinkarahisar","es":"Şebinkarahisar","en":"Şebinkarahisar","fr":"Şebinkarahisar"}},{"country":"TR","name":"Sarıkamış","admin1Code":"TR.84","latitude":40.32769,"longitude":42.58705,"translations":{"pt":"Sarıkamış","it":"Sarıkamış","ru":"Сарыкамыш","uk":"Sarıkamış","de":"Sarıkamış","es":"Sarıkamış","en":"Sarıkamış","fr":"Sarıkamış"}},{"country":"TR","name":"Sapanca","admin1Code":"TR.54","latitude":40.69141,"longitude":30.26738,"translations":{"pt":"Sapanca","it":"Sapanca","ru":"Sapanca","uk":"Sapanca","de":"Sapanca","es":"Sapanca","en":"Sapanca","fr":"Sapanca"}},{"country":"TR","name":"Samsun","admin1Code":"TR.55","latitude":41.27976,"longitude":36.3361,"translations":{"pt":"Samsun","it":"Samsun","ru":"Самсун","uk":"Самсун","de":"Samsun","es":"Samsun","en":"Samsun","fr":"Samsun"}},{"country":"TR","name":"Safranbolu","admin1Code":"TR.89","latitude":41.25083,"longitude":32.69417,"translations":{"pt":"Safranbolu","it":"Safranbolu","ru":"Сафранболу","uk":"Safranbolu","de":"Safranbolu","es":"Safranbolu","en":"Safranbolu","fr":"Safranbolu"}},{"country":"TR","name":"Rize","admin1Code":"TR.53","latitude":41.02083,"longitude":40.52194,"translations":{"pt":"Rize","it":"Rize","ru":"Ризе","uk":"Різе","de":"Rize","es":"Rize","en":"Rize","fr":"Rize"}},{"country":"TR","name":"Osmaneli","admin1Code":"TR.11","latitude":40.35722,"longitude":30.01417,"translations":{"pt":"Osmaneli","it":"Osmaneli","ru":"Osmaneli","uk":"Osmaneli","de":"Osmaneli","es":"Osmaneli","en":"Osmaneli","fr":"Osmaneli"}},{"country":"TR","name":"Osmancık","admin1Code":"TR.19","latitude":40.97818,"longitude":34.8047,"translations":{"pt":"Osmancık","it":"Osmancık","ru":"Osmancık","uk":"Osmancık","de":"Osmancık","es":"Osmancık","en":"Osmancık","fr":"Osmancık"}},{"country":"TR","name":"Orhangazi","admin1Code":"TR.16","latitude":40.48917,"longitude":29.30889,"translations":{"pt":"Orhangazi","it":"Orhangazi","ru":"Orhangazi","uk":"Orhangazi","de":"Orhangazi","es":"Orhangazi","en":"Orhangazi","fr":"Orhangazi"}},{"country":"TR","name":"Ordu","admin1Code":"TR.52","latitude":40.97782,"longitude":37.89047,"translations":{"pt":"Ordu","it":"Ordu","ru":"Орду","uk":"Ordu","de":"Ordu","es":"Ordu","en":"Ordu","fr":"Ordu"}},{"country":"TR","name":"Oltu","admin1Code":"TR.25","latitude":40.53945,"longitude":41.98722,"translations":{"pt":"Oltu","it":"Oltu","ru":"Олту","uk":"Oltu","de":"Oltu","es":"Oltu","en":"Oltu","fr":"Oltu"}},{"country":"TR","name":"Of","admin1Code":"TR.61","latitude":40.94055,"longitude":40.25918,"translations":{"pt":"Of","it":"Of","ru":"Оф","uk":"Of","de":"Of","es":"Of","en":"Of","fr":"Of"}},{"country":"TR","name":"Niksar","admin1Code":"TR.60","latitude":40.59167,"longitude":36.95167,"translations":{"pt":"Niksar","it":"Niksar","ru":"Никсар","uk":"Niksar","de":"Niksar","es":"Niksar","en":"Niksar","fr":"Niksar"}},{"country":"TR","name":"Nallıhan","admin1Code":"TR.68","latitude":40.18593,"longitude":31.35179,"translations":{"pt":"Nallıhan","it":"Nallıhan","ru":"Nallıhan","uk":"Nallıhan","de":"Nallıhan","es":"Nallıhan","en":"Nallıhan","fr":"Nallıhan"}},{"country":"TR","name":"Mustafakemalpaşa","admin1Code":"TR.16","latitude":40.03815,"longitude":28.40866,"translations":{"pt":"Mustafakemalpaşa","it":"Mustafakemalpaşa","ru":"Mustafakemalpaşa","uk":"Mustafakemalpaşa","de":"Mustafakemalpaşa","es":"Mustafakemalpaşa","en":"Mustafakemalpaşa","fr":"Mustafakemalpaşa"}},{"country":"TR","name":"Муданьи","admin1Code":"TR.16","latitude":40.37524,"longitude":28.8838,"translations":{"pt":"Mudan'y","it":"Mudan'y","ru":"Муданьи","uk":"Муданьи","de":"Mudan'y","es":"Mudan'y","en":"Муданьи","fr":"Mudan'y"}},{"country":"TR","name":"Мимарсинан","admin1Code":"TR.34","latitude":41.01488,"longitude":28.56085,"translations":{"pt":"Mymarsynan","it":"Mymarsynan","ru":"Мимарсинан","uk":"Мимарсинан","de":"Mymarsynan","es":"Mymarsynan","en":"Мимарсинан","fr":"Mymarsynan"}},{"country":"TR","name":"Мерзифон","admin1Code":"TR.05","latitude":40.87333,"longitude":35.46306,"translations":{"pt":"Merzyfon","it":"Merzyfon","ru":"Мерзифон","uk":"Мерзифон","de":"Merzyfon","es":"Merzyfon","en":"Мерзифон","fr":"Merzyfon"}},{"country":"TR","name":"Maltepe","admin1Code":"TR.34","latitude":40.93567,"longitude":29.15507,"translations":{"pt":"Maltepe","it":"Maltepe","ru":"Maltepe","uk":"Maltepe","de":"Maltepe","es":"Maltepe","en":"Maltepe","fr":"Maltepe"}},{"country":"TR","name":"Малкара","admin1Code":"TR.59","latitude":40.89105,"longitude":26.90201,"translations":{"pt":"Malkara","it":"Malkara","ru":"Малкара","uk":"Малкара","de":"Malkara","es":"Malkara","en":"Малкара","fr":"Malkara"}},{"country":"TR","name":"Lüleburgaz","admin1Code":"TR.39","latitude":41.40173,"longitude":27.35746,"translations":{"pt":"Lüleburgaz","it":"Lüleburgaz","ru":"Lüleburgaz","uk":"Lüleburgaz","de":"Lüleburgaz","es":"Lüleburgaz","en":"Lüleburgaz","fr":"Lüleburgaz"}},{"country":"TR","name":"Kumru","admin1Code":"TR.52","latitude":40.87444,"longitude":37.26389,"translations":{"pt":"Kumru","it":"Kumru","ru":"Кумру","uk":"Kumru","de":"Kumru","es":"Kumru","en":"Kumru","fr":"Kumru"}},{"country":"TR","name":"Korgan","admin1Code":"TR.52","latitude":40.82472,"longitude":37.34667,"translations":{"pt":"Korgan","it":"Korgan","ru":"Корган","uk":"Korgan","de":"Korgan","es":"Korgan","en":"Korgan","fr":"Korgan"}},{"country":"TR","name":"Kocaali","admin1Code":"TR.54","latitude":41.05336,"longitude":30.85278,"translations":{"pt":"Kocaali","it":"Kocaali","ru":"Kocaali","uk":"Kocaali","de":"Kocaali","es":"Kocaali","en":"Kocaali","fr":"Kocaali"}},{"country":"TR","name":"Kızılcahamam","admin1Code":"TR.68","latitude":40.46972,"longitude":32.65056,"translations":{"pt":"Kızılcahamam","it":"Kızılcahamam","ru":"Kızılcahamam","uk":"Kızılcahamam","de":"Kızılcahamam","es":"Kızılcahamam","en":"Kızılcahamam","fr":"Kızılcahamam"}},{"country":"TR","name":"Kırklareli","admin1Code":"TR.39","latitude":41.73508,"longitude":27.22521,"translations":{"pt":"Kırklareli","it":"Kırklareli","ru":"Кыркларели","uk":"Киркларелі","de":"Kırklareli","es":"Kırklareli","en":"Kırklareli","fr":"Kırklareli"}},{"country":"TR","name":"Kestel","admin1Code":"TR.16","latitude":40.19828,"longitude":29.21237,"translations":{"pt":"Kestel","it":"Kestel","ru":"Kestel","uk":"Kestel","de":"Kestel","es":"Kestel","en":"Kestel","fr":"Kestel"}},{"country":"TR","name":"Zorlanae","admin1Code":"TR.22","latitude":40.85525,"longitude":26.63266,"translations":{"pt":"Zorlanae","it":"Zorlanae","ru":"Кешан","uk":"Zorlanae","de":"Zorlanae","es":"Zorlanae","en":"Zorlanae","fr":"Zorlanae"}},{"country":"TR","name":"Kelkit","admin1Code":"TR.69","latitude":40.12682,"longitude":39.43424,"translations":{"pt":"Kelkit","it":"Kelkit","ru":"Келькит","uk":"Kelkit","de":"Kelkit","es":"Kelkit","en":"Kelkit","fr":"Kelkit"}},{"country":"TR","name":"Kazan","admin1Code":"TR.68","latitude":40.23167,"longitude":32.68389,"translations":{"pt":"Kazan","it":"Kazan","ru":"Kazan","uk":"Kazan","de":"Kazan","es":"Kazan","en":"Kazan","fr":"Kazan"}},{"country":"TR","name":"Каваклы","admin1Code":"TR.34","latitude":41.09258,"longitude":28.33172,"translations":{"pt":"Kavaklы","it":"Kavaklы","ru":"Каваклы","uk":"Каваклы","de":"Kavaklы","es":"Kavaklы","en":"Каваклы","fr":"Kavaklы"}},{"country":"TR","name":"Kastamonu","admin1Code":"TR.37","latitude":41.37805,"longitude":33.77528,"translations":{"pt":"Castamonu","it":"Kastamonu","ru":"Кастамону","uk":"Кастамону","de":"Kastamonu","es":"Kastamonu","en":"Kastamonu","fr":"Kastamonu"}},{"country":"TR","name":"Kars","admin1Code":"TR.84","latitude":40.59825,"longitude":43.08548,"translations":{"pt":"Kars","it":"Kars","ru":"Карс","uk":"Карс","de":"Kars","es":"Kars","en":"Kars","fr":"Kars"}},{"country":"TR","name":"Karasu","admin1Code":"TR.54","latitude":41.10442,"longitude":30.69664,"translations":{"pt":"Karasu","it":"Karasu","ru":"Karasu","uk":"Karasu","de":"Karasu","es":"Karasu","en":"Karasu","fr":"Karasu"}},{"country":"TR","name":"Карасу","admin1Code":"TR.54","latitude":41.07096,"longitude":30.78543,"translations":{"pt":"Karasu","it":"Karasu","ru":"Карасу","uk":"Карасу","de":"Karasu","es":"Karasu","en":"Карасу","fr":"Karasu"}},{"country":"TR","name":"Karamürsel","admin1Code":"TR.41","latitude":40.69129,"longitude":29.61649,"translations":{"pt":"Karamürsel","it":"Karamürsel","ru":"Karamürsel","uk":"Karamürsel","de":"Karamürsel","es":"Karamürsel","en":"Karamürsel","fr":"Karamürsel"}},{"country":"TR","name":"Караджабей","admin1Code":"TR.16","latitude":40.21323,"longitude":28.3612,"translations":{"pt":"Karadzhabej","it":"Karadzhabej","ru":"Караджабей","uk":"Караджабей","de":"Karadzhabej","es":"Karadzhabej","en":"Караджабей","fr":"Karadzhabej"}},{"country":"TR","name":"Karabük","admin1Code":"TR.89","latitude":41.20488,"longitude":32.62768,"translations":{"pt":"Karabük","it":"Karabük","ru":"Карабюк","uk":"Карабюк","de":"Karabük","es":"Karabük","en":"Karabük","fr":"Karabük"}},{"country":"TR","name":"Kağızman","admin1Code":"TR.84","latitude":40.15669,"longitude":43.13424,"translations":{"pt":"Kağızman","it":"Kağızman","ru":"Кагызман","uk":"Kağızman","de":"Kağızman","es":"Kağızman","en":"Kağızman","fr":"Kağızman"}},{"country":"TR","name":"Nicaea","admin1Code":"TR.16","latitude":40.42861,"longitude":29.72111,"translations":{"pt":"Iznik","it":"Nicea","ru":"Изник","uk":"Nicaea","de":"Iznik","es":"Nicea","en":"Nicaea","fr":"Nicée"}},{"country":"TR","name":"İzmit","admin1Code":"TR.41","latitude":40.76499,"longitude":29.92928,"translations":{"pt":"İzmit","it":"İzmit","ru":"Измит","uk":"İzmit","de":"İzmit","es":"İzmit","en":"İzmit","fr":"Izmit"}},{"country":"TR","name":"İstinye","admin1Code":"TR.34","latitude":41.11008,"longitude":29.05094,"translations":{"pt":"İstinye","it":"İstinye","ru":"İstinye","uk":"İstinye","de":"İstinye","es":"İstinye","en":"İstinye","fr":"İstinye"}},{"country":"TR","name":"Istanbul","admin1Code":"TR.34","latitude":41.01384,"longitude":28.94966,"translations":{"pt":"Istambul","it":"Istanbul","ru":"Стамбул","uk":"Стамбул","de":"Istanbul","es":"Estambul","en":"Istanbul","fr":"Istanbul"}},{"country":"TR","name":"İskilip","admin1Code":"TR.19","latitude":40.73528,"longitude":34.47389,"translations":{"pt":"İskilip","it":"İskilip","ru":"İskilip","uk":"İskilip","de":"İskilip","es":"İskilip","en":"İskilip","fr":"İskilip"}},{"country":"TR","name":"İnegöl","admin1Code":"TR.16","latitude":40.07806,"longitude":29.51333,"translations":{"pt":"İnegöl","it":"İnegöl","ru":"İnegöl","uk":"İnegöl","de":"İnegöl","es":"İnegöl","en":"İnegöl","fr":"İnegöl"}},{"country":"TR","name":"Horasan","admin1Code":"TR.25","latitude":40.03885,"longitude":42.16366,"translations":{"pt":"Horasan","it":"Horasan","ru":"Хорасан","uk":"Horasan","de":"Horasan","es":"Horasan","en":"Horasan","fr":"Horasan"}},{"country":"TR","name":"Hopa","admin1Code":"TR.08","latitude":41.39046,"longitude":41.41966,"translations":{"pt":"Hopa","it":"Hopa","ru":"Хопа","uk":"Hopa","de":"Hopa","es":"Hopa","en":"Hopa","fr":"Hopa"}},{"country":"TR","name":"Hendek","admin1Code":"TR.54","latitude":40.79944,"longitude":30.74806,"translations":{"pt":"Hendek","it":"Hendek","ru":"Hendek","uk":"Hendek","de":"Hendek","es":"Hendek","en":"Hendek","fr":"Hendek"}},{"country":"TR","name":"Hayrabolu","admin1Code":"TR.59","latitude":41.21311,"longitude":27.10688,"translations":{"pt":"Hayrabolu","it":"Hayrabolu","ru":"Hayrabolu","uk":"Hayrabolu","de":"Hayrabolu","es":"Hayrabolu","en":"Hayrabolu","fr":"Hayrabolu"}},{"country":"TR","name":"Хавза","admin1Code":"TR.55","latitude":40.97056,"longitude":35.66222,"translations":{"pt":"Khavza","it":"Khavza","ru":"Хавза","uk":"Хавза","de":"Khavza","es":"Khavza","en":"Хавза","fr":"Khavza"}},{"country":"TR","name":"Gürsu","admin1Code":"TR.16","latitude":40.21876,"longitude":29.19487,"translations":{"pt":"Gürsu","it":"Gürsu","ru":"Gürsu","uk":"Gürsu","de":"Gürsu","es":"Gürsu","en":"Gürsu","fr":"Gürsu"}},{"country":"TR","name":"Гюрпынар","admin1Code":"TR.34","latitude":40.99256,"longitude":28.61428,"translations":{"pt":"Hjurpыnar","it":"Hjurpыnar","ru":"Гюрпынар","uk":"Гюрпынар","de":"Hjurpыnar","es":"Hjurpыnar","en":"Гюрпынар","fr":"Hjurpыnar"}},{"country":"TR","name":"Gürgentepe","admin1Code":"TR.52","latitude":40.78995,"longitude":37.60073,"translations":{"pt":"Gürgentepe","it":"Gürgentepe","ru":"Gürgentepe","uk":"Gürgentepe","de":"Gürgentepe","es":"Gürgentepe","en":"Gürgentepe","fr":"Gürgentepe"}},{"country":"TR","name":"Gümüşhane","admin1Code":"TR.69","latitude":40.46001,"longitude":39.47176,"translations":{"pt":"Gümüşhane","it":"Gümüşhane","ru":"Гюмюшане","uk":"Gümüşhane","de":"Gümüşhane","es":"Gümüşhane","en":"Gümüşhane","fr":"Gümüşhane"}},{"country":"TR","name":"Görükle","admin1Code":"TR.16","latitude":40.23114,"longitude":28.84017,"translations":{"pt":"Görükle","it":"Görükle","ru":"Görükle","uk":"Görükle","de":"Görükle","es":"Görükle","en":"Görükle","fr":"Görükle"}},{"country":"TR","name":"Görele","admin1Code":"TR.28","latitude":41.03083,"longitude":39.00306,"translations":{"pt":"Görele","it":"Görele","ru":"Гереле","uk":"Görele","de":"Görele","es":"Görele","en":"Görele","fr":"Görele"}},{"country":"TR","name":"Гонен","admin1Code":"TR.10","latitude":40.1049,"longitude":27.65399,"translations":{"pt":"Honen","it":"Honen","ru":"Гонен","uk":"Гонен","de":"Honen","es":"Honen","en":"Гонен","fr":"Honen"}},{"country":"TR","name":"Gölcük","admin1Code":"TR.41","latitude":40.71501,"longitude":29.81824,"translations":{"pt":"Gölcük","it":"Gölcük","ru":"Gölcük","uk":"Gölcük","de":"Gölcük","es":"Gölcük","en":"Gölcük","fr":"Gölcük"}},{"country":"TR","name":"Giresun","admin1Code":"TR.28","latitude":40.91698,"longitude":38.38741,"translations":{"pt":"Giresun","it":"Giresun","ru":"Гиресун","uk":"Ґіресун","de":"Giresun","es":"Giresun","en":"Giresun","fr":"Giresun"}},{"country":"TR","name":"Geyve","admin1Code":"TR.54","latitude":40.5075,"longitude":30.2925,"translations":{"pt":"Geyve","it":"Geyve","ru":"Geyve","uk":"Geyve","de":"Geyve","es":"Geyve","en":"Geyve","fr":"Geyve"}},{"country":"TR","name":"Гереде","admin1Code":"TR.14","latitude":40.80083,"longitude":32.19694,"translations":{"pt":"Herede","it":"Herede","ru":"Гереде","uk":"Гереде","de":"Herede","es":"Herede","en":"Гереде","fr":"Herede"}},{"country":"TR","name":"Gemlik","admin1Code":"TR.16","latitude":40.43094,"longitude":29.15969,"translations":{"pt":"Gemlik","it":"Gemlik","ru":"Гемлик","uk":"Gemlik","de":"Gemlik","es":"Gemlik","en":"Gemlik","fr":"Gemlik"}},{"country":"TR","name":"Gelibolu","admin1Code":"TR.17","latitude":40.40836,"longitude":26.67174,"translations":{"pt":"Gelibolu","it":"Gallipoli","ru":"Гелиболу","uk":"Геліболу","de":"Gallipoli","es":"Galípoli","en":"Gelibolu","fr":"Gelibolu"}},{"country":"TR","name":"Gebze","admin1Code":"TR.41","latitude":40.80276,"longitude":29.43068,"translations":{"pt":"Gebze","it":"Gebze","ru":"Гебзе","uk":"Gebze","de":"Gebze","es":"Gebze","en":"Gebze","fr":"Gebze"}},{"country":"TR","name":"Ferizli","admin1Code":"TR.54","latitude":40.94082,"longitude":30.48583,"translations":{"pt":"Ferizli","it":"Ferizli","ru":"Ferizli","uk":"Ferizli","de":"Ferizli","es":"Ferizli","en":"Ferizli","fr":"Ferizli"}},{"country":"TR","name":"Fatsa","admin1Code":"TR.52","latitude":41.02886,"longitude":37.49977,"translations":{"pt":"Fatsa","it":"Fatsa","ru":"Фатса","uk":"Fatsa","de":"Fatsa","es":"Fatsa","en":"Fatsa","fr":"Fatsa"}},{"country":"TR","name":"Esenyurt","admin1Code":"TR.34","latitude":41.02697,"longitude":28.67732,"translations":{"pt":"Esenyurt","it":"Esenyurt","ru":"Esenyurt","uk":"Esenyurt","de":"Esenyurt","es":"Esenyurt","en":"Esenyurt","fr":"Esenyurt"}},{"country":"TR","name":"Esenler","admin1Code":"TR.34","latitude":41.0435,"longitude":28.87619,"translations":{"pt":"Esenler","it":"Esenler","ru":"Esenler","uk":"Esenler","de":"Esenler","es":"Esenler","en":"Esenler","fr":"Esenler"}},{"country":"TR","name":"Эрегли","admin1Code":"TR.85","latitude":41.28261,"longitude":31.41806,"translations":{"pt":"Эrehly","it":"Эrehly","ru":"Эрегли","uk":"Эрегли","de":"Эrehly","es":"Эrehly","en":"Эрегли","fr":"Эrehly"}},{"country":"TR","name":"Erdek","admin1Code":"TR.10","latitude":40.3996,"longitude":27.79348,"translations":{"pt":"Erdek","it":"Erdek","ru":"Erdek","uk":"Erdek","de":"Erdek","es":"Erdek","en":"Erdek","fr":"Erdek"}},{"country":"TR","name":"Erbaa","admin1Code":"TR.60","latitude":40.66889,"longitude":36.5675,"translations":{"pt":"Erbaa","it":"Erbaa","ru":"Эрба","uk":"Erbaa","de":"Erbaa","es":"Erbaa","en":"Erbaa","fr":"Erbaa"}},{"country":"TR","name":"Эминёню","admin1Code":"TR.34","latitude":41.01754,"longitude":28.97101,"translations":{"pt":"Эmynёnju","it":"Эmynёnju","ru":"Эминёню","uk":"Эминёню","de":"Эmynёnju","es":"Эmynёnju","en":"Эминёню","fr":"Эmynёnju"}},{"country":"TR","name":"Edirne","admin1Code":"TR.22","latitude":41.67719,"longitude":26.55597,"translations":{"pt":"Edirne","it":"Adrianopoli","ru":"Эдирне","uk":"Едірне","de":"Edirne","es":"Edirne","en":"Edirne","fr":"Édirne"}},{"country":"TR","name":"Düzce","admin1Code":"TR.93","latitude":40.83889,"longitude":31.16389,"translations":{"pt":"Düzce","it":"Düzce","ru":"Düzce","uk":"Düzce","de":"Düzce","es":"Düzce","en":"Düzce","fr":"Düzce"}},{"country":"TR","name":"Devrek","admin1Code":"TR.85","latitude":41.21917,"longitude":31.95583,"translations":{"pt":"Devrek","it":"Devrek","ru":"Devrek","uk":"Devrek","de":"Devrek","es":"Devrek","en":"Devrek","fr":"Devrek"}},{"country":"TR","name":"Derince","admin1Code":"TR.41","latitude":40.75694,"longitude":29.81472,"translations":{"pt":"Derince","it":"Derince","ru":"Derince","uk":"Derince","de":"Derince","es":"Derince","en":"Derince","fr":"Derince"}},{"country":"TR","name":"Distretto di çubuk","admin1Code":"TR.68","latitude":40.23861,"longitude":33.03222,"translations":{"pt":"Distretto di çubuk","it":"Distretto di çubuk","ru":"Distretto di çubuk","uk":"Distretto di çubuk","de":"Distretto di çubuk","es":"Distretto di çubuk","en":"Distretto di çubuk","fr":"Distretto di çubuk"}},{"country":"TR","name":"Çorum","admin1Code":"TR.19","latitude":40.54889,"longitude":34.95333,"translations":{"pt":"Çorum","it":"Çorum","ru":"Чорум","uk":"Чорум","de":"Çorum","es":"Çorum","en":"Çorum","fr":"Çorum"}},{"country":"TR","name":"Çorlu","admin1Code":"TR.59","latitude":41.16069,"longitude":27.80093,"translations":{"pt":"Çorlu","it":"Çorlu","ru":"Чорлу","uk":"Çorlu","de":"Çorlu","es":"Çorlu","en":"Çorlu","fr":"Çorlu"}},{"country":"TR","name":"Çerkezköy","admin1Code":"TR.59","latitude":41.28629,"longitude":27.99939,"translations":{"pt":"Çerkezköy","it":"Çerkezköy","ru":"Çerkezköy","uk":"Çerkezköy","de":"Çerkezköy","es":"Çerkezköy","en":"Çerkezköy","fr":"Çerkezköy"}},{"country":"TR","name":"Çerkeş","admin1Code":"TR.82","latitude":40.81164,"longitude":32.89358,"translations":{"pt":"Çerkeş","it":"Çerkeş","ru":"Çerkeş","uk":"Çerkeş","de":"Çerkeş","es":"Çerkeş","en":"Çerkeş","fr":"Çerkeş"}},{"country":"TR","name":"Çayeli","admin1Code":"TR.53","latitude":41.08609,"longitude":40.72213,"translations":{"pt":"Çayeli","it":"Çayeli","ru":"Çayeli","uk":"Çayeli","de":"Çayeli","es":"Çayeli","en":"Çayeli","fr":"Çayeli"}},{"country":"TR","name":"Çaycuma","admin1Code":"TR.85","latitude":41.42639,"longitude":32.07556,"translations":{"pt":"Çaycuma","it":"Çaycuma","ru":"Çaycuma","uk":"Çaycuma","de":"Çaycuma","es":"Çaycuma","en":"Çaycuma","fr":"Çaycuma"}},{"country":"TR","name":"Çatalca","admin1Code":"TR.34","latitude":41.14073,"longitude":28.45967,"translations":{"pt":"Çatalca","it":"Çatalca","ru":"Çatalca","uk":"Çatalca","de":"Çatalca","es":"Çatalca","en":"Çatalca","fr":"Çatalca"}},{"country":"TR","name":"Çarşamba","admin1Code":"TR.55","latitude":41.19889,"longitude":36.72194,"translations":{"pt":"Çarşamba","it":"Çarşamba","ru":"Чаршамба","uk":"Çarşamba","de":"Çarşamba","es":"Çarşamba","en":"Çarşamba","fr":"Çarşamba"}},{"country":"TR","name":"Çankırı","admin1Code":"TR.82","latitude":40.59995,"longitude":33.6153,"translations":{"pt":"Çankırı","it":"Çankırı","ru":"Чанкыры","uk":"Çankırı","de":"Çankırı","es":"Çankırı","en":"Çankırı","fr":"Çankırı"}},{"country":"TR","name":"Çanakkale","admin1Code":"TR.17","latitude":40.15552,"longitude":26.41271,"translations":{"pt":"Çanakkale","it":"Çanakkale","ru":"Чанаккале","uk":"Чанаккале","de":"Çanakkale","es":"Çanakkale","en":"Çanakkale","fr":"Çanakkale"}},{"country":"TR","name":"Çan","admin1Code":"TR.17","latitude":40.03328,"longitude":27.05236,"translations":{"pt":"Çan","it":"Çan","ru":"Çan","uk":"Çan","de":"Çan","es":"Çan","en":"Çan","fr":"Çan"}},{"country":"TR","name":"Bursa","admin1Code":"TR.16","latitude":40.19559,"longitude":29.06013,"translations":{"pt":"Bursa","it":"Bursa","ru":"Бурса","uk":"Бурса","de":"Bursa","es":"Bursa","en":"Bursa","fr":"Bursa"}},{"country":"TR","name":"Bulancak","admin1Code":"TR.28","latitude":40.93805,"longitude":38.23148,"translations":{"pt":"Bulancak","it":"Bulancak","ru":"Буланджак","uk":"Bulancak","de":"Bulancak","es":"Bulancak","en":"Bulancak","fr":"Bulancak"}},{"country":"TR","name":"Boyabat","admin1Code":"TR.57","latitude":41.46889,"longitude":34.76667,"translations":{"pt":"Boyabat","it":"Boyabat","ru":"Boyabat","uk":"Boyabat","de":"Boyabat","es":"Boyabat","en":"Boyabat","fr":"Boyabat"}},{"country":"TR","name":"Bolu","admin1Code":"TR.14","latitude":40.73583,"longitude":31.60611,"translations":{"pt":"Bolu","it":"Bolu","ru":"Болу","uk":"Болу","de":"Bolu","es":"Bolu","en":"Bolu","fr":"Bolu"}},{"country":"TR","name":"Биледжик","admin1Code":"TR.11","latitude":40.14192,"longitude":29.97932,"translations":{"pt":"Byledzhyk","it":"Byledzhyk","ru":"Биледжик","uk":"Біледжик","de":"Byledzhyk","es":"Byledzhyk","en":"Биледжик","fr":"Byledzhyk"}},{"country":"TR","name":"Биг","admin1Code":"TR.17","latitude":40.22806,"longitude":27.24222,"translations":{"pt":"Byh","it":"Byh","ru":"Биг","uk":"Биг","de":"Byh","es":"Byh","en":"Биг","fr":"Byh"}},{"country":"TR","name":"Distretto di beypazarı","admin1Code":"TR.68","latitude":40.1675,"longitude":31.92111,"translations":{"pt":"Distretto di beypazarı","it":"Distretto di beypazarı","ru":"Distretto di beypazarı","uk":"Distretto di beypazarı","de":"Distretto di beypazarı","es":"Distretto di beypazarı","en":"Distretto di beypazarı","fr":"Distretto di beypazarı"}},{"country":"TR","name":"Beşikdüzü","admin1Code":"TR.61","latitude":41.05202,"longitude":39.23294,"translations":{"pt":"Beşikdüzü","it":"Beşikdüzü","ru":"Beşikdüzü","uk":"Beşikdüzü","de":"Beşikdüzü","es":"Beşikdüzü","en":"Beşikdüzü","fr":"Beşikdüzü"}},{"country":"TR","name":"Bayburt","admin1Code":"TR.77","latitude":40.25631,"longitude":40.22289,"translations":{"pt":"Bayburt","it":"Bayburt","ru":"Байбурт","uk":"Байбурт","de":"Bayburt","es":"Provincia de bayburt","en":"Bayburt","fr":"Bayburt"}},{"country":"TR","name":"Бартин","admin1Code":"TR.87","latitude":41.63583,"longitude":32.3375,"translations":{"pt":"Bartyn","it":"Bartyn","ru":"Бартин","uk":"Бартин","de":"Bartyn","es":"Bartyn","en":"Бартин","fr":"Bartyn"}},{"country":"TR","name":"Panderma","admin1Code":"TR.10","latitude":40.35222,"longitude":27.97667,"translations":{"pt":"Panderma","it":"Panderma","ru":"Бандырма","uk":"Panderma","de":"Panderma","es":"Panderma","en":"Panderma","fr":"Panderma"}},{"country":"TR","name":"Багджылар","admin1Code":"TR.34","latitude":41.03903,"longitude":28.85671,"translations":{"pt":"Bahdzhыlar","it":"Bahdzhыlar","ru":"Багджылар","uk":"Багджылар","de":"Bahdzhыlar","es":"Bahdzhыlar","en":"Багджылар","fr":"Bahdzhыlar"}},{"country":"TR","name":"Бафра","admin1Code":"TR.55","latitude":41.56787,"longitude":35.90311,"translations":{"pt":"Bafra","it":"Bafra","ru":"Бафра","uk":"Бафра","de":"Bafra","es":"Bafra","en":"Бафра","fr":"Bafra"}},{"country":"TR","name":"Babaeski","admin1Code":"TR.39","latitude":41.42809,"longitude":27.0966,"translations":{"pt":"Babaeski","it":"Babaeski","ru":"Babaeski","uk":"Babaeski","de":"Babaeski","es":"Babaeski","en":"Babaeski","fr":"Babaeski"}},{"country":"TR","name":"Artvin","admin1Code":"TR.08","latitude":41.18161,"longitude":41.82172,"translations":{"pt":"Artvin","it":"Artvin","ru":"Артвин","uk":"Артвін","de":"Artvin","es":"Artvin","en":"Artvin","fr":"Artvin"}},{"country":"TR","name":"Arsin","admin1Code":"TR.61","latitude":40.95271,"longitude":39.92674,"translations":{"pt":"Arsin","it":"Arsin","ru":"Arsin","uk":"Arsin","de":"Arsin","es":"Arsin","en":"Arsin","fr":"Arsin"}},{"country":"TR","name":"Arnavutköy","admin1Code":"TR.34","latitude":41.18355,"longitude":28.7402,"translations":{"pt":"Arnavutköy","it":"Arnavutköy","ru":"Arnavutköy","uk":"Arnavutköy","de":"Arnavutköy","es":"Arnavutköy","en":"Arnavutköy","fr":"Arnavutköy"}},{"country":"TR","name":"Arhavi","admin1Code":"TR.08","latitude":41.35121,"longitude":41.30456,"translations":{"pt":"Arhavi","it":"Arhavi","ru":"Мусазаде","uk":"Arhavi","de":"Arhavi","es":"Arhavi","en":"Arhavi","fr":"Arhavi"}},{"country":"TR","name":"Ardeşen","admin1Code":"TR.53","latitude":41.19064,"longitude":40.97935,"translations":{"pt":"Ardeşen","it":"Ardeşen","ru":"Ардешен","uk":"Ardeşen","de":"Ardeşen","es":"Ardeşen","en":"Ardeşen","fr":"Ardeşen"}},{"country":"TR","name":"Ardahan","admin1Code":"TR.86","latitude":41.10871,"longitude":42.70222,"translations":{"pt":"Ardaã","it":"Ardahan","ru":"Ардаган","uk":"Ардахан","de":"Ardahan","es":"Ardahan","en":"Ardahan","fr":"Ardahan"}},{"country":"TR","name":"Араклы","admin1Code":"TR.61","latitude":40.93854,"longitude":40.05842,"translations":{"pt":"Araklы","it":"Araklы","ru":"Араклы","uk":"Араклы","de":"Araklы","es":"Araklы","en":"Араклы","fr":"Araklы"}},{"country":"TR","name":"Amasya","admin1Code":"TR.05","latitude":40.65333,"longitude":35.83306,"translations":{"pt":"Amásia","it":"Amasya","ru":"Амасья","uk":"Амасья","de":"Amasya","es":"Amasya","en":"Amasya","fr":"Amasya"}},{"country":"TR","name":"Alaplı","admin1Code":"TR.85","latitude":41.1814,"longitude":31.38514,"translations":{"pt":"Alaplı","it":"Alaplı","ru":"Alaplı","uk":"Alaplı","de":"Alaplı","es":"Alaplı","en":"Alaplı","fr":"Alaplı"}},{"country":"TR","name":"Alaca","admin1Code":"TR.19","latitude":40.16833,"longitude":34.8425,"translations":{"pt":"Alaca","it":"Alaca","ru":"Alaca","uk":"Alaca","de":"Alaca","es":"Alaca","en":"Alaca","fr":"Alaca"}},{"country":"TR","name":"Akyurt","admin1Code":"TR.68","latitude":40.13512,"longitude":33.08614,"translations":{"pt":"Akyurt","it":"Akyurt","ru":"Akyurt","uk":"Akyurt","de":"Akyurt","es":"Akyurt","en":"Akyurt","fr":"Akyurt"}},{"country":"TR","name":"Akyazı","admin1Code":"TR.54","latitude":40.685,"longitude":30.62222,"translations":{"pt":"Akyazı","it":"Akyazı","ru":"Akyazı","uk":"Akyazı","de":"Akyazı","es":"Akyazı","en":"Akyazı","fr":"Akyazı"}},{"country":"TR","name":"Akhisar","admin1Code":"TR.16","latitude":40.11825,"longitude":29.46623,"translations":{"pt":"Akhisar","it":"Akhisar","ru":"Akhisar","uk":"Akhisar","de":"Akhisar","es":"Akhisar","en":"Akhisar","fr":"Akhisar"}},{"country":"TR","name":"Akçakoca","admin1Code":"TR.93","latitude":41.08935,"longitude":31.12362,"translations":{"pt":"Akçakoca","it":"Akçakoca","ru":"Akçakoca","uk":"Akçakoca","de":"Akçakoca","es":"Akçakoca","en":"Akçakoca","fr":"Akçakoca"}},{"country":"TR","name":"Akçaabat","admin1Code":"TR.61","latitude":41.02121,"longitude":39.57146,"translations":{"pt":"Akçaabat","it":"Akçaabat","ru":"Акчаабад","uk":"Akçaabat","de":"Akçaabat","es":"Akçaabat","en":"Akçaabat","fr":"Akçaabat"}},{"country":"TR","name":"Adapazarı","admin1Code":"TR.54","latitude":40.78056,"longitude":30.40333,"translations":{"pt":"Adapazarı","it":"Adapazarı","ru":"Сакарья","uk":"Адапазари","de":"Adapazarı","es":"Adapazarı","en":"Adapazarı","fr":"Adapazarı"}},{"country":"TR","name":"Espiye","admin1Code":"TR.28","latitude":40.94705,"longitude":38.70299,"translations":{"pt":"Espiye","it":"Espiye","ru":"Espiye","uk":"Espiye","de":"Espiye","es":"Espiye","en":"Espiye","fr":"Espiye"}},{"country":"TR","name":"Merter keresteciler","admin1Code":"TR.34","latitude":41.01295,"longitude":28.88593,"translations":{"pt":"Merter keresteciler","it":"Merter keresteciler","ru":"Merter keresteciler","uk":"Merter keresteciler","de":"Merter keresteciler","es":"Merter keresteciler","en":"Merter keresteciler","fr":"Merter keresteciler"}},{"country":"TR","name":"Güngören merter","admin1Code":"TR.34","latitude":41.00711,"longitude":28.88795,"translations":{"pt":"Güngören merter","it":"Güngören merter","ru":"Güngören merter","uk":"Güngören merter","de":"Güngören merter","es":"Güngören merter","en":"Güngören merter","fr":"Güngören merter"}},{"country":"TR","name":"Turgutreis","admin1Code":"TR.48","latitude":37.01667,"longitude":27.26667,"translations":{"pt":"Turgutreis","it":"Turgutreis","ru":"Turgutreis","uk":"Turgutreis","de":"Turgutreis","es":"Turgutreis","en":"Turgutreis","fr":"Turgutreis"}},{"country":"TR","name":"Sarigerme","admin1Code":"TR.48","latitude":36.71549,"longitude":28.70436,"translations":{"pt":"Sarigerme","it":"Sarigerme","ru":"Саригерме","uk":"Sarigerme","de":"Sarigerme","es":"Sarigerme","en":"Sarigerme","fr":"Sarigerme"}},{"country":"TR","name":"Ataşehir","admin1Code":"TR.34","latitude":40.9833,"longitude":29.1167,"translations":{"pt":"Ataşehir","it":"Ataşehir","ru":"Ataşehir","uk":"Ataşehir","de":"Ataşehir","es":"Ataşehir","en":"Ataşehir","fr":"Ataşehir"}},{"country":"TR","name":"Başakşehir","admin1Code":"TR.34","latitude":41.09307,"longitude":28.80203,"translations":{"pt":"Başakşehir","it":"Başakşehir","ru":"Başakşehir","uk":"Başakşehir","de":"Başakşehir","es":"Başakşehir","en":"Başakşehir","fr":"Başakşehir"}},{"country":"TR","name":"Beylikduzu","admin1Code":"TR.34","latitude":40.982,"longitude":28.6399,"translations":{"pt":"Beylikduzu","it":"Beylikduzu","ru":"Beylikduzu","uk":"Beylikduzu","de":"Beylikduzu","es":"Beylikduzu","en":"Beylikduzu","fr":"Beylikduzu"}},{"country":"TR","name":"Büyükçekmece","admin1Code":"TR.34","latitude":41.02072,"longitude":28.58502,"translations":{"pt":"Büyükçekmece","it":"Büyükçekmece","ru":"Büyükçekmece","uk":"Büyükçekmece","de":"Büyükçekmece","es":"Büyükçekmece","en":"Büyükçekmece","fr":"Büyükçekmece"}},{"country":"TR","name":"Çankaya","admin1Code":"TR.68","latitude":39.9179,"longitude":32.86268,"translations":{"pt":"Çankaya","it":"Çankaya","ru":"Çankaya","uk":"Çankaya","de":"Çankaya","es":"Çankaya","en":"Çankaya","fr":"Çankaya"}},{"country":"TR","name":"Yakınca","admin1Code":"TR.44","latitude":38.30533,"longitude":38.23828,"translations":{"pt":"Yakınca","it":"Yakınca","ru":"Yakınca","uk":"Yakınca","de":"Yakınca","es":"Yakınca","en":"Yakınca","fr":"Yakınca"}},{"country":"TR","name":"Bahçelievler","admin1Code":"TR.34","latitude":41.00231,"longitude":28.8598,"translations":{"pt":"Bahçelievler","it":"Bahçelievler","ru":"Bahçelievler","uk":"Bahçelievler","de":"Bahçelievler","es":"Bahçelievler","en":"Bahçelievler","fr":"Bahçelievler"}},{"country":"TR","name":"Sultangazi","admin1Code":"TR.34","latitude":41.10652,"longitude":28.86847,"translations":{"pt":"Sultangazi","it":"Sultangazi","ru":"Sultangazi","uk":"Sultangazi","de":"Sultangazi","es":"Sultangazi","en":"Sultangazi","fr":"Sultangazi"}},{"country":"TR","name":"Sultanbeyli","admin1Code":"TR.34","latitude":40.96072,"longitude":29.27067,"translations":{"pt":"Sultanbeyli","it":"Sultanbeyli","ru":"Sultanbeyli","uk":"Sultanbeyli","de":"Sultanbeyli","es":"Sultanbeyli","en":"Sultanbeyli","fr":"Sultanbeyli"}},{"country":"TR","name":"Sancaktepe","admin1Code":"TR.34","latitude":41.00244,"longitude":29.23187,"translations":{"pt":"Sancaktepe","it":"Sancaktepe","ru":"Sancaktepe","uk":"Sancaktepe","de":"Sancaktepe","es":"Sancaktepe","en":"Sancaktepe","fr":"Sancaktepe"}},{"country":"TR","name":"Karabağlar","admin1Code":"TR.35","latitude":38.37396,"longitude":27.1352,"translations":{"pt":"Karabağlar","it":"Karabağlar","ru":"Karabağlar","uk":"Karabağlar","de":"Karabağlar","es":"Karabağlar","en":"Karabağlar","fr":"Karabağlar"}},{"country":"TR","name":"İncirli","admin1Code":"TR.68","latitude":39.98431,"longitude":32.84317,"translations":{"pt":"İncirli","it":"İncirli","ru":"İncirli","uk":"İncirli","de":"İncirli","es":"İncirli","en":"İncirli","fr":"İncirli"}},{"country":"TR","name":"Oba","admin1Code":"TR.07","latitude":36.55013,"longitude":32.0596,"translations":{"pt":"Oba","it":"Oba","ru":"Oba","uk":"Oba","de":"Oba","es":"Oba","en":"Oba","fr":"Oba"}},{"country":"TR","name":"Cikcilli","admin1Code":"TR.07","latitude":36.55403,"longitude":32.02962,"translations":{"pt":"Cikcilli","it":"Cikcilli","ru":"Cikcilli","uk":"Cikcilli","de":"Cikcilli","es":"Cikcilli","en":"Cikcilli","fr":"Cikcilli"}},{"country":"TR","name":"Muratpaşa","admin1Code":"TR.07","latitude":36.89157,"longitude":30.76498,"translations":{"pt":"Muratpaşa","it":"Muratpaşa","ru":"Muratpaşa","uk":"Muratpaşa","de":"Muratpaşa","es":"Muratpaşa","en":"Muratpaşa","fr":"Muratpaşa"}},{"country":"TR","name":"Çubuklu","admin1Code":"TR.34","latitude":41.10419,"longitude":29.08331,"translations":{"pt":"Çubuklu","it":"Çubuklu","ru":"Çubuklu","uk":"Çubuklu","de":"Çubuklu","es":"Çubuklu","en":"Çubuklu","fr":"Çubuklu"}},{"country":"TR","name":"Merkezefendi","admin1Code":"TR.20","latitude":37.80544,"longitude":29.04236,"translations":{"pt":"Merkezefendi","it":"Merkezefendi","ru":"Merkezefendi","uk":"Merkezefendi","de":"Merkezefendi","es":"Merkezefendi","en":"Merkezefendi","fr":"Merkezefendi"}}]