[{"country":"RS","name":"Zrenjanin","admin1Code":"RS.VO","latitude":45.38361,"longitude":20.38194,"translations":{"pt":"Zrenjanin","it":"Zrenjanin","ru":"Зренянин","uk":"Zrenjanin","de":"Zrenjanin","es":"Zrenjanin","en":"Zrenjanin","fr":"Zrenjanin"}},{"country":"RS","name":"Semlin","admin1Code":"RS.SE","latitude":44.8458,"longitude":20.40116,"translations":{"pt":"Semlin","it":"Semlin","ru":"Земун","uk":"Semlin","de":"Semlin","es":"Semlin","en":"Semlin","fr":"Semlin"}},{"country":"RS","name":"Заечар","admin1Code":"RS.SE","latitude":43.90358,"longitude":22.26405,"translations":{"pt":"Zaechar","it":"Zaechar","ru":"Заечар","uk":"Заечар","de":"Zaechar","es":"Zaechar","en":"Заечар","fr":"Zaechar"}},{"country":"RS","name":"Vršac","admin1Code":"RS.VO","latitude":45.11667,"longitude":21.30361,"translations":{"pt":"Vršac","it":"Vršac","ru":"Вршац","uk":"Вршац","de":"Vršac","es":"Vršac","en":"Vršac","fr":"Vršac"}},{"country":"RS","name":"Vranje","admin1Code":"RS.SE","latitude":42.55139,"longitude":21.90028,"translations":{"pt":"Vranje","it":"Vranje","ru":"Вране","uk":"Vranje","de":"Vranje","es":"Vranje","en":"Vranje","fr":"Vranje"}},{"country":"RS","name":"Трстеник","admin1Code":"RS.SE","latitude":43.61694,"longitude":21.0025,"translations":{"pt":"Trstenyk","it":"Trstenyk","ru":"Трстеник","uk":"Трстеник","de":"Trstenyk","es":"Trstenyk","en":"Трстеник","fr":"Trstenyk"}},{"country":"RS","name":"Stara pazova","admin1Code":"RS.VO","latitude":44.985,"longitude":20.16083,"translations":{"pt":"Stara pazova","it":"Stara pazova","ru":"Stara pazova","uk":"Stara pazova","de":"Stara pazova","es":"Stara pazova","en":"Stara pazova","fr":"Stara pazova"}},{"country":"RS","name":"Sremčica","admin1Code":"RS.SE","latitude":44.67653,"longitude":20.39232,"translations":{"pt":"Sremčica","it":"Sremčica","ru":"Sremčica","uk":"Sremčica","de":"Sremčica","es":"Sremčica","en":"Sremčica","fr":"Sremčica"}},{"country":"RS","name":"Смедеревска-паланка","admin1Code":"RS.SE","latitude":44.36548,"longitude":20.95885,"translations":{"pt":"Smederevska-palanka","it":"Smederevska-palanka","ru":"Смедеревска-паланка","uk":"Смедеревска-паланка","de":"Smederevska-palanka","es":"Smederevska-palanka","en":"Смедеревска-паланка","fr":"Smederevska-palanka"}},{"country":"RS","name":"Smederevo","admin1Code":"RS.SE","latitude":44.66436,"longitude":20.92763,"translations":{"pt":"Semêndria","it":"Smederevo","ru":"Смедерево","uk":"Смедереве","de":"Smederevo","es":"Smederevo","en":"Smederevo","fr":"Smederevo"}},{"country":"RS","name":"Сента","admin1Code":"RS.VO","latitude":45.9275,"longitude":20.07722,"translations":{"pt":"Senta","it":"Senta","ru":"Сента","uk":"Сента","de":"Senta","es":"Senta","en":"Сента","fr":"Senta"}},{"country":"RS","name":"Прокупле","admin1Code":"RS.SE","latitude":43.23417,"longitude":21.58806,"translations":{"pt":"Prokuple","it":"Prokuple","ru":"Прокупле","uk":"Прокупле","de":"Prokuple","es":"Prokuple","en":"Прокупле","fr":"Prokuple"}},{"country":"RS","name":"Požarevac","admin1Code":"RS.SE","latitude":44.62133,"longitude":21.18782,"translations":{"pt":"Požarevac","it":"Požarevac","ru":"Пожаревац","uk":"Пожареваць","de":"Požarevac","es":"Požarevac","en":"Požarevac","fr":"Požarevac"}},{"country":"RS","name":"Pirot","admin1Code":"RS.SE","latitude":43.15306,"longitude":22.58611,"translations":{"pt":"Pirot","it":"Pirot","ru":"Пирот","uk":"Пірот","de":"Pirot","es":"Pirot","en":"Pirot","fr":"Pirot"}},{"country":"RS","name":"Pančevo","admin1Code":"RS.VO","latitude":44.87177,"longitude":20.64167,"translations":{"pt":"Pančevo","it":"Pančevo","ru":"Панчево","uk":"Панчево","de":"Pančevo","es":"Pančevo","en":"Pančevo","fr":"Pančevo"}},{"country":"RS","name":"Obrenovac","admin1Code":"RS.SE","latitude":44.65486,"longitude":20.20017,"translations":{"pt":"Obrenovac","it":"Obrenovac","ru":"Obrenovac","uk":"Obrenovac","de":"Obrenovac","es":"Obrenovac","en":"Obrenovac","fr":"Obrenovac"}},{"country":"RS","name":"Novi pazar","admin1Code":"RS.SE","latitude":43.13667,"longitude":20.51222,"translations":{"pt":"Novi pazar","it":"Novi pazar","ru":"Нови-пазар","uk":"Novi pazar","de":"Novi pazar","es":"Novi pazar","en":"Novi pazar","fr":"Novi pazar"}},{"country":"RS","name":"Nova pazova","admin1Code":"RS.VO","latitude":44.94366,"longitude":20.21931,"translations":{"pt":"Nova pazova","it":"Nova pazova","ru":"Nova pazova","uk":"Nova pazova","de":"Nova pazova","es":"Nova pazova","en":"Nova pazova","fr":"Nova pazova"}},{"country":"RS","name":"Niš","admin1Code":"RS.SE","latitude":43.32472,"longitude":21.90333,"translations":{"pt":"Niš","it":"Niš","ru":"Ниш","uk":"Niš","de":"Niš","es":"Niš","en":"Niš","fr":"Niš"}},{"country":"RS","name":"Неготин","admin1Code":"RS.SE","latitude":44.22639,"longitude":22.53083,"translations":{"pt":"Nehotyn","it":"Nehotyn","ru":"Неготин","uk":"Неготин","de":"Nehotyn","es":"Nehotyn","en":"Неготин","fr":"Nehotyn"}},{"country":"RS","name":"Leskovac","admin1Code":"RS.SE","latitude":42.99806,"longitude":21.94611,"translations":{"pt":"Leskovac","it":"Leskovac","ru":"Лесковац","uk":"Лесковац","de":"Leskovac","es":"Leskovac","en":"Leskovac","fr":"Leskovac"}},{"country":"RS","name":"Лазаревац","admin1Code":"RS.SE","latitude":44.38534,"longitude":20.2557,"translations":{"pt":"Lazarevats","it":"Lazarevats","ru":"Лазаревац","uk":"Лазаревац","de":"Lazarevats","es":"Lazarevats","en":"Лазаревац","fr":"Lazarevats"}},{"country":"RS","name":"Kruševac","admin1Code":"RS.SE","latitude":43.58,"longitude":21.33389,"translations":{"pt":"Kruševac","it":"Kruševac","ru":"Крушевац","uk":"Kruševac","de":"Kruševac","es":"Kruševac","en":"Kruševac","fr":"Kruševac"}},{"country":"RS","name":"Kraljevo","admin1Code":"RS.SE","latitude":43.72583,"longitude":20.68944,"translations":{"pt":"Kraljevo","it":"Kraljevo","ru":"Кралево","uk":"Кралево","de":"Kraljevo","es":"Kraljevo","en":"Kraljevo","fr":"Kraljevo"}},{"country":"RS","name":"Kragujevac","admin1Code":"RS.SE","latitude":44.01667,"longitude":20.91667,"translations":{"pt":"Kragujevac","it":"Kragujevac","ru":"Крагуевац","uk":"Крагуєваць","de":"Kragujevac","es":"Kragujevac","en":"Kragujevac","fr":"Kragujevac"}},{"country":"RS","name":"Kikinda","admin1Code":"RS.VO","latitude":45.82972,"longitude":20.46528,"translations":{"pt":"Kikinda","it":"Kikinda","ru":"Кикинда","uk":"Kikinda","de":"Kikinda","es":"Kikinda","en":"Kikinda","fr":"Kikinda"}},{"country":"RS","name":"Ягодина","admin1Code":"RS.SE","latitude":43.97713,"longitude":21.26121,"translations":{"pt":"Jahodyna","it":"Jahodyna","ru":"Ягодина","uk":"Ягодина","de":"Jahodyna","es":"Jahodyna","en":"Ягодина","fr":"Jahodyna"}},{"country":"RS","name":"Indjija","admin1Code":"RS.VO","latitude":45.04816,"longitude":20.08165,"translations":{"pt":"Indjija","it":"Indjija","ru":"Инджия","uk":"Інджія","de":"Indjija","es":"Indjija","en":"Indjija","fr":"Indjija"}},{"country":"RS","name":"Gornji milanovac","admin1Code":"RS.SE","latitude":44.02603,"longitude":20.46152,"translations":{"pt":"Gornji milanovac","it":"Gornji milanovac","ru":"Gornji milanovac","uk":"Gornji milanovac","de":"Gornji milanovac","es":"Gornji milanovac","en":"Gornji milanovac","fr":"Gornji milanovac"}},{"country":"RS","name":"Чуприя","admin1Code":"RS.SE","latitude":43.9275,"longitude":21.37,"translations":{"pt":"Chupryja","it":"Chupryja","ru":"Чуприя","uk":"Чуприя","de":"Chupryja","es":"Chupryja","en":"Чуприя","fr":"Chupryja"}},{"country":"RS","name":"Čačak","admin1Code":"RS.SE","latitude":43.89139,"longitude":20.34972,"translations":{"pt":"Čačak","it":"Čačak","ru":"Чачак","uk":"Чачак","de":"Čačak","es":"Čačak","en":"Čačak","fr":"Čačak"}},{"country":"RS","name":"Bor","admin1Code":"RS.SE","latitude":44.07488,"longitude":22.09591,"translations":{"pt":"Bor","it":"Bor","ru":"Бор","uk":"Бор","de":"Bor","es":"Bor","en":"Bor","fr":"Bor"}},{"country":"RS","name":"Belgrade","admin1Code":"RS.SE","latitude":44.80401,"longitude":20.46513,"translations":{"pt":"Belgrado","it":"Belgrado","ru":"Белград","uk":"Belgrade","de":"Belgrad","es":"Belgrado","en":"Belgrade","fr":"Belgrade"}},{"country":"RS","name":"Бечей","admin1Code":"RS.VO","latitude":45.61632,"longitude":20.03331,"translations":{"pt":"Bechej","it":"Bechej","ru":"Бечей","uk":"Бечей","de":"Bechej","es":"Bechej","en":"Бечей","fr":"Bechej"}},{"country":"RS","name":"Аранджеловац","admin1Code":"RS.SE","latitude":44.30694,"longitude":20.56,"translations":{"pt":"Arandzhelovats","it":"Arandzhelovats","ru":"Аранджеловац","uk":"Аранджеловац","de":"Arandzhelovats","es":"Arandzhelovats","en":"Аранджеловац","fr":"Arandzhelovats"}},{"country":"RS","name":"Врбас","admin1Code":"RS.VO","latitude":45.57139,"longitude":19.64083,"translations":{"pt":"Vrbas","it":"Vrbas","ru":"Врбас","uk":"Вербас","de":"Vrbas","es":"Vrbas","en":"Врбас","fr":"Vrbas"}},{"country":"RS","name":"Valjevo","admin1Code":"RS.SE","latitude":44.27513,"longitude":19.89821,"translations":{"pt":"Valjevo","it":"Valjevo","ru":"Валево","uk":"Валево","de":"Valjevo","es":"Valjevo","en":"Valjevo","fr":"Valjevo"}},{"country":"RS","name":"Užice","admin1Code":"RS.SE","latitude":43.85861,"longitude":19.84878,"translations":{"pt":"Užice","it":"Užice","ru":"Ужице","uk":"Ужице","de":"Užice","es":"Užice","en":"Užice","fr":"Užice"}},{"country":"RS","name":"Subotica","admin1Code":"RS.VO","latitude":46.1,"longitude":19.66667,"translations":{"pt":"Subotica","it":"Subotica","ru":"Суботица","uk":"Subotica","de":"Subotica","es":"Subotica","en":"Subotica","fr":"Subotica"}},{"country":"RS","name":"Sremska mitrovica","admin1Code":"RS.VO","latitude":44.97639,"longitude":19.61222,"translations":{"pt":"Sremska mitrovica","it":"Sremska mitrovica","ru":"Sremska mitrovica","uk":"Sremska mitrovica","de":"Sremska mitrovica","es":"Sremska mitrovica","en":"Sremska mitrovica","fr":"Sremska mitrovica"}},{"country":"RS","name":"Sombor","admin1Code":"RS.VO","latitude":45.77417,"longitude":19.11222,"translations":{"pt":"Sombor","it":"Sombor","ru":"Сомбор","uk":"Сомбор","de":"Sombor","es":"Sombor","en":"Sombor","fr":"Sombor"}},{"country":"RS","name":"Шабац","admin1Code":"RS.SE","latitude":44.74667,"longitude":19.69,"translations":{"pt":"Shabats","it":"Shabats","ru":"Шабац","uk":"Шабац","de":"Shabats","es":"Shabats","en":"Шабац","fr":"Shabats"}},{"country":"RS","name":"Рума","admin1Code":"RS.VO","latitude":45.00806,"longitude":19.82222,"translations":{"pt":"Ruma","it":"Ruma","ru":"Рума","uk":"Рума","de":"Ruma","es":"Ruma","en":"Рума","fr":"Ruma"}},{"country":"RS","name":"Novi sad","admin1Code":"RS.VO","latitude":45.25167,"longitude":19.83694,"translations":{"pt":"Novi sad","it":"Novi sad","ru":"Нови-сад","uk":"Новий сад","de":"Novi sad","es":"Novi sad","en":"Novi sad","fr":"Novi sad"}},{"country":"RS","name":"Лозница","admin1Code":"RS.SE","latitude":44.53118,"longitude":19.24267,"translations":{"pt":"Loznytsa","it":"Loznytsa","ru":"Лозница","uk":"Лозница","de":"Loznytsa","es":"Loznytsa","en":"Лозница","fr":"Loznytsa"}},{"country":"RS","name":"Futog","admin1Code":"RS.VO","latitude":45.23874,"longitude":19.71416,"translations":{"pt":"Futog","it":"Futog","ru":"Futog","uk":"Футог","de":"Futog","es":"Futog","en":"Futog","fr":"Futog"}},{"country":"RS","name":"Bačka topola","admin1Code":"RS.VO","latitude":45.81516,"longitude":19.6318,"translations":{"pt":"Bačka topola","it":"Bačka topola","ru":"Bačka topola","uk":"Bačka topola","de":"Bačka topola","es":"Bačka topola","en":"Bačka topola","fr":"Bačka topola"}},{"country":"RS","name":"Бачка-паланка","admin1Code":"RS.VO","latitude":45.24966,"longitude":19.39664,"translations":{"pt":"Bachka-palanka","it":"Bachka-palanka","ru":"Бачка-паланка","uk":"Бачка-паланка","de":"Bachka-palanka","es":"Bachka-palanka","en":"Бачка-паланка","fr":"Bachka-palanka"}},{"country":"RS","name":"Apatin","admin1Code":"RS.VO","latitude":45.6726,"longitude":18.978,"translations":{"pt":"Apatin","it":"Apatin","ru":"Апатин","uk":"Апатин","de":"Apatin","es":"Apatin","en":"Apatin","fr":"Apatin"}},{"country":"RS","name":"Knjazevac","admin1Code":"RS.SE","latitude":43.56634,"longitude":22.25701,"translations":{"pt":"Knjazevac","it":"Knjazevac","ru":"Knjazevac","uk":"Knjazevac","de":"Knjazevac","es":"Knjazevac","en":"Knjazevac","fr":"Knjazevac"}}]